{"type":"FeatureCollection","features":[{"type": "Feature", "id": "mmDOWzrdz88zmLfXnr5lzG6dQ1g=", "properties": {"ref": "13900", "amenity": "bank", "@spider": "banco_del_bienestar_mx", "addr:full": "Ignacio Ramirez No.20 Local 'B' Esq. Maestro Antonio Caso, Col. Tabacalera Deleg.Cuauhtemoc", "addr:city": "CUAUHTEMOC", "addr:country": "MX", "name": "REFORMA", "phone": "55355307;55351358", "brand": "Banco del Bienestar", "brand:wikidata": "Q5719137"}, "geometry": {"type": "Point", "coordinates": [-99.15457, 19.433978]}},
{"type": "Feature", "id": "6EqKnmbkAFg9Xj9ezMkL2eJ-ZIk=", "properties": {"ref": "13901", "amenity": "bank", "@spider": "banco_del_bienestar_mx", "addr:full": "Pasillo 3 Local 130 entre KL y MN", "addr:city": "IZTAPALAPA", "addr:country": "MX", "name": "CENTRAL DE ABASTO", "phone": "56942166;56005834", "brand": "Banco del Bienestar", "brand:wikidata": "Q5719137"}, "geometry": {"type": "Point", "coordinates": [-99.09114, 19.374564]}},
{"type": "Feature", "id": "W3NAJ-wbCu7OmRhvruCMVaWKyek=", "properties": {"ref": "13902", "amenity": "bank", "@spider": "banco_del_bienestar_mx", "addr:full": "Av. Adolfo L\u00f3pez Mateos No. 506", "addr:city": "NEZAHUALCOYOTL", "addr:country": "MX", "name": "CIUDAD NEZAHUALCOYOTL", "phone": "57358641;51121892", "brand": "Banco del Bienestar", "brand:wikidata": "Q5719137"}, "geometry": {"type": "Point", "coordinates": [-99.02171, 19.411974]}},
{"type": "Feature", "id": "8uFC3WQ76TB1flLp9FP8OaTGNJo=", "properties": {"ref": "13903", "amenity": "bank", "@spider": "banco_del_bienestar_mx", "addr:full": "Blvd. Manuel Avila Camacho No. 2001", "addr:city": "NAUCALPAN DE JUAREZ", "addr:country": "MX", "name": "SATELITE EDO. DE MEXICO", "phone": "55626584", "brand": "Banco del Bienestar", "brand:wikidata": "Q5719137"}, "geometry": {"type": "Point", "coordinates": [-99.23647, 19.508463]}},
{"type": "Feature", "id": "SEfXE79nzftHaxhByJ5ZcqWh9TA=", "properties": {"ref": "13904", "amenity": "bank", "@spider": "banco_del_bienestar_mx", "addr:full": "Av. Universidad s/n esq. Pilares", "addr:city": "BENITO JUAREZ", "addr:country": "MX", "name": "DEL VALLE", "phone": "56044739;56013735", "brand": "Banco del Bienestar", "brand:wikidata": "Q5719137"}, "geometry": {"type": "Point", "coordinates": [-99.1614599, 19.3769579]}},
{"type": "Feature", "id": "MIxGIhPNk2SDNxh0sXvvbhm7x_c=", "properties": {"ref": "13905", "amenity": "bank", "@spider": "banco_del_bienestar_mx", "addr:full": "Calle Central 4-bis S/N Col. Atl\u00e1ntida C.P 04370 Del. Coyoacan, Ciudad de M\u00e9xico.", "addr:city": "COYOACAN", "addr:country": "MX", "name": "MIGUEL ANGEL DE QUEVEDO", "phone": "56891789;55495750", "brand": "Banco del Bienestar", "brand:wikidata": "Q5719137"}, "geometry": {"type": "Point", "coordinates": [-99.14737, 19.342568]}},
{"type": "Feature", "id": "VX2rJKp7Z34lCK2CuH2mkJOikTE=", "properties": {"ref": "13906", "amenity": "bank", "@spider": "banco_del_bienestar_mx", "addr:full": "Fco. del Paso y Troncoso s/n esq. Fray Servando Teresa de Mier Edificio E,", "addr:city": "VENUSTIANO CARRANZA", "addr:country": "MX", "name": "SPM. VENUSTIANO CARRANZA", "phone": "57641339;26120849", "brand": "Banco del Bienestar", "brand:wikidata": "Q5719137"}, "geometry": {"type": "Point", "coordinates": [-99.11359, 19.420094]}},
{"type": "Feature", "id": "p6iyugK88RUQrn4iq3gyGfV7hHY=", "properties": {"ref": "13907", "amenity": "bank", "@spider": "banco_del_bienestar_mx", "addr:full": "Centro Comercial 'Plaza Tepeyac' Calz. de Gpe. No. 431 Loc. 110", "addr:city": "GUSTAVO A. MADERO", "addr:country": "MX", "name": "PLAZA TEPEYAC", "phone": "55177637;57393193", "brand": "Banco del Bienestar", "brand:wikidata": "Q5719137"}, "geometry": {"type": "Point", "coordinates": [-99.12107, 19.470967]}},
{"type": "Feature", "id": "iOH2EgMQKFHjTchPxvHEVAsfpqM=", "properties": {"ref": "13908", "amenity": "bank", "@spider": "banco_del_bienestar_mx", "addr:full": "Volcan Popocatepetl No. 23 entre Jorullo y Orizaba", "addr:city": "GUSTAVO A. MADERO", "addr:country": "MX", "name": "PRADERA", "phone": "57128892;26176437", "brand": "Banco del Bienestar", "brand:wikidata": "Q5719137"}, "geometry": {"type": "Point", "coordinates": [-99.06611, 19.476281]}},
{"type": "Feature", "id": "nWItlDWPt7gzGlmI6JAF2NRHmQg=", "properties": {"ref": "13909", "amenity": "bank", "@spider": "banco_del_bienestar_mx", "addr:full": "Calle Pino # 28, entre Hidalgo y Clavel", "addr:city": "XOCHIMILCO", "addr:country": "MX", "name": "XOCHIMILCO PINO", "phone": "53349215;56417034", "brand": "Banco del Bienestar", "brand:wikidata": "Q5719137"}, "geometry": {"type": "Point", "coordinates": [-99.1025, 19.264069]}},
{"type": "Feature", "id": "HTZ93QPzqlfMJMX51lUL_FDo_NY=", "properties": {"ref": "13910", "amenity": "bank", "@spider": "banco_del_bienestar_mx", "addr:full": "Escuadra No. 103 L-B", "addr:city": "VENUSTIANO CARRANZA", "addr:country": "MX", "name": "JAMAICA", "phone": "26120421;57687724", "brand": "Banco del Bienestar", "brand:wikidata": "Q5719137"}, "geometry": {"type": "Point", "coordinates": [-99.12337, 19.409024]}},
{"type": "Feature", "id": "GSaWnnWV3V3a9i9yWt88fO8gcm8=", "properties": {"ref": "13911", "amenity": "bank", "@spider": "banco_del_bienestar_mx", "addr:full": "Blvd. Coacalco # 296 Local B Mz. 200 Secc. 7 y 8, Esq. Tulipanes", "addr:city": "COACALCO DE BERRIOZABAL", "addr:country": "MX", "name": "VILLA DE LAS FLORES", "phone": "58983254", "brand": "Banco del Bienestar", "brand:wikidata": "Q5719137"}, "geometry": {"type": "Point", "coordinates": [-99.09696, 19.648225]}},
{"type": "Feature", "id": "jim5CdKw8MV8UMgQKK2VyslTNfI=", "properties": {"ref": "13912", "amenity": "bank", "@spider": "banco_del_bienestar_mx", "addr:full": "AV. Alfredo del Mazo\u00a0 31-BIS Col. Granjas Valle de Guadalupe C.P 55270 Ecatepec de Morelos, Estado de M\u00e9xico", "addr:city": "ECATEPEC", "addr:country": "MX", "name": "GRANJAS GUADALUPE", "phone": "55692174;56996206", "brand": "Banco del Bienestar", "brand:wikidata": "Q5719137"}, "geometry": {"type": "Point", "coordinates": [-99.05812, 19.514323]}},
{"type": "Feature", "id": "-ejUwa3k9qglPw_b3PSKSG-E5lc=", "properties": {"ref": "13913", "amenity": "bank", "@spider": "banco_del_bienestar_mx", "addr:full": "Av. Emiliano Zapata 4", "addr:city": "ECATEPEC", "addr:country": "MX", "name": "ECATEPEC DE MORELOS", "phone": "57877742;57878137", "brand": "Banco del Bienestar", "brand:wikidata": "Q5719137"}, "geometry": {"type": "Point", "coordinates": [-99.04656, 19.602412]}},
{"type": "Feature", "id": "7JF8xLB_C7DIdwKNIFDJB_xZIWo=", "properties": {"ref": "13914", "amenity": "bank", "@spider": "banco_del_bienestar_mx", "addr:full": "Av. Del Trabajo No. 11 entre Morelos e Hidalgo", "addr:city": "LA PAZ", "addr:country": "MX", "name": "LOS REYES LA PAZ", "phone": "26423197;58554904;58575747", "brand": "Banco del Bienestar", "brand:wikidata": "Q5719137"}, "geometry": {"type": "Point", "coordinates": [-98.97659, 19.359169]}},
{"type": "Feature", "id": "aSC82r11dnnZ_IkeY_KGLnvaygU=", "properties": {"ref": "13915", "amenity": "bank", "@spider": "banco_del_bienestar_mx", "addr:full": "Av. Tezozomoc Mz 1 Poligono 1 Lt.1 AB Local 4 y 5 Entre Av A. Del Mazo y Poniente 5", "addr:city": "VALLE DE CHALCO SOLIDARIDAD", "addr:country": "MX", "name": "TEZOZOMOC", "phone": "26453762;26453761", "brand": "Banco del Bienestar", "brand:wikidata": "Q5719137"}, "geometry": {"type": "Point", "coordinates": [-98.94423, 19.277677]}},
{"type": "Feature", "id": "Lu4QDF6cT9N212MDTPk2F3yWcFU=", "properties": {"ref": "13916", "amenity": "bank", "@spider": "banco_del_bienestar_mx", "addr:full": "Av. Insurgentes Sur # 3806 Loc. 'B', entre M\u00e1rtires y Ayuntamiento", "addr:city": "TLALPAN", "addr:country": "MX", "name": "VIADUCTO TLALPAN", "phone": "51714743;51714848", "brand": "Banco del Bienestar", "brand:wikidata": "Q5719137"}, "geometry": {"type": "Point", "coordinates": [-99.17681, 19.292361]}},
{"type": "Feature", "id": "3GXs_KvLhpU4mI3V5JlJlK3OvwI=", "properties": {"ref": "13917", "amenity": "bank", "@spider": "banco_del_bienestar_mx", "addr:full": "Av. 16 de Septiembre No.118 entre Prolongacion Ju\u00e0rez y 6 de Diciembre, Villa Nicolas Romero , Mex", "addr:city": "NICOLAS ROMERO", "addr:country": "MX", "name": "VILLA NICOLAS ROMERO", "phone": "58214963", "brand": "Banco del Bienestar", "brand:wikidata": "Q5719137"}, "geometry": {"type": "Point", "coordinates": [-99.31822, 19.626244]}},
{"type": "Feature", "id": "mTuuz2_4wk83nEZzzw4JDT84J94=", "properties": {"ref": "13918", "amenity": "bank", "@spider": "banco_del_bienestar_mx", "addr:full": "Av. 16 de Septiembre N\u00ba 304 Letra B", "addr:city": "CUAUTITLAN", "addr:country": "MX", "name": "CUAUTITLAN 16 DE SEPTIEMBRE", "phone": "58727144", "brand": "Banco del Bienestar", "brand:wikidata": "Q5719137"}, "geometry": {"type": "Point", "coordinates": [-99.18086, 19.667203]}},
{"type": "Feature", "id": "babErp4aD0HO3yrnH0FxS57zd_0=", "properties": {"ref": "13919", "amenity": "bank", "@spider": "banco_del_bienestar_mx", "addr:full": "Av . Jalisco No. 176 esq. Gobernador Diez de Bonilla", "addr:city": "MIGUEL HIDALGO", "addr:country": "MX", "name": "AVENIDA JALISCO", "phone": "55152136;26145686", "brand": "Banco del Bienestar", "brand:wikidata": "Q5719137"}, "geometry": {"type": "Point", "coordinates": [-99.18576, 19.405228]}},
{"type": "Feature", "id": "MW85B6X5CH3ls5NDSO8pOmGEmMM=", "properties": {"ref": "13920", "amenity": "bank", "@spider": "banco_del_bienestar_mx", "addr:full": "Mercado de la Merced (Int. Nave Mayor) Local 3221", "addr:city": "VENUSTIANO CARRANZA", "addr:country": "MX", "name": "LA MERCED", "phone": "55229464;55424368", "brand": "Banco del Bienestar", "brand:wikidata": "Q5719137"}, "geometry": {"type": "Point", "coordinates": [-99.12354, 19.424771]}},
{"type": "Feature", "id": "mfX6H2W7QZcoew0nsvHjmLnor7A=", "properties": {"ref": "13921", "amenity": "bank", "@spider": "banco_del_bienestar_mx", "addr:full": "Reforma No. 29 Local B esquina Manuel Acu\u00f1a", "addr:city": "AZCAPOTZALCO", "addr:country": "MX", "name": "AZCAPOTZALCO", "phone": "17422012;53523840", "brand": "Banco del Bienestar", "brand:wikidata": "Q5719137"}, "geometry": {"type": "Point", "coordinates": [-99.18797, 19.479106]}},
{"type": "Feature", "id": "V3NGLjie2TE4oQwseLCFF34ORhQ=", "properties": {"ref": "13922", "amenity": "bank", "@spider": "banco_del_bienestar_mx", "addr:full": "Eje. Lazaro Cardenas esq. Tacuba s/n", "addr:city": "CUAUHTEMOC", "addr:country": "MX", "name": "SPM. PALACIO POSTAL", "phone": "55128266;55128318", "brand": "Banco del Bienestar", "brand:wikidata": "Q5719137"}, "geometry": {"type": "Point", "coordinates": [-99.14068, 19.435497]}},
{"type": "Feature", "id": "va9vKlm-1ZjPDB396h5aUJV3src=", "properties": {"ref": "13923", "amenity": "bank", "@spider": "banco_del_bienestar_mx", "addr:full": "Centro Com. Plaza Crystal 'Chedraui Atizap\u00e1n' Av. San Mateo 17 Local A- 5", "addr:city": "ATIZAPAN DE ZARAGOZA", "addr:country": "MX", "name": "ATIZAPAN DE ZARAGOZA.", "phone": "58243750", "brand": "Banco del Bienestar", "brand:wikidata": "Q5719137"}, "geometry": {"type": "Point", "coordinates": [-99.2453, 19.562326]}},
{"type": "Feature", "id": "M9qSaoJpR8F_tFv4IV9xOQG-_8M=", "properties": {"ref": "13924", "amenity": "bank", "@spider": "banco_del_bienestar_mx", "addr:full": "Vicente Guerrero No. 43", "addr:city": "CHALCO", "addr:country": "MX", "name": "CHALCO", "phone": "59731121;59752496", "brand": "Banco del Bienestar", "brand:wikidata": "Q5719137"}, "geometry": {"type": "Point", "coordinates": [-98.89575, 19.262379]}},
{"type": "Feature", "id": "JU6B3fDh8lB9YKPogEEmJlJtZZk=", "properties": {"ref": "13925", "amenity": "bank", "@spider": "banco_del_bienestar_mx", "addr:full": "Av. Hidalgo No. 24", "addr:city": "ALVARO OBREGON", "addr:country": "MX", "name": "OLIVAR DEL CONDE", "phone": "56436692;54235614", "brand": "Banco del Bienestar", "brand:wikidata": "Q5719137"}, "geometry": {"type": "Point", "coordinates": [-99.21552, 19.372287]}},
{"type": "Feature", "id": "KYLBrdIU0LFNohnh2xkUZVZCyow=", "properties": {"ref": "13926", "amenity": "bank", "@spider": "banco_del_bienestar_mx", "addr:full": "Avenida Mexico Norte No. 22 Local 3, Col. Barrio Santa Martha, C.P. 12000", "addr:city": "MILPA ALTA", "addr:country": "MX", "name": "MILPA ALTA", "phone": "58441749;58447974", "brand": "Banco del Bienestar", "brand:wikidata": "Q5719137"}, "geometry": {"type": "Point", "coordinates": [-99.02384, 19.192655]}},
{"type": "Feature", "id": "U0EC97ITpUE4wH4Ao5qkHkqKims=", "properties": {"ref": "13927", "amenity": "bank", "@spider": "banco_del_bienestar_mx", "addr:full": "Temoaya No. 14 Local 1 MZ.C34-A LT 25", "addr:city": "CUAUTITLAN IZCALLI", "addr:country": "MX", "name": "CUAUTITLAN IZCALLI", "phone": "21211334;38518618", "brand": "Banco del Bienestar", "brand:wikidata": "Q5719137"}, "geometry": {"type": "Point", "coordinates": [-99.20907, 19.651806]}},
{"type": "Feature", "id": "gZWcQ0-ksYcNK35QN8awHbPyVe0=", "properties": {"ref": "13928", "amenity": "bank", "@spider": "banco_del_bienestar_mx", "addr:full": "Av. Central # 222-C esq. Cegor , esq Cegor/instituto sol", "addr:city": "ECATEPEC", "addr:country": "MX", "name": "CIUDAD AZTECA", "phone": "15413501", "brand": "Banco del Bienestar", "brand:wikidata": "Q5719137"}, "geometry": {"type": "Point", "coordinates": [-99.02838, 19.533746]}},
{"type": "Feature", "id": "ib8cYtePBz5s57HFF9fL5xnclCM=", "properties": {"ref": "13929", "amenity": "bank", "@spider": "banco_del_bienestar_mx", "addr:full": "Calle 5 de Mayo # 63, Esq. Calle Parque", "addr:city": "NAUCALPAN DE JUAREZ", "addr:country": "MX", "name": "NAUCALPAN DE JUAREZ", "phone": "53593847;53581810", "brand": "Banco del Bienestar", "brand:wikidata": "Q5719137"}, "geometry": {"type": "Point", "coordinates": [-99.23248, 19.472829]}},
{"type": "Feature", "id": "5id04gsAnKN9Ac5tpM8jXd4bRho=", "properties": {"ref": "13930", "amenity": "bank", "@spider": "banco_del_bienestar_mx", "addr:full": "Porfirio Diaz y Berriozabal No. 5", "addr:city": "TLALNEPANTLA DE BAZ", "addr:country": "MX", "name": "TLALNEPANTLA", "phone": "53902752;53841450", "brand": "Banco del Bienestar", "brand:wikidata": "Q5719137"}, "geometry": {"type": "Point", "coordinates": [-99.19273, 19.53781]}},
{"type": "Feature", "id": "CnTX5u1hB0iGhNMgG1-9ghiBiiA=", "properties": {"ref": "13931", "amenity": "bank", "@spider": "banco_del_bienestar_mx", "addr:full": "Ra\u00edz del agua s/n Centro Comer. No. 1 local 7", "addr:city": "IZTACALCO", "addr:country": "MX", "name": "IZTACALCO", "phone": "56542943", "brand": "Banco del Bienestar", "brand:wikidata": "Q5719137"}, "geometry": {"type": "Point", "coordinates": [-99.10504, 19.382306]}},
{"type": "Feature", "id": "4J4l1hwG0KVg2VUtO5XORSNjW-M=", "properties": {"ref": "13932", "amenity": "bank", "@spider": "banco_del_bienestar_mx", "addr:full": "Nicolas Bravo No. 66-B entre Cuitlahuac y Allende", "addr:city": "TLAHUAC", "addr:country": "MX", "name": "TLAHUAC", "phone": "58425709;21616035", "brand": "Banco del Bienestar", "brand:wikidata": "Q5719137"}, "geometry": {"type": "Point", "coordinates": [-99.003671, 19.27055]}},
{"type": "Feature", "id": "dKR5ZOv_Z4Bf8QlsgGdz540D_Y4=", "properties": {"ref": "13933", "amenity": "bank", "@spider": "banco_del_bienestar_mx", "addr:full": "Av. Cuauhtemoc S/N Local 6, Esquina calle Vigilante 'Plaza la Estrella'", "addr:city": "IXTAPALUCA", "addr:country": "MX", "name": "IXTAPALUCA", "phone": "59722954", "brand": "Banco del Bienestar", "brand:wikidata": "Q5719137"}, "geometry": {"type": "Point", "coordinates": [-98.88694, 19.313982]}},
{"type": "Feature", "id": "I-99PNeGROkBkojlvoa_CaRjg0s=", "properties": {"ref": "13934", "amenity": "bank", "@spider": "banco_del_bienestar_mx", "addr:full": "Calle Ignacio de la Llave N\u00fam. 3, Local 1", "addr:city": "ACAPULCO DE JUAREZ", "addr:country": "MX", "name": "ACAPULCO CENTRO", "phone": "4822224;4800998;4820509", "brand": "Banco del Bienestar", "brand:wikidata": "Q5719137"}, "geometry": {"type": "Point", "coordinates": [-99.90744, 16.848633]}},
{"type": "Feature", "id": "URbgocFNBJluLtyTgTa-zVDQU4g=", "properties": {"ref": "13935", "amenity": "bank", "@spider": "banco_del_bienestar_mx", "addr:full": "Calle Prolongaci\u00f3n 59 N\u00famero 1", "addr:city": "CAMPECHE", "addr:country": "MX", "name": "CAMPECHE", "phone": "8116692;8116692", "brand": "Banco del Bienestar", "brand:wikidata": "Q5719137"}, "geometry": {"type": "Point", "coordinates": [-90.53839, 19.844821]}},
{"type": "Feature", "id": "s9DReufuCacotGlL_qc8VQ-JUEc=", "properties": {"ref": "13936", "amenity": "bank", "@spider": "banco_del_bienestar_mx", "addr:full": "Ram\u00f3n Corona N\u00ba 137 Nte.", "addr:city": "JUAREZ", "addr:country": "MX", "name": "CIUDAD JUAREZ", "phone": "6323577;6323577", "brand": "Banco del Bienestar", "brand:wikidata": "Q5719137"}, "geometry": {"type": "Point", "coordinates": [-106.48047, 31.73939]}},
{"type": "Feature", "id": "bh8FB3VJNWBFn6MHyV3uE69shcw=", "properties": {"ref": "13937", "amenity": "bank", "@spider": "banco_del_bienestar_mx", "addr:full": "Calle Guerrero N\u00ba 721 Ote.", "addr:city": "CAJEME", "addr:country": "MX", "name": "CIUDAD OBREGON", "phone": "4148522", "brand": "Banco del Bienestar", "brand:wikidata": "Q5719137"}, "geometry": {"type": "Point", "coordinates": [-109.933239, 27.493896]}},
{"type": "Feature", "id": "wnapjUZEYGPsYeLsUAUR2tiPy-o=", "properties": {"ref": "13938", "amenity": "bank", "@spider": "banco_del_bienestar_mx", "addr:full": "Galeana N\u00ba 33 Entre Av. Hidalgo y Ju\u00e1rez", "addr:city": "CIUDAD VALLES", "addr:country": "MX", "name": "CIUDAD VALLES", "phone": "3820311", "brand": "Banco del Bienestar", "brand:wikidata": "Q5719137"}, "geometry": {"type": "Point", "coordinates": [-99.01374, 21.985977]}},
{"type": "Feature", "id": "PjFhl5iG-QTiGhT576TAlP4jXbk=", "properties": {"ref": "13939", "amenity": "bank", "@spider": "banco_del_bienestar_mx", "addr:full": "Ju\u00e1rez N\u00ba 704-2", "addr:city": "COATZACOALCOS", "addr:country": "MX", "name": "COATZACOALCOS", "phone": "2120236", "brand": "Banco del Bienestar", "brand:wikidata": "Q5719137"}, "geometry": {"type": "Point", "coordinates": [-94.4224677431639, 18.145103059667807]}},
{"type": "Feature", "id": "aCvHbDzW1PWtR-YfRCrpSMILgXo=", "properties": {"ref": "13940", "amenity": "bank", "@spider": "banco_del_bienestar_mx", "addr:full": "Francisco I. Madero 391", "addr:city": "COLIMA", "addr:country": "MX", "name": "COLIMA", "phone": "3120415", "brand": "Banco del Bienestar", "brand:wikidata": "Q5719137"}, "geometry": {"type": "Point", "coordinates": [-103.721732813512, 19.239035682407803]}},
{"type": "Feature", "id": "nzi0HXnboO5A9fGhqKhzWLtqJcw=", "properties": {"ref": "13941", "amenity": "bank", "@spider": "banco_del_bienestar_mx", "addr:full": "Calle 15 No. 102-A", "addr:city": "CORDOBA", "addr:country": "MX", "name": "CORDOBA", "phone": "7176517;7123064", "brand": "Banco del Bienestar", "brand:wikidata": "Q5719137"}, "geometry": {"type": "Point", "coordinates": [-96.93022, 18.890427]}},
{"type": "Feature", "id": "2brGNyWsWXg7QskuLU-ztWyAK4o=", "properties": {"ref": "13942", "amenity": "bank", "@spider": "banco_del_bienestar_mx", "addr:full": "Ray\u00f3n N\u00ba 1-B entre Galeana y Comonfort", "addr:city": "CUERNAVACA", "addr:country": "MX", "name": "CUERNAVACA", "phone": "3123024;3124912", "brand": "Banco del Bienestar", "brand:wikidata": "Q5719137"}, "geometry": {"type": "Point", "coordinates": [-99.23556, 18.922127]}},
{"type": "Feature", "id": "Rjrr4j_rtgMHrfLyezOLea7cOxk=", "properties": {"ref": "13943", "amenity": "bank", "@spider": "banco_del_bienestar_mx", "addr:full": "Av. Alvaro Obregon # 673 Norte, entre Antonio Rosales y Rafael Buelna", "addr:city": "CULIACAN", "addr:country": "MX", "name": "CULIACAN", "phone": "7121204", "brand": "Banco del Bienestar", "brand:wikidata": "Q5719137"}, "geometry": {"type": "Point", "coordinates": [-107.3949, 24.810494]}},
{"type": "Feature", "id": "LrQLWtEHvFZe6nQiegIPkpAHucc=", "properties": {"ref": "13944", "amenity": "bank", "@spider": "banco_del_bienestar_mx", "addr:full": "Aldama N\u00ba 412-A", "addr:city": "CHIHUAHUA", "addr:country": "MX", "name": "CHIHUAHUA", "phone": "4101979;4105867", "brand": "Banco del Bienestar", "brand:wikidata": "Q5719137"}, "geometry": {"type": "Point", "coordinates": [-106.077025, 28.634642]}},
{"type": "Feature", "id": "9gDJ5bCSC02WaWXB_7PgJmW0L6c=", "properties": {"ref": "13945", "amenity": "bank", "@spider": "banco_del_bienestar_mx", "addr:full": "AV/20 DE NOV 801 PONIENTE, ZONA CENTRO", "addr:city": "DURANGO", "addr:country": "MX", "name": "DURANGO CENTRO", "phone": "8112779;8254620", "brand": "Banco del Bienestar", "brand:wikidata": "Q5719137"}, "geometry": {"type": "Point", "coordinates": [-104.66952, 24.02155]}},
{"type": "Feature", "id": "KaLPZb854JiSIbhC0QzlFqorSWI=", "properties": {"ref": "13946", "amenity": "bank", "@spider": "banco_del_bienestar_mx", "addr:full": "Calle 61 No. 479 x 54 y 56", "addr:city": "MERIDA", "addr:country": "MX", "name": "MERIDA", "phone": "9240398;9283180", "brand": "Banco del Bienestar", "brand:wikidata": "Q5719137"}, "geometry": {"type": "Point", "coordinates": [-89.61981, 20.966988]}},
{"type": "Feature", "id": "mCb8oO4rEZcUgKpo-eml3oyxs64=", "properties": {"ref": "13947", "amenity": "bank", "@spider": "banco_del_bienestar_mx", "addr:full": "Aquiles Serd\u00e1n No.20 entre Horacio Soria y Benito Ju\u00e1rez.", "addr:city": "HERMOSILLO", "addr:country": "MX", "name": "HERMOSILLO", "phone": "2671076", "brand": "Banco del Bienestar", "brand:wikidata": "Q5719137"}, "geometry": {"type": "Point", "coordinates": [-110.951153, 29.080456]}},
{"type": "Feature", "id": "3Ojbw-SG6_tLzH6EUAeu_gmb5xM=", "properties": {"ref": "13948", "amenity": "bank", "@spider": "banco_del_bienestar_mx", "addr:full": "Enr\u00edquez No. 3 Pasaje Tanos Local 1", "addr:city": "XALAPA", "addr:country": "MX", "name": "JALAPA", "phone": "8172348", "brand": "Banco del Bienestar", "brand:wikidata": "Q5719137"}, "geometry": {"type": "Point", "coordinates": [-96.9216, 19.527545]}},
{"type": "Feature", "id": "vAc3sC_SiJ8ZZd99JPlFaEliEwE=", "properties": {"ref": "13949", "amenity": "bank", "@spider": "banco_del_bienestar_mx", "addr:full": "Madero No. 426, esq. Constitucion", "addr:city": "PAZ, LA", "addr:country": "MX", "name": "LA PAZ", "phone": "1295308", "brand": "Banco del Bienestar", "brand:wikidata": "Q5719137"}, "geometry": {"type": "Point", "coordinates": [-110.312207, 24.161279]}},
{"type": "Feature", "id": "R9tK1rxK74-mnBmrTSVJ8mZXEvs=", "properties": {"ref": "13950", "amenity": "bank", "@spider": "banco_del_bienestar_mx", "addr:full": "Gabriel Leyva N\u00ba 175 Norte", "addr:city": "AHOME", "addr:country": "MX", "name": "LOS MOCHIS", "phone": "8120961;8173004", "brand": "Banco del Bienestar", "brand:wikidata": "Q5719137"}, "geometry": {"type": "Point", "coordinates": [-108.991514, 25.794377]}},
{"type": "Feature", "id": "vfPXHlt94FFtqZGqzOhRlBQq4NY=", "properties": {"ref": "13951", "amenity": "bank", "@spider": "banco_del_bienestar_mx", "addr:full": "Avenida 6A, No. 41", "addr:city": "MATAMOROS", "addr:country": "MX", "name": "MATAMOROS", "phone": "8163643", "brand": "Banco del Bienestar", "brand:wikidata": "Q5719137"}, "geometry": {"type": "Point", "coordinates": [-97.50387, 25.868484]}},
{"type": "Feature", "id": "E1ttnPb-AnHK9uTlhlIadfAvlUg=", "properties": {"ref": "13952", "amenity": "bank", "@spider": "banco_del_bienestar_mx", "addr:full": "Aquiles Serd\u00e1n N\u00ba 1231 esq. Mariano Escobedo, Mz. 19, Cuartel V", "addr:city": "MAZATLAN", "addr:country": "MX", "name": "MAZATLAN", "phone": "9813861", "brand": "Banco del Bienestar", "brand:wikidata": "Q5719137"}, "geometry": {"type": "Point", "coordinates": [-106.420332, 23.200077]}},
{"type": "Feature", "id": "J_eN4W8kAGnCnDXYmC_A61LMgQ8=", "properties": {"ref": "13953", "amenity": "bank", "@spider": "banco_del_bienestar_mx", "addr:full": "Av. Pioneros N\u00fam. Ext. 1005, N\u00fam. Int. Cuerpo 'C' Planta Baja", "addr:city": "MEXICALI", "addr:country": "MX", "name": "MEXICALI", "phone": "5554506;5523000", "brand": "Banco del Bienestar", "brand:wikidata": "Q5719137"}, "geometry": {"type": "Point", "coordinates": [-115.47928, 32.65739]}},
{"type": "Feature", "id": "CxYi3rO3N7Cjk1BJzEFniucTHto=", "properties": {"ref": "13954", "amenity": "bank", "@spider": "banco_del_bienestar_mx", "addr:full": "Mariano Escobedo Sur. No. 821 Col. Centro", "addr:city": "MONTERREY", "addr:country": "MX", "name": "MONTERREY", "phone": "3438127;3429027", "brand": "Banco del Bienestar", "brand:wikidata": "Q5719137"}, "geometry": {"type": "Point", "coordinates": [-100.311879568122, 25.66759450440125]}},
{"type": "Feature", "id": "mm1vDcnMGFGLsvcv6it7dof3LTY=", "properties": {"ref": "13955", "amenity": "bank", "@spider": "banco_del_bienestar_mx", "addr:full": "Abasalo No. 635-643", "addr:city": "MORELIA", "addr:country": "MX", "name": "MORELIA", "phone": "3121344", "brand": "Banco del Bienestar", "brand:wikidata": "Q5719137"}, "geometry": {"type": "Point", "coordinates": [-101.189820991401, 19.698925522369397]}},
{"type": "Feature", "id": "JnEGq_SNi5D6VMBJVr-r91vCBFs=", "properties": {"ref": "13956", "amenity": "bank", "@spider": "banco_del_bienestar_mx", "addr:full": "Aguirre N\u00ba 202-D", "addr:city": "NOGALES", "addr:country": "MX", "name": "NOGALES", "phone": "3127607", "brand": "Banco del Bienestar", "brand:wikidata": "Q5719137"}, "geometry": {"type": "Point", "coordinates": [-110.946058, 31.328629]}},
{"type": "Feature", "id": "EzniMVdPeALkcYp78kYakPnyJqE=", "properties": {"ref": "13957", "amenity": "bank", "@spider": "banco_del_bienestar_mx", "addr:full": "Calle Matamoros No. 108 Esquina Garcia Vigil", "addr:city": "OAXACA DE JUAREZ", "addr:country": "MX", "name": "OAXACA CENTRO", "phone": "5162618;5011215;5011056", "brand": "Banco del Bienestar", "brand:wikidata": "Q5719137"}, "geometry": {"type": "Point", "coordinates": [-96.72501, 17.063931]}},
{"type": "Feature", "id": "tIAd4rKJrF4UcN26n8WwbMLaX-I=", "properties": {"ref": "13958", "amenity": "bank", "@spider": "banco_del_bienestar_mx", "addr:full": "Sur 2 No. 249 entre Poniente 5 y Poniente 7", "addr:city": "ORIZABA", "addr:country": "MX", "name": "ORIZABA", "phone": "7250845", "brand": "Banco del Bienestar", "brand:wikidata": "Q5719137"}, "geometry": {"type": "Point", "coordinates": [-97.105519, 18.84609]}},
{"type": "Feature", "id": "Xo8nxznHQVNynIacrD5YS8X1h5Q=", "properties": {"ref": "13959", "amenity": "bank", "@spider": "banco_del_bienestar_mx", "addr:full": "Cayetano G\u00f3mez P\u00e9rez No. 104 Int. A", "addr:city": "PACHUCA DE SOTO", "addr:country": "MX", "name": "PACHUCA CENTRO", "phone": "7181250;7138390", "brand": "Banco del Bienestar", "brand:wikidata": "Q5719137"}, "geometry": {"type": "Point", "coordinates": [-98.73473, 20.125195]}},
{"type": "Feature", "id": "0sGT46z0BzPkW_dhvaM551fmNNA=", "properties": {"ref": "13960", "amenity": "bank", "@spider": "banco_del_bienestar_mx", "addr:full": "8 Norte 101 Col obrera, antes David Cano N\u00ba 1 - B Edif. Guerrero", "addr:city": "POZA RICA DE HIDALGO", "addr:country": "MX", "name": "POZA RICA CENTRO", "phone": "1190420;8270386;8240386", "brand": "Banco del Bienestar", "brand:wikidata": "Q5719137"}, "geometry": {"type": "Point", "coordinates": [-97.46035, 20.524862]}},
{"type": "Feature", "id": "LSe3hOLJaYDV50opQhTHb7ima8w=", "properties": {"ref": "13961", "amenity": "bank", "@spider": "banco_del_bienestar_mx", "addr:full": "Av. Reforma No. 334", "addr:city": "PUEBLA", "addr:country": "MX", "name": "PUEBLA REFORMA", "phone": "2328767;2421420", "brand": "Banco del Bienestar", "brand:wikidata": "Q5719137"}, "geometry": {"type": "Point", "coordinates": [-98.2377005046462, 19.064679122896862]}},
{"type": "Feature", "id": "lIREVx091_PSdBbcNvqiwr8b7i8=", "properties": {"ref": "13962", "amenity": "bank", "@spider": "banco_del_bienestar_mx", "addr:full": "Calle Corregidora Norte # 291", "addr:city": "QUERETARO", "addr:country": "MX", "name": "QUERETARO", "phone": "2241727;2120341;22124395", "brand": "Banco del Bienestar", "brand:wikidata": "Q5719137"}, "geometry": {"type": "Point", "coordinates": [-100.393497, 20.597873]}},
{"type": "Feature", "id": "2oslmwUn8BM6tcaMxk2Y1mhBzXs=", "properties": {"ref": "13963", "amenity": "bank", "@spider": "banco_del_bienestar_mx", "addr:full": "Calle Zaragoza No. 500 Esq. Porf\u00edrio Diaz", "addr:city": "REYNOSA", "addr:country": "MX", "name": "REYNOSA", "phone": "9220288;9309126", "brand": "Banco del Bienestar", "brand:wikidata": "Q5719137"}, "geometry": {"type": "Point", "coordinates": [-98.27878, 26.093474]}},
{"type": "Feature", "id": "1oh-LrUX3eZLf48Gleu5Wv57lj0=", "properties": {"ref": "13964", "amenity": "bank", "@spider": "banco_del_bienestar_mx", "addr:full": "Manuel Acu\u00f1a N\u00ba 114, Edif. Lomel\u00ed Loc. 5", "addr:city": "SALTILLO", "addr:country": "MX", "name": "SALTILLO", "phone": "4142347", "brand": "Banco del Bienestar", "brand:wikidata": "Q5719137"}, "geometry": {"type": "Point", "coordinates": [-101.003585, 25.423419]}},
{"type": "Feature", "id": "RShm3wlZGhHKK4soIqLHOxBOtW0=", "properties": {"ref": "13965", "amenity": "bank", "@spider": "banco_del_bienestar_mx", "addr:full": "Zaragoza N\u00ba 200", "addr:city": "SAN LUIS POTOSI", "addr:country": "MX", "name": "SAN LUIS POTOS\u00cd CENTRO", "phone": "8147524", "brand": "Banco del Bienestar", "brand:wikidata": "Q5719137"}, "geometry": {"type": "Point", "coordinates": [-100.975786, 22.150801]}},
{"type": "Feature", "id": "THfCv8qiZqai2ryJGE0hNHhViTc=", "properties": {"ref": "13966", "amenity": "bank", "@spider": "banco_del_bienestar_mx", "addr:full": "Av. Central Norte # 33, entre las calles Primera y Tercera Oriente", "addr:city": "TAPACHULA", "addr:country": "MX", "name": "TAPACHULA", "phone": "1182415", "brand": "Banco del Bienestar", "brand:wikidata": "Q5719137"}, "geometry": {"type": "Point", "coordinates": [-92.2632215337295, 14.9069825950208]}},
{"type": "Feature", "id": "TfEGmX3_FMEdFtXUB2irux3kEEk=", "properties": {"ref": "13967", "amenity": "bank", "@spider": "banco_del_bienestar_mx", "addr:full": "Hidalgo Oriente 72, entre Zacatecas y San Luis", "addr:city": "TEPIC", "addr:country": "MX", "name": "TEPIC", "phone": "2120386", "brand": "Banco del Bienestar", "brand:wikidata": "Q5719137"}, "geometry": {"type": "Point", "coordinates": [-104.890786, 21.510385]}},
{"type": "Feature", "id": "e8weB_7c6CfNAkSLfQl3Jd5kgSw=", "properties": {"ref": "13968", "amenity": "bank", "@spider": "banco_del_bienestar_mx", "addr:full": "Av. Ju\u00e1rez N\u00ba 226", "addr:city": "TEZIUTLAN", "addr:country": "MX", "name": "TEZIUTLAN", "phone": "3120151;3124703", "brand": "Banco del Bienestar", "brand:wikidata": "Q5719137"}, "geometry": {"type": "Point", "coordinates": [-97.35956, 19.816276]}},
{"type": "Feature", "id": "teKEbJ6EV8aniHc0w0IKtK9B-mI=", "properties": {"ref": "13969", "amenity": "bank", "@spider": "banco_del_bienestar_mx", "addr:full": "Calle Blvd. Gustavo D\u00edaz Ordaz # 14517, Local 23-E La Plaza Cinco y Diez Entre Av. Salvador Rosas Magall\u00f3n y calle Las Fuentes", "addr:city": "TIJUANA", "addr:country": "MX", "name": "TIJUANA", "phone": "6609131;6609101", "brand": "Banco del Bienestar", "brand:wikidata": "Q5719137"}, "geometry": {"type": "Point", "coordinates": [-116.96576, 32.49827]}},
{"type": "Feature", "id": "l0rCixs7fHEfVp25ype1hzoWWs8=", "properties": {"ref": "13970", "amenity": "bank", "@spider": "banco_del_bienestar_mx", "addr:full": "Mariano Matamoros Sur 200", "addr:city": "TOLUCA", "addr:country": "MX", "name": "TOLUCA", "phone": "1671810;2133216", "brand": "Banco del Bienestar", "brand:wikidata": "Q5719137"}, "geometry": {"type": "Point", "coordinates": [-99.65637, 19.287845]}},
{"type": "Feature", "id": "LOaXke-3nvsUKukfWLqmOnWWRUA=", "properties": {"ref": "13971", "amenity": "bank", "@spider": "banco_del_bienestar_mx", "addr:full": "Calle Rodr\u00edguez Sur 267", "addr:city": "TORREON", "addr:country": "MX", "name": "TORREON", "phone": "7121815;7164700", "brand": "Banco del Bienestar", "brand:wikidata": "Q5719137"}, "geometry": {"type": "Point", "coordinates": [-103.460983, 25.538702]}},
{"type": "Feature", "id": "W7EANMM9V_xY0heQFQPPx1Oc7ho=", "properties": {"ref": "13972", "amenity": "bank", "@spider": "banco_del_bienestar_mx", "addr:full": "Av. Central Oriente N\u00ba 836", "addr:city": "TUXTLA GUTIERREZ", "addr:country": "MX", "name": "TUXTLA GUTIERREZ", "phone": "6120404;6146521", "brand": "Banco del Bienestar", "brand:wikidata": "Q5719137"}, "geometry": {"type": "Point", "coordinates": [-93.10988, 16.752669]}},
{"type": "Feature", "id": "hl9u0b6xfWSvuYfEYwa3KnJgo74=", "properties": {"ref": "13973", "amenity": "bank", "@spider": "banco_del_bienestar_mx", "addr:full": "Juan Ayala N\u00ba 16-A", "addr:city": "URUAPAN", "addr:country": "MX", "name": "URUAPAN", "phone": "5243276", "brand": "Banco del Bienestar", "brand:wikidata": "Q5719137"}, "geometry": {"type": "Point", "coordinates": [-102.06445, 19.42287]}},
{"type": "Feature", "id": "J8y2rHfyw-DPRsR-kwNQBN9W66U=", "properties": {"ref": "13974", "amenity": "bank", "@spider": "banco_del_bienestar_mx", "addr:full": "Av. Independencia No. 960 Planta baja entre Av. Ju\u00e1rez y Emparan", "addr:city": "VERACRUZ", "addr:country": "MX", "name": "VERACRUZ", "phone": "9315752", "brand": "Banco del Bienestar", "brand:wikidata": "Q5719137"}, "geometry": {"type": "Point", "coordinates": [-96.13961, 19.201263]}},
{"type": "Feature", "id": "mDZqkdaDY8jpHX7XxWoVZSmHV20=", "properties": {"ref": "13975", "amenity": "bank", "@spider": "banco_del_bienestar_mx", "addr:full": "Madero N\u00ba 109 Esq. Rafael Mart\u00ednez Escobar", "addr:city": "CENTRO", "addr:country": "MX", "name": "VILLAHERMOSA CENTRO", "phone": "3121025;3141884", "brand": "Banco del Bienestar", "brand:wikidata": "Q5719137"}, "geometry": {"type": "Point", "coordinates": [-92.9179329620437, 17.987770398491975]}},
{"type": "Feature", "id": "fw5Qxy5ANEwDyELscLKFG4agHOs=", "properties": {"ref": "13976", "amenity": "bank", "@spider": "banco_del_bienestar_mx", "addr:full": "Cristobal Colon No. 414 Norte", "addr:city": "VICTORIA", "addr:country": "MX", "name": "CIUDAD VICTORIA", "phone": "3120795;3123105", "brand": "Banco del Bienestar", "brand:wikidata": "Q5719137"}, "geometry": {"type": "Point", "coordinates": [-99.14495, 23.734317]}},
{"type": "Feature", "id": "WL4hJha_brE5LSGJV4YXWof-7rQ=", "properties": {"ref": "13977", "amenity": "bank", "@spider": "banco_del_bienestar_mx", "addr:full": "Plaza Magna Local 1-G Av. Guerrero Esq. Fco. M\u00e1rquez", "addr:city": "IRAPUATO", "addr:country": "MX", "name": "IRAPUATO", "phone": "6248516;1477634647", "brand": "Banco del Bienestar", "brand:wikidata": "Q5719137"}, "geometry": {"type": "Point", "coordinates": [-101.354057, 20.682976]}},
{"type": "Feature", "id": "y89Tjz1DA6t3XGUJDGllXQalarY=", "properties": {"ref": "13978", "amenity": "bank", "@spider": "banco_del_bienestar_mx", "addr:full": "Av. Hidalgo N\u00ba 145", "addr:city": "MINATITLAN", "addr:country": "MX", "name": "MINATITLAN", "phone": "2238228;2238229", "brand": "Banco del Bienestar", "brand:wikidata": "Q5719137"}, "geometry": {"type": "Point", "coordinates": [-94.54513, 17.987363]}},
{"type": "Feature", "id": "bCw2dsZOC47qUNUMXVwQBE8wXsQ=", "properties": {"ref": "13979", "amenity": "bank", "@spider": "banco_del_bienestar_mx", "addr:full": "Av. Bandera Nacional N\u00ba 56 Local B", "addr:city": "IGUALA DE LA INDEPENDENCIA", "addr:country": "MX", "name": "IGUALA", "phone": "3320421;1101197", "brand": "Banco del Bienestar", "brand:wikidata": "Q5719137"}, "geometry": {"type": "Point", "coordinates": [-99.535416, 18.34311]}},
{"type": "Feature", "id": "JUAnR_T7NHo5KhomK18iG1aFdtY=", "properties": {"ref": "13980", "amenity": "bank", "@spider": "banco_del_bienestar_mx", "addr:full": "Colon Oriente #20", "addr:city": "ZAMORA", "addr:country": "MX", "name": "ZAMORA", "phone": "5125447;5157344", "brand": "Banco del Bienestar", "brand:wikidata": "Q5719137"}, "geometry": {"type": "Point", "coordinates": [-102.286849, 19.981282]}},
{"type": "Feature", "id": "Cd4pKOgsG4xi1al8TimA5UbVq14=", "properties": {"ref": "13981", "amenity": "bank", "@spider": "banco_del_bienestar_mx", "addr:full": "Calle Pedro Antonio Buzeta No. 579 Col. Santa Teresita C.P 44600 Guadalajara, Jalisco", "addr:city": "GUADALAJARA", "addr:country": "MX", "name": "ZAPOPAN", "phone": "8250383;8250349", "brand": "Banco del Bienestar", "brand:wikidata": "Q5719137"}, "geometry": {"type": "Point", "coordinates": [-103.387763, 20.721109]}},
{"type": "Feature", "id": "Bm8Q3YJwsq-YZ_4ya6nvdIQaP3I=", "properties": {"ref": "13982", "amenity": "bank", "@spider": "banco_del_bienestar_mx", "addr:full": "Av. Ju\u00e1rez N\u00ba 549", "addr:city": "GUADALAJARA", "addr:country": "MX", "name": "GUADALAJARA JUAREZ", "phone": "6134585;6145283", "brand": "Banco del Bienestar", "brand:wikidata": "Q5719137"}, "geometry": {"type": "Point", "coordinates": [-103.351285, 20.675063]}},
{"type": "Feature", "id": "KObr9K2I-U__a9jXch3tJH0gxls=", "properties": {"ref": "13983", "amenity": "bank", "@spider": "banco_del_bienestar_mx", "addr:full": "Av. Ram\u00f3n L\u00f3pez Velarde No. 302 entre callejon del barro y callej\u00f3n Dr. Diego Cuevas", "addr:city": "ZACATECAS", "addr:country": "MX", "name": "ZACATECAS", "phone": "9220796", "brand": "Banco del Bienestar", "brand:wikidata": "Q5719137"}, "geometry": {"type": "Point", "coordinates": [-102.5709, 22.770819]}},
{"type": "Feature", "id": "L9-9Hiv7rbreiVWo9gdrIn2re8A=", "properties": {"ref": "13984", "amenity": "bank", "@spider": "banco_del_bienestar_mx", "addr:full": "Av. Hidalgo Esquina 5 de Septiembre S/N Local B", "addr:city": "JUCHITAN DE ZARAGOZA", "addr:country": "MX", "name": "JUCHITAN", "phone": "7110994;7121928;7110017", "brand": "Banco del Bienestar", "brand:wikidata": "Q5719137"}, "geometry": {"type": "Point", "coordinates": [-95.0245157, 16.43509]}},
{"type": "Feature", "id": "k82ZFm1QGFBz8V4ZLyaBUth4aFw=", "properties": {"ref": "13985", "amenity": "bank", "@spider": "banco_del_bienestar_mx", "addr:full": "Calle Degollado NO. 19-B entre Ram\u00f3n Corona y Primero de Mayo", "addr:city": "CIUDAD GUZMAN", "addr:country": "MX", "name": "CIUDAD GUZMAN", "phone": "4120583;4120509", "brand": "Banco del Bienestar", "brand:wikidata": "Q5719137"}, "geometry": {"type": "Point", "coordinates": [-103.463912, 19.701859]}},
{"type": "Feature", "id": "-79RlX65DcNKxXawPRZaSK3CDSE=", "properties": {"ref": "13986", "amenity": "bank", "@spider": "banco_del_bienestar_mx", "addr:full": "Av. Ju\u00e1rez # 602 entre las calles de esq con Aldama y Abasolo", "addr:city": "PUERTO VALLARTA", "addr:country": "MX", "name": "PUERTO VALLARTA", "phone": "2220262", "brand": "Banco del Bienestar", "brand:wikidata": "Q5719137"}, "geometry": {"type": "Point", "coordinates": [-105.232425, 20.612606]}},
{"type": "Feature", "id": "Uxm4ysCl8WXcwwifAYi5v-97q_4=", "properties": {"ref": "13987", "amenity": "bank", "@spider": "banco_del_bienestar_mx", "addr:full": "Calle De la Fuente N\u00ba 305", "addr:city": "MONCLOVA", "addr:country": "MX", "name": "MONCLOVA", "phone": "6331857;6320344", "brand": "Banco del Bienestar", "brand:wikidata": "Q5719137"}, "geometry": {"type": "Point", "coordinates": [-101.418474504693, 26.901027089610317]}},
{"type": "Feature", "id": "fI9giAUbsLW2IFM1UJMAZNdpRmI=", "properties": {"ref": "13988", "amenity": "bank", "@spider": "banco_del_bienestar_mx", "addr:full": "Avenida Delante y Carretera Transpeninsular # 100 Local No. 8 Esquina Reforma y Boulevard Sangines", "addr:city": "ENSENADA", "addr:country": "MX", "name": "ENSENADA", "phone": "1765695", "brand": "Banco del Bienestar", "brand:wikidata": "Q5719137"}, "geometry": {"type": "Point", "coordinates": [-116.609618, 31.861661]}},
{"type": "Feature", "id": "d9GiV5K_8fxwJIIW34QLKy_7K8g=", "properties": {"ref": "13989", "amenity": "bank", "@spider": "banco_del_bienestar_mx", "addr:full": "Calle Ignacio Zaragoza 108-A", "addr:city": "CELAYA", "addr:country": "MX", "name": "CELAYA", "phone": "6138403;2151496", "brand": "Banco del Bienestar", "brand:wikidata": "Q5719137"}, "geometry": {"type": "Point", "coordinates": [-100.814656, 20.520531]}},
{"type": "Feature", "id": "c5m4S-LqDX7Wnpq9xyMceqwt2iw=", "properties": {"ref": "13990", "amenity": "bank", "@spider": "banco_del_bienestar_mx", "addr:full": "Plaza de la constitnuci\u00f3n No.. 11", "addr:city": "TETELA DE OCAMPO", "addr:country": "MX", "name": "TETELA DE OCAMPO", "phone": "9731090;9731166", "brand": "Banco del Bienestar", "brand:wikidata": "Q5719137"}, "geometry": {"type": "Point", "coordinates": [-97.8065855652145, 19.816195948412723]}},
{"type": "Feature", "id": "F6LvHhZSRX7PWZr4fM4Lp7fhh0A=", "properties": {"ref": "13991", "amenity": "bank", "@spider": "banco_del_bienestar_mx", "addr:full": "Porfirio D\u00edaz No. 11 A Entre Primero de Mayo y Diego Mu\u00f1oz Camargo", "addr:city": "TLAXCALA", "addr:country": "MX", "name": "TLAXCALA", "phone": "4665283;4627002", "brand": "Banco del Bienestar", "brand:wikidata": "Q5719137"}, "geometry": {"type": "Point", "coordinates": [-98.23922, 19.317202]}},
{"type": "Feature", "id": "d8X2xual6VgwM9zABhxVRvF4T4Y=", "properties": {"ref": "13992", "amenity": "bank", "@spider": "banco_del_bienestar_mx", "addr:full": "Conspiradores N\u00ba 4 Local 1 A.", "addr:city": "CUAUTLA", "addr:country": "MX", "name": "CUAUTLA", "phone": "3525157;3546986", "brand": "Banco del Bienestar", "brand:wikidata": "Q5719137"}, "geometry": {"type": "Point", "coordinates": [-98.9545, 18.815083]}},
{"type": "Feature", "id": "Jj1zJLQETwtgTI8pD4K1AFPLZ-I=", "properties": {"ref": "13993", "amenity": "bank", "@spider": "banco_del_bienestar_mx", "addr:full": "Av. 35 Poniente 101-A Esq. 16 de Septiembre", "addr:city": "PUEBLA", "addr:country": "MX", "name": "PUEBLA ZONA DORADA", "phone": "2401343;2439031", "brand": "Banco del Bienestar", "brand:wikidata": "Q5719137"}, "geometry": {"type": "Point", "coordinates": [-98.20644, 19.031061]}},
{"type": "Feature", "id": "PiQ1MQHUWkKOn-E87I4DHriRMH0=", "properties": {"ref": "13994", "amenity": "bank", "@spider": "banco_del_bienestar_mx", "addr:full": "Av. Ju\u00e1rez N\u00ba 102 Ote.", "addr:city": "SAN NICOLAS DE LOS GARZA", "addr:country": "MX", "name": "SAN NICOLAS DE LOS GARZAS", "phone": "3536413", "brand": "Banco del Bienestar", "brand:wikidata": "Q5719137"}, "geometry": {"type": "Point", "coordinates": [-100.291499, 25.754948]}},
{"type": "Feature", "id": "eYYVFjN4yuJEgrmkqu3mKEN0Uyc=", "properties": {"ref": "13995", "amenity": "bank", "@spider": "banco_del_bienestar_mx", "addr:full": "Fco. de Barbadillo N\u00ba. 316 Nte.", "addr:city": "GUADALUPE", "addr:country": "MX", "name": "GUADALUPE", "phone": "3549699;3549688", "brand": "Banco del Bienestar", "brand:wikidata": "Q5719137"}, "geometry": {"type": "Point", "coordinates": [-100.259709, 25.679068]}},
{"type": "Feature", "id": "yKlGOanGxFF-ZOvk-ljTtVjKuP4=", "properties": {"ref": "13996", "amenity": "bank", "@spider": "banco_del_bienestar_mx", "addr:full": "Pasaje Cinema C\u00e1rdenas Loc. 2 entre Plaza Hidalgo y Av. C\u00e1rdenas", "addr:city": "CARDENAS", "addr:country": "MX", "name": "CARDENAS", "phone": "3722055;3722145", "brand": "Banco del Bienestar", "brand:wikidata": "Q5719137"}, "geometry": {"type": "Point", "coordinates": [-93.3777671792373, 17.988942613109916]}},
{"type": "Feature", "id": "wH6w1YDwYRbbPDKjT3hCJJeoNSM=", "properties": {"ref": "13997", "amenity": "bank", "@spider": "banco_del_bienestar_mx", "addr:full": "Av. Juan N Alvarez 23 D", "addr:city": "CHILPANCINGO DE LOS BRAVO", "addr:country": "MX", "name": "CHILPANCINGO", "phone": "4724028;4714235", "brand": "Banco del Bienestar", "brand:wikidata": "Q5719137"}, "geometry": {"type": "Point", "coordinates": [-99.49934, 17.549667]}},
{"type": "Feature", "id": "cJKfrXWxEMsl9mUK0oQ3r7JERmg=", "properties": {"ref": "13998", "amenity": "bank", "@spider": "banco_del_bienestar_mx", "addr:full": "Calle Miguel Hidalgo # 307-A, entre Ruiz Cort\u00ednez y Belisario Dom\u00ednguez", "addr:city": "COSAMALOAPAN", "addr:country": "MX", "name": "COSAMALOAPAN", "phone": "8823077;8825078", "brand": "Banco del Bienestar", "brand:wikidata": "Q5719137"}, "geometry": {"type": "Point", "coordinates": [-95.7953386532563, 18.364135820229155]}},
{"type": "Feature", "id": "UHkMWlk8sa1AJjaHroBUfQkpcuc=", "properties": {"ref": "13999", "amenity": "bank", "@spider": "banco_del_bienestar_mx", "addr:full": "Boulevard Norte H\u00e9roes 5 de Mayo # 2606 Local 28 entre 26 poniente y 30 poniente", "addr:city": "PUEBLA", "addr:country": "MX", "name": "PUEBLA CAPU", "phone": "2301974", "brand": "Banco del Bienestar", "brand:wikidata": "Q5719137"}, "geometry": {"type": "Point", "coordinates": [-98.21061, 19.067808]}},
{"type": "Feature", "id": "rTYpgj1Ce94D9t6XLdYg24JD1L0=", "properties": {"ref": "14000", "amenity": "bank", "@spider": "banco_del_bienestar_mx", "addr:full": "Plaza Crystal Veracruz Local N\u00ba 23 C.", "addr:city": "VERACRUZ", "addr:country": "MX", "name": "VERACRUZ PLAZA CRYSTAL", "phone": "9378680", "brand": "Banco del Bienestar", "brand:wikidata": "Q5719137"}, "geometry": {"type": "Point", "coordinates": [-96.13142, 19.160318]}},
{"type": "Feature", "id": "HYthsq_hZLkNRgq1he0mf8E92ic=", "properties": {"ref": "14001", "amenity": "bank", "@spider": "banco_del_bienestar_mx", "addr:full": "Av. Gonzalitos No. 292 Nte", "addr:city": "MONTERREY", "addr:country": "MX", "name": "MONTERREY FOMERREY", "phone": "3715992;3710121", "brand": "Banco del Bienestar", "brand:wikidata": "Q5719137"}, "geometry": {"type": "Point", "coordinates": [-100.3513, 25.69986]}},
{"type": "Feature", "id": "9IHDniEmtMohnGJAtT4bgNasOjI=", "properties": {"ref": "14002", "amenity": "bank", "@spider": "banco_del_bienestar_mx", "addr:full": "Av. L\u00f3pez Mateos Sur No. 5943", "addr:city": "ZAPOPAN", "addr:country": "MX", "name": "PLAZA LAS AGUILAS ZAPOPAN", "phone": "6327666;6342134", "brand": "Banco del Bienestar", "brand:wikidata": "Q5719137"}, "geometry": {"type": "Point", "coordinates": [-103.417459, 20.630585]}},
{"type": "Feature", "id": "Q0jM69ip7ZcMjLKCuZ9L2hk_NKQ=", "properties": {"ref": "14003", "amenity": "bank", "@spider": "banco_del_bienestar_mx", "addr:full": "Huertas No. 58", "addr:city": "TLAQUEPAQUE", "addr:country": "MX", "name": "GUADALAJARA SAN PEDRO TLAQUEPAQUE", "phone": "6597176", "brand": "Banco del Bienestar", "brand:wikidata": "Q5719137"}, "geometry": {"type": "Point", "coordinates": [-103.310541, 20.638373]}},
{"type": "Feature", "id": "7AFhhkYUiNeI6akxbhxF6jdwsjU=", "properties": {"ref": "14004", "amenity": "bank", "@spider": "banco_del_bienestar_mx", "addr:full": "Calle Jard\u00edn Hidalgo #7", "addr:city": "FRESNILLO", "addr:country": "MX", "name": "FRESNILLO", "phone": "9326782;9334187;9334146", "brand": "Banco del Bienestar", "brand:wikidata": "Q5719137"}, "geometry": {"type": "Point", "coordinates": [-102.86889, 23.17325]}},
{"type": "Feature", "id": "kaUOFbgF1jwjb1GQwJdpP0BHtZk=", "properties": {"ref": "14005", "amenity": "bank", "@spider": "banco_del_bienestar_mx", "addr:full": "Av. H. Colegio Militar No. 103 Ote. Entre Gonzalez Ortega y Constitucion", "addr:city": "GUADALUPE", "addr:country": "MX", "name": "GUADALUPE", "phone": "9210082;8992723", "brand": "Banco del Bienestar", "brand:wikidata": "Q5719137"}, "geometry": {"type": "Point", "coordinates": [-102.514845, 22.749029]}},
{"type": "Feature", "id": "dzMThsdVtTjwW3RKXTTw2tSn6CA=", "properties": {"ref": "14006", "amenity": "bank", "@spider": "banco_del_bienestar_mx", "addr:full": "Calle Plaza Arechiga 'Plaza Amistad' No. 424 Loc 205", "addr:city": "JALPA", "addr:country": "MX", "name": "JALPA", "phone": "9553399;9554150", "brand": "Banco del Bienestar", "brand:wikidata": "Q5719137"}, "geometry": {"type": "Point", "coordinates": [-102.97702967666, 21.63233241931036]}},
{"type": "Feature", "id": "CQW_T0cvMsViWlnl3nYmAOSrUFo=", "properties": {"ref": "14007", "amenity": "bank", "@spider": "banco_del_bienestar_mx", "addr:full": "Calle del Santuario No. 27 entre Calle del Aurora y de las Artes", "addr:city": "JEREZ", "addr:country": "MX", "name": "JEREZ", "phone": "9470512;9459716", "brand": "Banco del Bienestar", "brand:wikidata": "Q5719137"}, "geometry": {"type": "Point", "coordinates": [-102.99130474841, 22.6478643786147]}},
{"type": "Feature", "id": "rCuGr1N7zJoXs9K9k9bK1WGXZPE=", "properties": {"ref": "14008", "amenity": "bank", "@spider": "banco_del_bienestar_mx", "addr:full": "Calle Bracho No. 7-B", "addr:city": "SOMBRERETE", "addr:country": "MX", "name": "SOMBRERETE", "phone": "9350645;9352141", "brand": "Banco del Bienestar", "brand:wikidata": "Q5719137"}, "geometry": {"type": "Point", "coordinates": [-103.6414, 23.630483]}},
{"type": "Feature", "id": "9GJdfCcEM8IA25drS4XOD-xVGtY=", "properties": {"ref": "14009", "amenity": "bank", "@spider": "banco_del_bienestar_mx", "addr:full": "Ni\u00f1os H\u00e9roes No. 7", "addr:city": "TLALTENANGO DE SANCHEZ ROMAN", "addr:country": "MX", "name": "TLALTENANGO", "phone": "9542484;9542223", "brand": "Banco del Bienestar", "brand:wikidata": "Q5719137"}, "geometry": {"type": "Point", "coordinates": [-103.306417646557, 21.781749497295436]}},
{"type": "Feature", "id": "S8qlIgWNRTccPoyfnUTnwsk-Fng=", "properties": {"ref": "14010", "amenity": "bank", "@spider": "banco_del_bienestar_mx", "addr:full": "Calle Primera Poniente Norte S/N, entre Av. Central y Primera Av. Norte", "addr:city": "CINTALAPA", "addr:country": "MX", "name": "CINTALAPA", "phone": "6843682;6843523", "brand": "Banco del Bienestar", "brand:wikidata": "Q5719137"}, "geometry": {"type": "Point", "coordinates": [-93.7220244232788, 16.69841173240435]}},
{"type": "Feature", "id": "Y6Peg7zoJp211FE_-HsxCIyUFxI=", "properties": {"ref": "14011", "amenity": "bank", "@spider": "banco_del_bienestar_mx", "addr:full": "Cresencio Rosas No. 15 Esq. Ni\u00f1os H\u00e9roes", "addr:city": "SAN CRISTOBAL DE LAS CASAS", "addr:country": "MX", "name": "SAN. CRISTOBAL DE LAS CASAS", "phone": "6786131;6314494", "brand": "Banco del Bienestar", "brand:wikidata": "Q5719137"}, "geometry": {"type": "Point", "coordinates": [-92.63885, 16.735121]}},
{"type": "Feature", "id": "OBbLapCqpsl5MI8KIla4nIUBPYM=", "properties": {"ref": "14012", "amenity": "bank", "@spider": "banco_del_bienestar_mx", "addr:full": "Calle Isabel La Cat\u00f3lica No. 20 Loc. 5 entre 16 de Septiembre y M\u00e9xico", "addr:city": "CIUDAD IXTEPEC", "addr:country": "MX", "name": "CIUDAD IXTEPEC", "phone": "7131048;7132397", "brand": "Banco del Bienestar", "brand:wikidata": "Q5719137"}, "geometry": {"type": "Point", "coordinates": [-95.0950263272308, 16.5564626100389]}},
{"type": "Feature", "id": "yalvyQ1XFohi_a_0fmQpLDEr2Oo=", "properties": {"ref": "14013", "amenity": "bank", "@spider": "banco_del_bienestar_mx", "addr:full": "Carretera Internacional No. 2313-B, entre Orqu\u00eddeas y Jacarandas", "addr:city": "SANTA LUCIA DEL CAMINO", "addr:country": "MX", "name": "OAXACA, LAS FLORES", "phone": "1327812", "brand": "Banco del Bienestar", "brand:wikidata": "Q5719137"}, "geometry": {"type": "Point", "coordinates": [-96.70273, 17.069562]}},
{"type": "Feature", "id": "xAWlWPWlFmmF9_H-mxeG7K0xC2o=", "properties": {"ref": "14014", "amenity": "bank", "@spider": "banco_del_bienestar_mx", "addr:full": "Prolongaci\u00f3n Bustamante S/N Loc. 3", "addr:city": "ZIMATLAN DE ALVAREZ", "addr:country": "MX", "name": "ZIMATLAN DE ALVAREZ", "phone": "5716544;5715555", "brand": "Banco del Bienestar", "brand:wikidata": "Q5719137"}, "geometry": {"type": "Point", "coordinates": [-96.7866033082122, 16.867318958447697]}},
{"type": "Feature", "id": "KCIVDTetJCpD29E-eyBI_qU4XhE=", "properties": {"ref": "14015", "amenity": "bank", "@spider": "banco_del_bienestar_mx", "addr:full": "Alejandro Villalobos No.31 Col. Centro C.P. 47120, Jalostititl\u00e1n", "addr:city": "JALOSTOTITLAN", "addr:country": "MX", "name": "JALOSTOTITLAN", "phone": "7463309;7462825", "brand": "Banco del Bienestar", "brand:wikidata": "Q5719137"}, "geometry": {"type": "Point", "coordinates": [-102.466159048213, 21.167787076433]}},
{"type": "Feature", "id": "PYNorQy_St1SfQwKjM2Kp0DCrR0=", "properties": {"ref": "14016", "amenity": "bank", "@spider": "banco_del_bienestar_mx", "addr:full": "Francisco I. Madero No. 328", "addr:city": "LAGOS DE MORENO", "addr:country": "MX", "name": "LAGOS DE MORENO", "phone": "4031412;4031739;7426920;7464751", "brand": "Banco del Bienestar", "brand:wikidata": "Q5719137"}, "geometry": {"type": "Point", "coordinates": [-101.930822, 21.356368]}},
{"type": "Feature", "id": "fAZmQMXOxCz1oP37Tgii2DElwhI=", "properties": {"ref": "14017", "amenity": "bank", "@spider": "banco_del_bienestar_mx", "addr:full": "Rita Perez Moreno #61-A", "addr:city": "SAN JUAN DE LOS LAGOS", "addr:country": "MX", "name": "SAN JUAN DE LOS LAGOS", "phone": "7255648;7854732;7255424", "brand": "Banco del Bienestar", "brand:wikidata": "Q5719137"}, "geometry": {"type": "Point", "coordinates": [-102.331156905418, 21.24717000680119]}},
{"type": "Feature", "id": "bLLhwDQc1g9rhAYyFuYDFYX7uAo=", "properties": {"ref": "14018", "amenity": "bank", "@spider": "banco_del_bienestar_mx", "addr:full": "Calle Jesus Reynoso No. 134 Entre 5 De Mayo y Abasolo Tepatitlan De Morelos, Jal", "addr:city": "TEPATITLAN DE MORELOS", "addr:country": "MX", "name": "TEPATITLAN", "phone": "7813569;7154878", "brand": "Banco del Bienestar", "brand:wikidata": "Q5719137"}, "geometry": {"type": "Point", "coordinates": [-102.759392, 20.817467]}},
{"type": "Feature", "id": "FwnaKX-RAM2oudWKoccloiQq-e4=", "properties": {"ref": "14019", "amenity": "bank", "@spider": "banco_del_bienestar_mx", "addr:full": "Boulevar Hilario Median No 508", "addr:city": "LEON", "addr:country": "MX", "name": "LEON COECILLO", "phone": "7634047;7641066", "brand": "Banco del Bienestar", "brand:wikidata": "Q5719137"}, "geometry": {"type": "Point", "coordinates": [-101.6620219, 21.1247753]}},
{"type": "Feature", "id": "uNrzmamniD8Dx8ROpJL0YnYkrGQ=", "properties": {"ref": "14020", "amenity": "bank", "@spider": "banco_del_bienestar_mx", "addr:full": "Av. Adolfo L\u00f3pez Mateos Ote. N\u00fam. Ext. 712 Int. 15A 15B 16A 17A y 18A", "addr:city": "AGUASCALIENTES", "addr:country": "MX", "name": "AGUASCALIENTES PLAZA CRYSTAL", "phone": "9167199", "brand": "Banco del Bienestar", "brand:wikidata": "Q5719137"}, "geometry": {"type": "Point", "coordinates": [-102.2849544, 21.8793073]}},
{"type": "Feature", "id": "HlchztDodqnMMkUrrLHhN3mQlHI=", "properties": {"ref": "14021", "amenity": "bank", "@spider": "banco_del_bienestar_mx", "addr:full": "5 de Mayo Sur No. 31 Locales 4, 5 y 6 entre las calles Lerdo de Tejada y Jose Maria Coss", "addr:city": "ZITACUARO", "addr:country": "MX", "name": "ZITACUARO", "phone": "1534011;1568177", "brand": "Banco del Bienestar", "brand:wikidata": "Q5719137"}, "geometry": {"type": "Point", "coordinates": [-100.356957583853, 19.438132607301362]}},
{"type": "Feature", "id": "2X7NHffacBpWHDXc0W-r2o9tXTo=", "properties": {"ref": "14022", "amenity": "bank", "@spider": "banco_del_bienestar_mx", "addr:full": "Cuauht\u00e9moc Norte # 10, entre Emilio Carranza y Melchor Ocampo", "addr:city": "HIDALGO", "addr:country": "MX", "name": "CIUDAD HIDALGO", "phone": "1544033;1548051", "brand": "Banco del Bienestar", "brand:wikidata": "Q5719137"}, "geometry": {"type": "Point", "coordinates": [-100.554808320901, 19.69205541830929]}},
{"type": "Feature", "id": "jCakqnTkTijXAckFYPVq_v7jwfM=", "properties": {"ref": "14023", "amenity": "bank", "@spider": "banco_del_bienestar_mx", "addr:full": "Calle Alvaro Obreg\u00f3n, No. 15 local 3 y 4 entre Padre Lloreda e Industrial", "addr:city": "PATZCUARO", "addr:country": "MX", "name": "PATZCUARO", "phone": "3423922;3426917", "brand": "Banco del Bienestar", "brand:wikidata": "Q5719137"}, "geometry": {"type": "Point", "coordinates": [-101.608818704229, 19.5177048375268]}},
{"type": "Feature", "id": "PiyFR4gUg38xGBNzLovk6QrKWSc=", "properties": {"ref": "14024", "amenity": "bank", "@spider": "banco_del_bienestar_mx", "addr:full": "Juarez #65 Local 1", "addr:city": "LA PIEDAD", "addr:country": "MX", "name": "LA PIEDAD", "phone": "5226876;5227296", "brand": "Banco del Bienestar", "brand:wikidata": "Q5719137"}, "geometry": {"type": "Point", "coordinates": [-102.022345, 20.3402]}},
{"type": "Feature", "id": "D2jD3D-gt9EP5CDMI0B0USnAkXc=", "properties": {"ref": "14025", "amenity": "bank", "@spider": "banco_del_bienestar_mx", "addr:full": "Av. L\u00e1zaro C\u00e1rdenas No. 13 Local 'B'", "addr:city": "LAZARO CARDENAS", "addr:country": "MX", "name": "LAZARO CARDENAS", "phone": "5324171;5373000", "brand": "Banco del Bienestar", "brand:wikidata": "Q5719137"}, "geometry": {"type": "Point", "coordinates": [-102.193205068014, 17.955107180609176]}},
{"type": "Feature", "id": "K1QlOUWRp5JPqS7ZQUlwyCzyF3Y=", "properties": {"ref": "14026", "amenity": "bank", "@spider": "banco_del_bienestar_mx", "addr:full": "Pasaje Morelos No. 1-D,E, entre \u00a0Constituci\u00f3n de 1814 y Jos\u00e9 Ma. Coos", "addr:city": "APATZINGAN", "addr:country": "MX", "name": "APATZINGAN", "phone": "5340317;5375365", "brand": "Banco del Bienestar", "brand:wikidata": "Q5719137"}, "geometry": {"type": "Point", "coordinates": [-102.353869585319, 19.087123178789316]}},
{"type": "Feature", "id": "fNogCSjcgJjhs9VBEE0hsqbeyLk=", "properties": {"ref": "14027", "amenity": "bank", "@spider": "banco_del_bienestar_mx", "addr:full": "Profesor Fajardo No. 60 entre 5 de mayo y Gral Ornelas", "addr:city": "JIQUILPAN", "addr:country": "MX", "name": "JIQUILPAN", "phone": "5334830", "brand": "Banco del Bienestar", "brand:wikidata": "Q5719137"}, "geometry": {"type": "Point", "coordinates": [-102.718329, 19.990951]}},
{"type": "Feature", "id": "1mFRKv3cDJM_6dieZ7he3LV0FHk=", "properties": {"ref": "14028", "amenity": "bank", "@spider": "banco_del_bienestar_mx", "addr:full": "Av.\u00a0Hidalgo No. 223 Local\u00a0'A' Entre Cuauhtemoc y Prisciliano Sanchez, La Barca, Jal", "addr:city": "BARCA, LA", "addr:country": "MX", "name": "LA BARCA", "phone": "9353906", "brand": "Banco del Bienestar", "brand:wikidata": "Q5719137"}, "geometry": {"type": "Point", "coordinates": [-102.547708, 20.282291]}},
{"type": "Feature", "id": "b5X_VaN7z0rat7xtayUeoh5_9A4=", "properties": {"ref": "14029", "amenity": "bank", "@spider": "banco_del_bienestar_mx", "addr:full": "Av. Revoluci\u00f2n S/N Esq. D\u00ecaz Ordaz Local 20 Y 21 F, (Plaza Fiesta)", "addr:city": "IRAPUATO", "addr:country": "MX", "name": "IRAPUATO URBANA 1", "phone": "6263737;6273721", "brand": "Banco del Bienestar", "brand:wikidata": "Q5719137"}, "geometry": {"type": "Point", "coordinates": [-101.342927, 20.677381]}},
{"type": "Feature", "id": "kekbYVLhpvtc8tmaLlse0eLmCC8=", "properties": {"ref": "14030", "amenity": "bank", "@spider": "banco_del_bienestar_mx", "addr:full": "Prolongaci\u00f3n Reforma # 3518 Local D entre las calles 35 y 37 norte", "addr:city": "PUEBLA", "addr:country": "MX", "name": "PUEBLA COLONIA LA PAZ", "phone": "2303509;2493487", "brand": "Banco del Bienestar", "brand:wikidata": "Q5719137"}, "geometry": {"type": "Point", "coordinates": [-98.22415, 19.058934]}},
{"type": "Feature", "id": "3XdVwSyE_Yiq8tG8bSQr3C9Q1pk=", "properties": {"ref": "14031", "amenity": "bank", "@spider": "banco_del_bienestar_mx", "addr:full": "Ayuntamiento No. 13 Local 11 y 21 Col. Centro C.P 74400 Iz\u00facar de Matamoros, Puebla.", "addr:city": "IZUCAR DE MATAMOROS", "addr:country": "MX", "name": "IZUCAR DE MATAMOROS", "phone": "4361750;4366605", "brand": "Banco del Bienestar", "brand:wikidata": "Q5719137"}, "geometry": {"type": "Point", "coordinates": [-98.46547, 18.605193]}},
{"type": "Feature", "id": "PVGWHtFDW5U5aODmUrk3XvovmL4=", "properties": {"ref": "14032", "amenity": "bank", "@spider": "banco_del_bienestar_mx", "addr:full": "Av. 16 De Septiembre No. 507 Local 'A' Entre 5 Pte y 7 Pte.Cd. Serdan, Puebla", "addr:city": "CHALCHICOMULA DE SESMA", "addr:country": "MX", "name": "CIUDAD SERDAN", "phone": "4520888", "brand": "Banco del Bienestar", "brand:wikidata": "Q5719137"}, "geometry": {"type": "Point", "coordinates": [-97.4474782828033, 18.986105681350033]}},
{"type": "Feature", "id": "fifbj38EBREe0bzloj6otSirLHw=", "properties": {"ref": "14033", "amenity": "bank", "@spider": "banco_del_bienestar_mx", "addr:full": "Calle pasaje Hidalgo No. 126 Locales A Y B Tula Allende Hidalgo", "addr:city": "TULA DE ALLENDE", "addr:country": "MX", "name": "TULA", "phone": "7325111;7325828", "brand": "Banco del Bienestar", "brand:wikidata": "Q5719137"}, "geometry": {"type": "Point", "coordinates": [-99.34189, 20.054601]}},
{"type": "Feature", "id": "v-6bQqfy_01Vnmf8Msvbya2PTMQ=", "properties": {"ref": "14034", "amenity": "bank", "@spider": "banco_del_bienestar_mx", "addr:full": "Calle Benito Juarez Sur No. 102 Locales 1 y 2 entre Hidalgo y Zaragoza", "addr:city": "TULANCINGO DE BRAVO", "addr:country": "MX", "name": "TULANCINGO", "phone": "7550388", "brand": "Banco del Bienestar", "brand:wikidata": "Q5719137"}, "geometry": {"type": "Point", "coordinates": [-98.36991, 20.081097]}},
{"type": "Feature", "id": "CwwVFq6P9wNM5UeGvpEzhlMeMS4=", "properties": {"ref": "14035", "amenity": "bank", "@spider": "banco_del_bienestar_mx", "addr:full": "Av. Independencia Oriente # 600", "addr:city": "TOLUCA", "addr:country": "MX", "name": "TOLUCA URBANA1", "phone": "2148413;2140386", "brand": "Banco del Bienestar", "brand:wikidata": "Q5719137"}, "geometry": {"type": "Point", "coordinates": [-99.65173, 19.292147]}},
{"type": "Feature", "id": "xDayiN6qMVwE5hT41ovjH0hOmB4=", "properties": {"ref": "14036", "amenity": "bank", "@spider": "banco_del_bienestar_mx", "addr:full": "Boulevard Hidalgo No. 26 y 28, Local 1, entre Ju\u00e1rez y Allende", "addr:city": "SAN JUAN DEL RIO", "addr:country": "MX", "name": "SAN JUAN DEL RIO", "phone": "2747416;2726573;2748153", "brand": "Banco del Bienestar", "brand:wikidata": "Q5719137"}, "geometry": {"type": "Point", "coordinates": [-99.997547, 20.38492]}},
{"type": "Feature", "id": "XDeOo9Yu4YV0S6znj38l8Qp0dX4=", "properties": {"ref": "14037", "amenity": "bank", "@spider": "banco_del_bienestar_mx", "addr:full": "Hidalgo No. 9 Interior 3, entre Hidalgo y Ju\u00e1rez", "addr:city": "MINATITLAN", "addr:country": "MX", "name": "MINATITLAN DOCTOR COSS", "phone": "2231220", "brand": "Banco del Bienestar", "brand:wikidata": "Q5719137"}, "geometry": {"type": "Point", "coordinates": [-94.54139, 17.980317]}},
{"type": "Feature", "id": "qVMzpD37E-H7KT3TxUC2zdli5-8=", "properties": {"ref": "14038", "amenity": "bank", "@spider": "banco_del_bienestar_mx", "addr:full": "Av. Ju\u00e1rez No. 106 Plaza Jard\u00edn Local No.6", "addr:city": "SAN ANDRES TUXTLA", "addr:country": "MX", "name": "SAN ANDRES TUXTLA", "phone": "9424200", "brand": "Banco del Bienestar", "brand:wikidata": "Q5719137"}, "geometry": {"type": "Point", "coordinates": [-95.2132016986419, 18.449410380021405]}},
{"type": "Feature", "id": "iJzIp9CYjMS_4I5q4wwqMsQavkw=", "properties": {"ref": "14039", "amenity": "bank", "@spider": "banco_del_bienestar_mx", "addr:full": "Calle Miguel Negrete esquina Ignacio Zaragoza # 13-D", "addr:city": "ACAYUCAN", "addr:country": "MX", "name": "ACAYUCAN", "phone": "2454502;2474133", "brand": "Banco del Bienestar", "brand:wikidata": "Q5719137"}, "geometry": {"type": "Point", "coordinates": [-94.912934572544, 17.94712739175938]}},
{"type": "Feature", "id": "X196n9WzFJK5LlzSOrEpJn0VXBY=", "properties": {"ref": "14040", "amenity": "bank", "@spider": "banco_del_bienestar_mx", "addr:full": "Av Avila Camacho No. 205 entre las calles de Mariano Morelos y Vicente Guerrero", "addr:city": "MARTINEZ DE LA TORRE", "addr:country": "MX", "name": "MARTINEZ DE LA TORRE", "phone": "3730324;3245261", "brand": "Banco del Bienestar", "brand:wikidata": "Q5719137"}, "geometry": {"type": "Point", "coordinates": [-97.0577090561279, 20.06233178053554]}},
{"type": "Feature", "id": "FpDncOGrnVrwQQBDKCepGKRyCNg=", "properties": {"ref": "14041", "amenity": "bank", "@spider": "banco_del_bienestar_mx", "addr:full": "Murillo Vidal No. 102-D", "addr:city": "XALAPA", "addr:country": "MX", "name": "JALAPA BERROS", "phone": "8187930", "brand": "Banco del Bienestar", "brand:wikidata": "Q5719137"}, "geometry": {"type": "Point", "coordinates": [-96.91681, 19.527649]}},
{"type": "Feature", "id": "Vb8UwWAbgfw0ip_A0WgECLT2PUo=", "properties": {"ref": "14042", "amenity": "bank", "@spider": "banco_del_bienestar_mx", "addr:full": "Calle Zona Comercial 'PLAZA VIYAUTEPEC' Local 6 y 7 del Fraccionamiento VIYAUTEPEC", "addr:city": "YAUTEPEC", "addr:country": "MX", "name": "YAUTEPEC", "phone": "3949899;3946834", "brand": "Banco del Bienestar", "brand:wikidata": "Q5719137"}, "geometry": {"type": "Point", "coordinates": [-99.06297, 18.886727]}},
{"type": "Feature", "id": "-9yHDUY6TEN1YIco-7AHJ4D1AD0=", "properties": {"ref": "14043", "amenity": "bank", "@spider": "banco_del_bienestar_mx", "addr:full": "Xicot\u00e9ncatl No. 2", "addr:city": "ZACATEPEC DE HIDALGO", "addr:country": "MX", "name": "SPM. ZACATEPEC", "phone": "3437550;3433725", "brand": "Banco del Bienestar", "brand:wikidata": "Q5719137"}, "geometry": {"type": "Point", "coordinates": [-99.19324, 18.653424]}},
{"type": "Feature", "id": "tapZZXN4EizAgD94GInccGgXIlY=", "properties": {"ref": "14044", "amenity": "bank", "@spider": "banco_del_bienestar_mx", "addr:full": "Calle Aquiles Serd\u00e1n # 206, entre Madero y Manuel Altamirano,", "addr:city": "JOJUTLA", "addr:country": "MX", "name": "JOJUTLA", "phone": "3420515;3427857", "brand": "Banco del Bienestar", "brand:wikidata": "Q5719137"}, "geometry": {"type": "Point", "coordinates": [-99.17669, 18.614386]}},
{"type": "Feature", "id": "_7H0K2jiJBN9Z8Pr4v_su4izlOs=", "properties": {"ref": "14045", "amenity": "bank", "@spider": "banco_del_bienestar_mx", "addr:full": "Plaza Sn. Pablo' Av. Ju\u00e1rez Norte # 306 Local V entre Manuel Gonzalez y C. Mina", "addr:city": "TEXCOCO", "addr:country": "MX", "name": "TEXCOCO", "phone": "9540049", "brand": "Banco del Bienestar", "brand:wikidata": "Q5719137"}, "geometry": {"type": "Point", "coordinates": [-98.88155, 19.516819]}},
{"type": "Feature", "id": "zCfTZVnMj_DbtQ_7xDliBhprVy8=", "properties": {"ref": "14046", "amenity": "bank", "@spider": "banco_del_bienestar_mx", "addr:full": "Calle Mariano Abasolo # 2 esq. Hidalgo #35", "addr:city": "ORO, EL", "addr:country": "MX", "name": "EL ORO", "phone": "1250717;1251681", "brand": "Banco del Bienestar", "brand:wikidata": "Q5719137"}, "geometry": {"type": "Point", "coordinates": [-100.128803210975, 19.800348353315087]}},
{"type": "Feature", "id": "jHJCITOaXBoBrEfaX8mIsr-yuyw=", "properties": {"ref": "14047", "amenity": "bank", "@spider": "banco_del_bienestar_mx", "addr:full": "Blv. Ma de la Luz Bravo No.502 Loc. B entre Ignacio Altamirano y Valent\u00edn Canalizo", "addr:city": "SAN FRANCISCO DEL RINCON", "addr:country": "MX", "name": "SAN FRANCISCO DEL RINCON", "phone": "7435519", "brand": "Banco del Bienestar", "brand:wikidata": "Q5719137"}, "geometry": {"type": "Point", "coordinates": [-101.857485, 21.013518]}},
{"type": "Feature", "id": "c5pPXIxhgajjnhd8LCmEBENERS0=", "properties": {"ref": "14048", "amenity": "bank", "@spider": "banco_del_bienestar_mx", "addr:full": "Boulevard de la Conspiraci\u00f3n (Plaza Real del Conde) No. 302 Local BB-12", "addr:city": "ALLENDE", "addr:country": "MX", "name": "SAN MIGUEL DE ALLENDE", "phone": "1205353;1205372", "brand": "Banco del Bienestar", "brand:wikidata": "Q5719137"}, "geometry": {"type": "Point", "coordinates": [-100.742264, 20.914012]}},
{"type": "Feature", "id": "H_kPgIsy5-J2hGiekSG1YQ2JsH0=", "properties": {"ref": "14049", "amenity": "bank", "@spider": "banco_del_bienestar_mx", "addr:full": "Calle Guerrero # 7 D, entre Veracruz y Jalisco", "addr:city": "DOLORES HIDALGO", "addr:country": "MX", "name": "DOLORES HIDALGO", "phone": "1822385;1821313", "brand": "Banco del Bienestar", "brand:wikidata": "Q5719137"}, "geometry": {"type": "Point", "coordinates": [-100.933812235473, 21.15661838694359]}},
{"type": "Feature", "id": "pCjGSiiBiNHXAWYSfDWq6aequZk=", "properties": {"ref": "14050", "amenity": "bank", "@spider": "banco_del_bienestar_mx", "addr:full": "Calle Medellin No. 52 'B' entre Abasolo y Allende", "addr:city": "TECOMAN", "addr:country": "MX", "name": "TECOMAN", "phone": "3245484;3252724", "brand": "Banco del Bienestar", "brand:wikidata": "Q5719137"}, "geometry": {"type": "Point", "coordinates": [-103.873306991401, 18.912177633249648]}},
{"type": "Feature", "id": "jdxlPJVK5aHpBDY1Aa9aGC4CobQ=", "properties": {"ref": "14051", "amenity": "bank", "@spider": "banco_del_bienestar_mx", "addr:full": "Blvd. Miguel de la Madrid Mza. 37 Lot. 17 Zona 1", "addr:city": "MANZANILLO", "addr:country": "MX", "name": "MANZANILLO", "phone": "3340337;3325226;3327418", "brand": "Banco del Bienestar", "brand:wikidata": "Q5719137"}, "geometry": {"type": "Point", "coordinates": [-104.334687, 19.105836]}},
{"type": "Feature", "id": "fjhakEsUfUfrH1pvvEmKmMNyupo=", "properties": {"ref": "14052", "amenity": "bank", "@spider": "banco_del_bienestar_mx", "addr:full": "Calle Dr. de la Torre y Javier Mina", "addr:city": "SALVADOR ALVARADO", "addr:country": "MX", "name": "GUAMUCHIL", "phone": "7320719;7320939", "brand": "Banco del Bienestar", "brand:wikidata": "Q5719137"}, "geometry": {"type": "Point", "coordinates": [-108.081431, 25.457887]}},
{"type": "Feature", "id": "-idCpWjASiuYPPIYjPmRXuoNuMA=", "properties": {"ref": "14053", "amenity": "bank", "@spider": "banco_del_bienestar_mx", "addr:full": "Calle Vicente Guerrero No. 460 entre Dr. De La Torre Y Cuauhtemoc", "addr:city": "GUASAVE", "addr:country": "MX", "name": "GUASAVE", "phone": "8725766;8715239", "brand": "Banco del Bienestar", "brand:wikidata": "Q5719137"}, "geometry": {"type": "Point", "coordinates": [-108.4635, 25.562101]}},
{"type": "Feature", "id": "i5VUMF-tpvh6DX7DqKsfRCJe7x0=", "properties": {"ref": "14054", "amenity": "bank", "@spider": "banco_del_bienestar_mx", "addr:full": "Calle Libertad No. 11 D Entre Cuautla y Granaditas", "addr:city": "HIDALGO DEL PARRAL", "addr:country": "MX", "name": "HIDALGO DEL PARRAL URBANA 1", "phone": "5233993;5232326;5233993", "brand": "Banco del Bienestar", "brand:wikidata": "Q5719137"}, "geometry": {"type": "Point", "coordinates": [-105.6617, 26.931025]}},
{"type": "Feature", "id": "9ySdJlEJazEnd_T4hLTenlbjSQM=", "properties": {"ref": "14055", "amenity": "bank", "@spider": "banco_del_bienestar_mx", "addr:full": "Av. del Parque N\u00fam. 106", "addr:city": "DELICIAS", "addr:country": "MX", "name": "DELICIAS URBANA 1", "phone": "4740951;4740951", "brand": "Banco del Bienestar", "brand:wikidata": "Q5719137"}, "geometry": {"type": "Point", "coordinates": [-105.472616, 28.193904]}},
{"type": "Feature", "id": "rNJIuHKwbKO8BHimSPDWHO-TUNQ=", "properties": {"ref": "14056", "amenity": "bank", "@spider": "banco_del_bienestar_mx", "addr:full": "Calle No Reelecci\u00f3n No. 206-A Sur, entre Hidalgo y Guerrero.", "addr:city": "NAVOJOA", "addr:country": "MX", "name": "NAVOJOA", "phone": "4212242;4227643", "brand": "Banco del Bienestar", "brand:wikidata": "Q5719137"}, "geometry": {"type": "Point", "coordinates": [-109.445865, 27.079652]}},
{"type": "Feature", "id": "ZaRDsi9QYiajNqYDuflHHwguuLQ=", "properties": {"ref": "14057", "amenity": "bank", "@spider": "banco_del_bienestar_mx", "addr:full": "Calle\u00a0Segunda No. 354 Local 5, entre Callejon Juarez y Av.Hidalgo", "addr:city": "SAN LUIS RIO COLORADO", "addr:country": "MX", "name": "SAN LUIS RIO COLORADO", "phone": "5183880", "brand": "Banco del Bienestar", "brand:wikidata": "Q5719137"}, "geometry": {"type": "Point", "coordinates": [-114.782433, 32.480415]}},
{"type": "Feature", "id": "Rt5QNdHfcPLAL1zQhKj-8o8LnDo=", "properties": {"ref": "14058", "amenity": "bank", "@spider": "banco_del_bienestar_mx", "addr:full": "Av. Negrete No. 2050", "addr:city": "TIJUANA", "addr:country": "MX", "name": "SPM. TIJUANA", "phone": "6347023", "brand": "Banco del Bienestar", "brand:wikidata": "Q5719137"}, "geometry": {"type": "Point", "coordinates": [-117.0323, 32.523734]}},
{"type": "Feature", "id": "0DM6KMO5zlg6rj1lJSzasQ8MY5I=", "properties": {"ref": "14059", "amenity": "bank", "@spider": "banco_del_bienestar_mx", "addr:full": "Calle 26 #51 Lt. 1 Mz. 88 Sector 1 Zona 4", "addr:city": "CARMEN", "addr:country": "MX", "name": "CIUDAD DEL CARMEN", "phone": "3828528;2860374", "brand": "Banco del Bienestar", "brand:wikidata": "Q5719137"}, "geometry": {"type": "Point", "coordinates": [-91.83598, 18.640438]}},
{"type": "Feature", "id": "nYVFecHKcW_Hy-oEu_1-szXf0Kc=", "properties": {"ref": "14060", "amenity": "bank", "@spider": "banco_del_bienestar_mx", "addr:full": "Av. 5 de Mayo No. 462 entre Miguel Hidalgo y L\u00f2pez Rayon", "addr:city": "SAN JUAN BAUTISTA TUXTEPEC", "addr:country": "MX", "name": "TUXTEPEC", "phone": "8752856", "brand": "Banco del Bienestar", "brand:wikidata": "Q5719137"}, "geometry": {"type": "Point", "coordinates": [-96.12005, 18.081717]}},
{"type": "Feature", "id": "n-6RsajG2chOd4m_ohpUJhb_5fk=", "properties": {"ref": "14061", "amenity": "bank", "@spider": "banco_del_bienestar_mx", "addr:full": "Calle Morelos 605", "addr:city": "MATEHUALA", "addr:country": "MX", "name": "MATEHUALA", "phone": "88 17481;8817555;8816301", "brand": "Banco del Bienestar", "brand:wikidata": "Q5719137"}, "geometry": {"type": "Point", "coordinates": [-100.641275998843, 23.644328217828104]}},
{"type": "Feature", "id": "-UymYwy3konc3ho9IM3WmMHkTLc=", "properties": {"ref": "14062", "amenity": "bank", "@spider": "banco_del_bienestar_mx", "addr:full": "Doctor Mier y Camargo s/n", "addr:city": "NUEVO LAREDO", "addr:country": "MX", "name": "SPM. NUEVO LAREDO", "phone": "7124565", "brand": "Banco del Bienestar", "brand:wikidata": "Q5719137"}, "geometry": {"type": "Point", "coordinates": [-99.50519, 27.493793]}},
{"type": "Feature", "id": "TObz3QoEEr17QfdQVOm60Zg-nS8=", "properties": {"ref": "14063", "amenity": "bank", "@spider": "banco_del_bienestar_mx", "addr:full": "Av. Francisco I. Madero No.516 Mz. 28 Lt. 172 Zona Urbana Ejidal", "addr:city": "RIO BRAVO", "addr:country": "MX", "name": "RIO BRAVO", "phone": "9346899;9345379;9330999", "brand": "Banco del Bienestar", "brand:wikidata": "Q5719137"}, "geometry": {"type": "Point", "coordinates": [-98.09858, 25.987435]}},
{"type": "Feature", "id": "0BBuNwTDIFPoyPpE2dOyRtgT0eU=", "properties": {"ref": "14064", "amenity": "bank", "@spider": "banco_del_bienestar_mx", "addr:full": "Calle Hidalgo # 102 Sur, Local 2, entre Benito Ju\u00e1rez y Vicente Guerrero", "addr:city": "MANTE, EL", "addr:country": "MX", "name": "CIUDAD MANTE", "phone": "2329151;2326552;2344925", "brand": "Banco del Bienestar", "brand:wikidata": "Q5719137"}, "geometry": {"type": "Point", "coordinates": [-98.97163, 22.743726]}},
{"type": "Feature", "id": "KrmHaI6po-efd81bobpAwlAU_2E=", "properties": {"ref": "14065", "amenity": "bank", "@spider": "banco_del_bienestar_mx", "addr:full": "Fco. I. Madero No. 309 Oriente", "addr:city": "TAMPICO", "addr:country": "MX", "name": "SPM. TAMPICO", "phone": "2193143;2145987", "brand": "Banco del Bienestar", "brand:wikidata": "Q5719137"}, "geometry": {"type": "Point", "coordinates": [-97.85672, 22.213853]}},
{"type": "Feature", "id": "hL3tzRoejn7uj8wQmg-3OJkluH4=", "properties": {"ref": "14066", "amenity": "bank", "@spider": "banco_del_bienestar_mx", "addr:full": "Av. Alvaro Obregon No. 206 Local 'B' entre Ju\u00e0rez y Heroes Chetumal, Q. ROO.", "addr:city": "CHETUMAL", "addr:country": "MX", "name": "CHETUMAL", "phone": "8320186;8334016", "brand": "Banco del Bienestar", "brand:wikidata": "Q5719137"}, "geometry": {"type": "Point", "coordinates": [-88.29747, 18.496853]}},
{"type": "Feature", "id": "x3-NsUNH4OEIz83wVLPxeHKXJI4=", "properties": {"ref": "14067", "amenity": "bank", "@spider": "banco_del_bienestar_mx", "addr:full": "Av. Sunyaxchen Super Manzana 25, manzana 4m lote 53", "addr:city": "BENITO JUAREZ", "addr:country": "MX", "name": "CANCUN URBANA 1", "phone": "8922998;8984920", "brand": "Banco del Bienestar", "brand:wikidata": "Q5719137"}, "geometry": {"type": "Point", "coordinates": [-86.83147, 21.162169]}},
{"type": "Feature", "id": "7Qc0qZEbOS1bIAIYzywmdNECLxk=", "properties": {"ref": "14068", "amenity": "bank", "@spider": "banco_del_bienestar_mx", "addr:full": "Calle Guadalupe Victoria # 3 Local 8, entre Plaza Ju\u00e1rez e Ignacio Allende", "addr:city": "TEOTIHUACAN", "addr:country": "MX", "name": "SAN JUAN TEOTIHUACAN", "phone": "9561689", "brand": "Banco del Bienestar", "brand:wikidata": "Q5719137"}, "geometry": {"type": "Point", "coordinates": [-98.8697, 19.685737]}},
{"type": "Feature", "id": "iNzjrxxFJFBJpsD5DSsZawLnSqo=", "properties": {"ref": "14069", "amenity": "bank", "@spider": "banco_del_bienestar_mx", "addr:full": "Calle Pedro Antonio Buzeta No. 579 Col. Santa Teresita C.P 44600 Guadalajara, Jalisco", "addr:city": "GUADALAJARA", "addr:country": "MX", "name": "SANTA TERESITA", "phone": "8250383;8250349", "brand": "Banco del Bienestar", "brand:wikidata": "Q5719137"}, "geometry": {"type": "Point", "coordinates": [-103.366163, 20.683085]}},
{"type": "Feature", "id": "pjN05dMdYg9iEkc3h0IISuTdDwA=", "properties": {"ref": "14070", "amenity": "bank", "@spider": "banco_del_bienestar_mx", "addr:full": "Ignacio Allende 17", "addr:city": "ACAMBARO", "addr:country": "MX", "name": "ACAMBARO", "phone": "1724834;1729484;1729374", "brand": "Banco del Bienestar", "brand:wikidata": "Q5719137"}, "geometry": {"type": "Point", "coordinates": [-100.718725, 20.032027]}},
{"type": "Feature", "id": "Taog60I4MA2VqLRzbOoN46LF0go=", "properties": {"ref": "14071", "amenity": "bank", "@spider": "banco_del_bienestar_mx", "addr:full": "Francisco Villa No. 206 letra D. Entre Morelos y Aldama", "addr:city": "SALAMANCA", "addr:country": "MX", "name": "SALAMANCA", "phone": "6472910", "brand": "Banco del Bienestar", "brand:wikidata": "Q5719137"}, "geometry": {"type": "Point", "coordinates": [-101.20132, 20.57192]}},
{"type": "Feature", "id": "p4Pz8ZvEhl3U0yAifxAZ8XVy5Ac=", "properties": {"ref": "14072", "amenity": "bank", "@spider": "banco_del_bienestar_mx", "addr:full": "Av. Revoluci\u00f3n No. 901 Esq. Rafael Vega S\u00e1nchez", "addr:city": "PACHUCA DE SOTO", "addr:country": "MX", "name": "PACHUCA REVOLUCI\u00d3N", "phone": "7188079", "brand": "Banco del Bienestar", "brand:wikidata": "Q5719137"}, "geometry": {"type": "Point", "coordinates": [-98.73943, 20.118367]}},
{"type": "Feature", "id": "LA_MtJ2Extkip2i6rs76k0TWuG0=", "properties": {"ref": "14073", "amenity": "bank", "@spider": "banco_del_bienestar_mx", "addr:full": "9\u00aa Av. Sur Poniente # 458, entre 3\u00aa y 4\u00aa Poniente", "addr:city": "TUXTLA GUTIERREZ", "addr:country": "MX", "name": "TUXTLA GUTIERREZ 'CENTRAL SUR'", "phone": "1614711", "brand": "Banco del Bienestar", "brand:wikidata": "Q5719137"}, "geometry": {"type": "Point", "coordinates": [-93.12036, 16.746603]}},
{"type": "Feature", "id": "3LFkVg7P5yu2KdSqdPFil7W9CFU=", "properties": {"ref": "14074", "amenity": "bank", "@spider": "banco_del_bienestar_mx", "addr:full": "Calle 1\u00ba de Mayo N\u00ba 609 Lt. 5 Mz. A-6 Sector IV Secci\u00f3n I Regi\u00f3n II", "addr:city": "CIUDAD MADERO", "addr:country": "MX", "name": "CIUDAD MADERO", "phone": "2156923", "brand": "Banco del Bienestar", "brand:wikidata": "Q5719137"}, "geometry": {"type": "Point", "coordinates": [-97.840917, 22.24981]}},
{"type": "Feature", "id": "exHNKoyBUhY5AbWa69qK9nlUOYw=", "properties": {"ref": "14075", "amenity": "bank", "@spider": "banco_del_bienestar_mx", "addr:full": "Calle Valerio Trujano # 704-A, entre Victoria y Perif\u00e9rico", "addr:city": "OAXACA DE JUAREZ", "addr:country": "MX", "name": "OAXACA PERIFERICO", "phone": "5144601;5011222", "brand": "Banco del Bienestar", "brand:wikidata": "Q5719137"}, "geometry": {"type": "Point", "coordinates": [-96.7333, 17.060432]}},
{"type": "Feature", "id": "hZw316whjIxdQrWZb8UuAPlfTxA=", "properties": {"ref": "14076", "amenity": "bank", "@spider": "banco_del_bienestar_mx", "addr:full": "Calle Arista N\u00fam. 900-A entre An\u00e1huac y Benigno Arriaga", "addr:city": "SAN LUIS POTOSI", "addr:country": "MX", "name": "SAN LUIS POTOS\u00cd LAS AGUILAS", "phone": "8338646;8141307", "brand": "Banco del Bienestar", "brand:wikidata": "Q5719137"}, "geometry": {"type": "Point", "coordinates": [-100.979548, 22.153596]}},
{"type": "Feature", "id": "XrRnUfht160Zt7nSs6CmbNXZrfM=", "properties": {"ref": "14077", "amenity": "bank", "@spider": "banco_del_bienestar_mx", "addr:full": "Plaza Montecarlo La Ceiba # 410 entre las calles de Quintin Arauz y 16 de septiembre", "addr:city": "CENTRO", "addr:country": "MX", "name": "VILLAHERMOSA URBANA", "phone": "3158870;3153288", "brand": "Banco del Bienestar", "brand:wikidata": "Q5719137"}, "geometry": {"type": "Point", "coordinates": [-92.9380360962951, 17.973853223293087]}},
{"type": "Feature", "id": "bK_c2RIT6pg7LM1A6mPPO0Fyquk=", "properties": {"ref": "14078", "amenity": "bank", "@spider": "banco_del_bienestar_mx", "addr:full": "Av. Benito Ju\u00e1rez # 87, entre Hern\u00e1ndez Hern\u00e1ndez y Revoluci\u00f3n", "addr:city": "TUXPAN", "addr:country": "MX", "name": "TUXPAN", "phone": "8348453;8351932", "brand": "Banco del Bienestar", "brand:wikidata": "Q5719137"}, "geometry": {"type": "Point", "coordinates": [-97.41103, 20.953572]}},
{"type": "Feature", "id": "yNK0L60mDhiv5KquhHqDlFZxodo=", "properties": {"ref": "14079", "amenity": "bank", "@spider": "banco_del_bienestar_mx", "addr:full": "Calle Benito Ju\u00e1rez # 400 Local 1, entre Emiliano Zapata y 20 de Noviembre", "addr:city": "LINARES", "addr:country": "MX", "name": "LINARES", "phone": "2145749", "brand": "Banco del Bienestar", "brand:wikidata": "Q5719137"}, "geometry": {"type": "Point", "coordinates": [-99.5707371780791, 24.860700754675655]}},
{"type": "Feature", "id": "xmcbR5br8qCBi2cVNTPLHt5Jirk=", "properties": {"ref": "14080", "amenity": "bank", "@spider": "banco_del_bienestar_mx", "addr:full": "Plaza de la Constituci\u00f3n No.1", "addr:city": "TEMASCALAPA", "addr:country": "MX", "name": "TEMASCALAPA", "phone": "9330055", "brand": "Banco del Bienestar", "brand:wikidata": "Q5719137"}, "geometry": {"type": "Point", "coordinates": [-98.9012849498763, 19.826778281712997]}},
{"type": "Feature", "id": "q4SNwcaA_uKHsKJiyAjzODd4Hys=", "properties": {"ref": "14081", "amenity": "bank", "@spider": "banco_del_bienestar_mx", "addr:full": "Plaza Ju\u00e1rez s/n", "addr:city": "HUEYPOXTLA", "addr:country": "MX", "name": "HUEYPOXTLA", "phone": "6119124", "brand": "Banco del Bienestar", "brand:wikidata": "Q5719137"}, "geometry": {"type": "Point", "coordinates": [-99.0759615423278, 19.91098645016066]}},
{"type": "Feature", "id": "htP3DvvLU1526KZAEunWE2xFKcU=", "properties": {"ref": "14082", "amenity": "bank", "@spider": "banco_del_bienestar_mx", "addr:full": "Calle Progreso S/N entre Insurgentes y Carretera Tianguistengo", "addr:city": "OCUILAN", "addr:country": "MX", "name": "OCUILAN", "phone": "1464274", "brand": "Banco del Bienestar", "brand:wikidata": "Q5719137"}, "geometry": {"type": "Point", "coordinates": [-99.4169474100647, 18.979191582331673]}},
{"type": "Feature", "id": "BMwcSBQWOC9VIiFMf2UzK6CQW8c=", "properties": {"ref": "14083", "amenity": "bank", "@spider": "banco_del_bienestar_mx", "addr:full": "Jardin Pedro Ascencio No.2 entre Jose Ma. Coss y Pozo Hondo", "addr:city": "SULTEPEC", "addr:country": "MX", "name": "SULTEPEC", "phone": "1480199", "brand": "Banco del Bienestar", "brand:wikidata": "Q5719137"}, "geometry": {"type": "Point", "coordinates": [-100.150465980483, 18.48749608639925]}},
{"type": "Feature", "id": "B90NH8Lf008knjEQ8jatCTdExLk=", "properties": {"ref": "14084", "amenity": "bank", "@spider": "banco_del_bienestar_mx", "addr:full": "Av. Constituci\u00f3n No.6 entre calle Naranjos y Av. Jalisco", "addr:city": "COYOTEPEC", "addr:country": "MX", "name": "COYOTEPEC", "phone": "9150775;9152665", "brand": "Banco del Bienestar", "brand:wikidata": "Q5719137"}, "geometry": {"type": "Point", "coordinates": [-99.20986, 19.775768]}},
{"type": "Feature", "id": "poHjMEmZ0ROnCXr3enygy3ITgE0=", "properties": {"ref": "14085", "amenity": "bank", "@spider": "banco_del_bienestar_mx", "addr:full": "Nicolas Bravo No. 12", "addr:city": "DONATO GUERRA", "addr:country": "MX", "name": "DONATO GUERRA", "phone": "2515489;2511009", "brand": "Banco del Bienestar", "brand:wikidata": "Q5719137"}, "geometry": {"type": "Point", "coordinates": [-100.144091910851, 19.308825485016502]}},
{"type": "Feature", "id": "sh4WaN3T0r33c1OmE1WkHUgHFjA=", "properties": {"ref": "14086", "amenity": "bank", "@spider": "banco_del_bienestar_mx", "addr:full": "Av. Hidalgo No. 23", "addr:city": "AMATEPEC", "addr:country": "MX", "name": "AMATEPEC", "phone": "1610199;1611612", "brand": "Banco del Bienestar", "brand:wikidata": "Q5719137"}, "geometry": {"type": "Point", "coordinates": [-100.181748057975, 18.681446061966277]}},
{"type": "Feature", "id": "ezwURRPY53EUR47D6Ti2zsmsFA4=", "properties": {"ref": "14087", "amenity": "bank", "@spider": "banco_del_bienestar_mx", "addr:full": "Plaza de la Constituci\u00f3n No.4", "addr:city": "XALOSTOC", "addr:country": "MX", "name": "XALOSTOC", "phone": "4130814;4131446", "brand": "Banco del Bienestar", "brand:wikidata": "Q5719137"}, "geometry": {"type": "Point", "coordinates": [-98.04847, 19.404195]}},
{"type": "Feature", "id": "J-_yvv3qzmpinpW7kMmPhJNF-u4=", "properties": {"ref": "14088", "amenity": "bank", "@spider": "banco_del_bienestar_mx", "addr:full": "Corregidora s/n Local 2", "addr:city": "MIACATLAN", "addr:country": "MX", "name": "MIACATLAN", "phone": "3734727;3730829", "brand": "Banco del Bienestar", "brand:wikidata": "Q5719137"}, "geometry": {"type": "Point", "coordinates": [-99.35818, 18.769021]}},
{"type": "Feature", "id": "y7OHWgAjh9QuI9Ki6H516Vj157o=", "properties": {"ref": "14089", "amenity": "bank", "@spider": "banco_del_bienestar_mx", "addr:full": "Plaza Col\u00f3n n\u00fam. 11", "addr:city": "XOCHITEPEC", "addr:country": "MX", "name": "XOCHITEPEC", "phone": "3612908;3612376", "brand": "Banco del Bienestar", "brand:wikidata": "Q5719137"}, "geometry": {"type": "Point", "coordinates": [-99.2308, 18.781763]}},
{"type": "Feature", "id": "-AE5czPrno1mcB5kkdhZvh7saws=", "properties": {"ref": "14090", "amenity": "bank", "@spider": "banco_del_bienestar_mx", "addr:full": "Jose Mar\u00eda Morelos Y Pavon # 42", "addr:city": "AMACUZAC", "addr:country": "MX", "name": "AMACUZAC", "phone": "3480088;3480434", "brand": "Banco del Bienestar", "brand:wikidata": "Q5719137"}, "geometry": {"type": "Point", "coordinates": [-99.3693097790679, 18.600070139374104]}},
{"type": "Feature", "id": "3jjXCmjnBSg3QvS9uwELQGPg2qc=", "properties": {"ref": "14091", "amenity": "bank", "@spider": "banco_del_bienestar_mx", "addr:full": "Plaza Principal S/N. entre Morelos e Hidalgo", "addr:city": "ZEMPOALA", "addr:country": "MX", "name": "ZEMPOALA", "phone": "7415095;7415418", "brand": "Banco del Bienestar", "brand:wikidata": "Q5719137"}, "geometry": {"type": "Point", "coordinates": [-98.6688340286972, 19.915220462972517]}},
{"type": "Feature", "id": "nmDJLZlJ9bbJOCskrFNpbPbT-jM=", "properties": {"ref": "14092", "amenity": "bank", "@spider": "banco_del_bienestar_mx", "addr:full": "Independencia S/N, Esquina Camino Real", "addr:city": "ARENAL, EL", "addr:country": "MX", "name": "EL ARENAL", "phone": "7243234;7273140", "brand": "Banco del Bienestar", "brand:wikidata": "Q5719137"}, "geometry": {"type": "Point", "coordinates": [-98.9106931836883, 20.223312302184418]}},
{"type": "Feature", "id": "Q-oVaA1T-Owfve_cd-zJhTrtkjM=", "properties": {"ref": "14093", "amenity": "bank", "@spider": "banco_del_bienestar_mx", "addr:full": "Melchor Ocampo No. 3", "addr:city": "ATITALAQUIA", "addr:country": "MX", "name": "ATITALAQUIA", "phone": "7374449;7377465", "brand": "Banco del Bienestar", "brand:wikidata": "Q5719137"}, "geometry": {"type": "Point", "coordinates": [-99.22189, 20.058601]}},
{"type": "Feature", "id": "xOxHXlLTNBbj00ytPUuao69euHE=", "properties": {"ref": "14094", "amenity": "bank", "@spider": "banco_del_bienestar_mx", "addr:full": "Av. Pascual Luna S/N, Local A, entre Independencia y 16 de Septiembre", "addr:city": "TEZOYUCA", "addr:country": "MX", "name": "TEZOYUCA", "phone": "9565979;9565662;9564111", "brand": "Banco del Bienestar", "brand:wikidata": "Q5719137"}, "geometry": {"type": "Point", "coordinates": [-98.90805, 19.591102]}},
{"type": "Feature", "id": "YVvyT2Rgjr875yam5fMeA5bDlCQ=", "properties": {"ref": "14095", "amenity": "bank", "@spider": "banco_del_bienestar_mx", "addr:full": "Av. Hidalgo No. 4", "addr:city": "CHILCUAUTLA", "addr:country": "MX", "name": "CHILCUAUTLA", "phone": "7830097", "brand": "Banco del Bienestar", "brand:wikidata": "Q5719137"}, "geometry": {"type": "Point", "coordinates": [-99.2671581844025, 20.2837120986015]}},
{"type": "Feature", "id": "-BVdvqS6fr730yppYuKjHE4K7DY=", "properties": {"ref": "14096", "amenity": "bank", "@spider": "banco_del_bienestar_mx", "addr:full": "Calle H\u00e9roe de Nacozari # 218, entre Cua\u00fatemoc y Miguel Hidalgo", "addr:city": "APIZACO", "addr:country": "MX", "name": "APIZACO", "phone": "4183799;4172036", "brand": "Banco del Bienestar", "brand:wikidata": "Q5719137"}, "geometry": {"type": "Point", "coordinates": [-98.143385, 19.4083]}},
{"type": "Feature", "id": "uc6lb0kjBeFYF-8P1zzcxOu5Onc=", "properties": {"ref": "14097", "amenity": "bank", "@spider": "banco_del_bienestar_mx", "addr:full": "Ju\u00e1rez s/n L-3 esquina Arteaga", "addr:city": "ALFAJAYUCAN", "addr:country": "MX", "name": "ALFAJAYUCAN", "phone": "7288054;7288352", "brand": "Banco del Bienestar", "brand:wikidata": "Q5719137"}, "geometry": {"type": "Point", "coordinates": [-99.353325785736, 20.407847017116257]}},
{"type": "Feature", "id": "uA4qEkKXmZ2Wf9Mb_7V1ZeTo5QY=", "properties": {"ref": "14098", "amenity": "bank", "@spider": "banco_del_bienestar_mx", "addr:full": "Calle 5 de Mayo No. 110, entre Morelos e Independencia", "addr:city": "ATLAPEXCO", "addr:country": "MX", "name": "ATLAPEXCO", "phone": "8961058", "brand": "Banco del Bienestar", "brand:wikidata": "Q5719137"}, "geometry": {"type": "Point", "coordinates": [-98.350517, 21.0148367]}},
{"type": "Feature", "id": "ZhwRTZCBLq7L2__fSkls1E7u3Co=", "properties": {"ref": "14099", "amenity": "bank", "@spider": "banco_del_bienestar_mx", "addr:full": "Calle 5 de Febrero S/N, Esq. Vicente Villada", "addr:city": "ACOLMAN", "addr:country": "MX", "name": "ACOLMAN", "phone": "9571325;9573285", "brand": "Banco del Bienestar", "brand:wikidata": "Q5719137"}, "geometry": {"type": "Point", "coordinates": [-98.91169, 19.636185]}},
{"type": "Feature", "id": "RUiQGplRETXg1sWAwcSQES6eFxc=", "properties": {"ref": "14100", "amenity": "bank", "@spider": "banco_del_bienestar_mx", "addr:full": "Calle Morelos No. 92, Entre Bravo y Calle Nueva Indaparapeo, Mich", "addr:city": "INDAPARAPEO", "addr:country": "MX", "name": "INDAPARAPEO", "phone": "3520600", "brand": "Banco del Bienestar", "brand:wikidata": "Q5719137"}, "geometry": {"type": "Point", "coordinates": [-100.96731188623, 19.789875660998185]}},
{"type": "Feature", "id": "2pdK2ZzVsCdpU2MD1y5uEwk6IZY=", "properties": {"ref": "14101", "amenity": "bank", "@spider": "banco_del_bienestar_mx", "addr:full": "Morelos No. 20 entre Juarez y Urreta Carrillo", "addr:city": "ERONGARICUARO", "addr:country": "MX", "name": "ERONGARICUARO", "phone": "3440284", "brand": "Banco del Bienestar", "brand:wikidata": "Q5719137"}, "geometry": {"type": "Point", "coordinates": [-101.721124163775, 19.587535357145796]}},
{"type": "Feature", "id": "dqZiq2hpp7yhrhU-uyZ39b8pCcE=", "properties": {"ref": "14102", "amenity": "bank", "@spider": "banco_del_bienestar_mx", "addr:full": "Am\u00e9ricas n\u00fam. 20 Local 4", "addr:city": "NUEVO PARANGARICUTIRO", "addr:country": "MX", "name": "PARANGARICUTIRO", "phone": "5940420", "brand": "Banco del Bienestar", "brand:wikidata": "Q5719137"}, "geometry": {"type": "Point", "coordinates": [-102.12984129689, 19.415703823031023]}},
{"type": "Feature", "id": "xQ_yNnEM_kxHH12s7HxBrSY-P10=", "properties": {"ref": "14103", "amenity": "bank", "@spider": "banco_del_bienestar_mx", "addr:full": "Calle 5 de mayo No. 1 esquina con calle Jalisco No. 2", "addr:city": "ATENGO", "addr:country": "MX", "name": "ATENGO", "phone": "7710313;7710345", "brand": "Banco del Bienestar", "brand:wikidata": "Q5719137"}, "geometry": {"type": "Point", "coordinates": [-103.114397592758, 20.714945760018473]}},
{"type": "Feature", "id": "fLvSfQ4ZqzjG9W04nQ3fTp1XUHM=", "properties": {"ref": "14104", "amenity": "bank", "@spider": "banco_del_bienestar_mx", "addr:full": "Hermosillo No. 16", "addr:city": "CA\u00d1ADAS DE OBREGON", "addr:country": "MX", "name": "CA\u00d1ADAS DE OBREGON", "phone": "4030320;4030479", "brand": "Banco del Bienestar", "brand:wikidata": "Q5719137"}, "geometry": {"type": "Point", "coordinates": [-102.687495423019, 21.148452209052458]}},
{"type": "Feature", "id": "sHWjyQgH1DLN1H-B-B9BmTbZkf4=", "properties": {"ref": "14105", "amenity": "bank", "@spider": "banco_del_bienestar_mx", "addr:full": "Independencia No. 23", "addr:city": "HOSTOTIPAQUILLO", "addr:country": "MX", "name": "SPM. HOSTOTIPAQUILLO", "phone": "7445002;7445240", "brand": "Banco del Bienestar", "brand:wikidata": "Q5719137"}, "geometry": {"type": "Point", "coordinates": [-104.0490439, 21.0585784]}},
{"type": "Feature", "id": "iJMU96s1cgr359K4HVJ2vd_hD04=", "properties": {"ref": "14106", "amenity": "bank", "@spider": "banco_del_bienestar_mx", "addr:full": "Plaza Principal # 8, Mz. 2 Sector Segundo Esq. Ju\u00e1rez", "addr:city": "PENJAMILLO", "addr:country": "MX", "name": "PENJAMILLO", "phone": "5240555;5240447", "brand": "Banco del Bienestar", "brand:wikidata": "Q5719137"}, "geometry": {"type": "Point", "coordinates": [-101.93436854418, 20.1034252785891]}},
{"type": "Feature", "id": "qOZTyWpX4ZDQrM-PxWZeFHzBCBw=", "properties": {"ref": "14107", "amenity": "bank", "@spider": "banco_del_bienestar_mx", "addr:full": "Calle Hidalgo #3, Independencia y Ram\u00f3n Corona", "addr:city": "TEUCHITLAN", "addr:country": "MX", "name": "TEUCHITLAN", "phone": "7330450;7330869", "brand": "Banco del Bienestar", "brand:wikidata": "Q5719137"}, "geometry": {"type": "Point", "coordinates": [-103.847336533065, 20.684710651333322]}},
{"type": "Feature", "id": "ZdICCUhQMR0gWJpcm1z-X6kti7c=", "properties": {"ref": "14108", "amenity": "bank", "@spider": "banco_del_bienestar_mx", "addr:full": "Calle Colon No. 18- B entre Morelos y Ju\u00e1rez Zapotlan del Rey, Jalisco", "addr:city": "ZAPOTLAN DEL REY", "addr:country": "MX", "name": "ZAPOTLAN DEL REY", "phone": "9211994;9215034", "brand": "Banco del Bienestar", "brand:wikidata": "Q5719137"}, "geometry": {"type": "Point", "coordinates": [-102.924893124282, 20.466070867207907]}},
{"type": "Feature", "id": "xO17QJs4VUY1Y8uvrO_6ddt5WQg=", "properties": {"ref": "14109", "amenity": "bank", "@spider": "banco_del_bienestar_mx", "addr:full": "Av. Jose Ma. Morelos Oriente #114 entre Luis de Velazco y Bartolome de las Casas", "addr:city": "SANTA ANA MAYA", "addr:country": "MX", "name": "SANTA ANA MAYA", "phone": "3843211;3842318", "brand": "Banco del Bienestar", "brand:wikidata": "Q5719137"}, "geometry": {"type": "Point", "coordinates": [-101.020704, 20.007367]}},
{"type": "Feature", "id": "tyc3RkmKooqmfoqBcK7c2zZA9RA=", "properties": {"ref": "14110", "amenity": "bank", "@spider": "banco_del_bienestar_mx", "addr:full": "Portal Ju\u00e1rez No. 1", "addr:city": "TANGAMANDAPIO", "addr:country": "MX", "name": "TANGAMANDAPIO", "phone": "5183579;5183856", "brand": "Banco del Bienestar", "brand:wikidata": "Q5719137"}, "geometry": {"type": "Point", "coordinates": [-102.43268711382, 19.954319077846158]}},
{"type": "Feature", "id": "uAcWaQ_Ax83cjzPiBoiewKvjJjY=", "properties": {"ref": "14111", "amenity": "bank", "@spider": "banco_del_bienestar_mx", "addr:full": "Calle Nacional No. 24", "addr:city": "ANGANGUEO", "addr:country": "MX", "name": "ANGANGUEO", "phone": "1560527", "brand": "Banco del Bienestar", "brand:wikidata": "Q5719137"}, "geometry": {"type": "Point", "coordinates": [-100.2835336, 19.6196444]}},
{"type": "Feature", "id": "W_Nul7IXIXmIJYikREACJMrj85s=", "properties": {"ref": "14112", "amenity": "bank", "@spider": "banco_del_bienestar_mx", "addr:full": "Plaza Zaragoza s/n entre Aquiles Serd\u00e1n y R\u00edo Jord\u00e1n", "addr:city": "ALVARO OBREGON", "addr:country": "MX", "name": "ALVARO OBREGON", "phone": "3523431", "brand": "Banco del Bienestar", "brand:wikidata": "Q5719137"}, "geometry": {"type": "Point", "coordinates": [-101.901110008541, 19.62854929102167]}},
{"type": "Feature", "id": "16OqsO21DYtLPUE6ovtXdjA2Nts=", "properties": {"ref": "14113", "amenity": "bank", "@spider": "banco_del_bienestar_mx", "addr:full": "Calle 20 de Noviembre No.52", "addr:city": "BUENAVISTA", "addr:country": "MX", "name": "BUENAVISTA TOMATLAN", "phone": "5720663;5720270", "brand": "Banco del Bienestar", "brand:wikidata": "Q5719137"}, "geometry": {"type": "Point", "coordinates": [-102.588461825656, 19.212140724492485]}},
{"type": "Feature", "id": "jmQCYIvgl1PmBLbRrDVFHUEUZcs=", "properties": {"ref": "14114", "amenity": "bank", "@spider": "banco_del_bienestar_mx", "addr:full": "Av. Revoluci\u00f3n Sur No. 19", "addr:city": "HUACANA, LA", "addr:country": "MX", "name": "LA HUACANA", "phone": "5470457;5470875", "brand": "Banco del Bienestar", "brand:wikidata": "Q5719137"}, "geometry": {"type": "Point", "coordinates": [-101.809385317968, 18.960745839216003]}},
{"type": "Feature", "id": "stHDYdn-WnelAAsiQcN4VOTOXss=", "properties": {"ref": "14115", "amenity": "bank", "@spider": "banco_del_bienestar_mx", "addr:full": "Av. Hidalgo 14. Entre Benito Juarez y Nicolas Romero, San Felipe Orizatlan, Hgo", "addr:city": "SAN FELIPE ORIZATLAN", "addr:country": "MX", "name": "SAN FELIPE ORIZATLAN", "phone": "3630085;3630059", "brand": "Banco del Bienestar", "brand:wikidata": "Q5719137"}, "geometry": {"type": "Point", "coordinates": [-98.6084682100647, 21.17166014635636]}},
{"type": "Feature", "id": "_iMF6fBEro9smyr9q60Tz2rdwPY=", "properties": {"ref": "14116", "amenity": "bank", "@spider": "banco_del_bienestar_mx", "addr:full": "Plaza Principal No. 1 Local 2 entre 23 de Marzo Y Joaquin Medina, Tlalchinol, Hgo.", "addr:city": "TLANCHINOL", "addr:country": "MX", "name": "TLANCHINOL", "phone": "9740254;9740255;9740009", "brand": "Banco del Bienestar", "brand:wikidata": "Q5719137"}, "geometry": {"type": "Point", "coordinates": [-98.659291, 20.9887812]}},
{"type": "Feature", "id": "loIfYwKd9u099XAEVssZRIKbJlY=", "properties": {"ref": "14117", "amenity": "bank", "@spider": "banco_del_bienestar_mx", "addr:full": "Zaragoza #15", "addr:city": "CHERAN", "addr:country": "MX", "name": "CHERAN", "phone": "5942623;5943114;5942261", "brand": "Banco del Bienestar", "brand:wikidata": "Q5719137"}, "geometry": {"type": "Point", "coordinates": [-101.955069313491, 19.68572819450201]}},
{"type": "Feature", "id": "ftvIE5cpegxV4530ACmRB6OJle8=", "properties": {"ref": "14118", "amenity": "bank", "@spider": "banco_del_bienestar_mx", "addr:full": "Avenida Isaac Pi\u00f1a P\u00e9rez No. 101 Col. Centro, C.P 43351 Metztitlan, Hidalgo\u00a0\u00a0\u00a0\u00a0\u00a0\u00a0", "addr:city": "METZTITLAN", "addr:country": "MX", "name": "METZTITLAN", "phone": "7431671", "brand": "Banco del Bienestar", "brand:wikidata": "Q5719137"}, "geometry": {"type": "Point", "coordinates": [-98.7655187145416, 20.59955811487022]}},
{"type": "Feature", "id": "VWN8khzE-X3vNmWzUJEHYG9BAXw=", "properties": {"ref": "14119", "amenity": "bank", "@spider": "banco_del_bienestar_mx", "addr:full": "Av. Hidalgo # 10 Entre San Luis de la Paz y Melchor Ocampo,", "addr:city": "DOCTOR MORA", "addr:country": "MX", "name": "DR. MORA", "phone": "1930374", "brand": "Banco del Bienestar", "brand:wikidata": "Q5719137"}, "geometry": {"type": "Point", "coordinates": [-100.320202218246, 21.142137079996633]}},