{"type":"FeatureCollection","features":[{"type": "Feature", "id": "jvLacY7MSXTqlEgCo22Hu-SKD-M=", "properties": {"ref": "0014K", "@spider": "cintas", "addr:full": "1671 S 4370 West", "addr:city": "Salt Lake City", "addr:state": "UT", "addr:postcode": "84104", "addr:country": "US", "name": "Cintas", "phone": "801-972-4697", "brand": "Cintas", "brand:wikidata": "Q1092571"}, "geometry": {"type": "Point", "coordinates": [-111.9951, 40.73384]}},
{"type": "Feature", "id": "bUj_w5meZxjYmLA2LFKnrIwRn68=", "properties": {"ref": "180", "@spider": "cintas", "addr:full": "1586 S 5350 W", "addr:city": "Salt Lake City", "addr:state": "UT", "addr:postcode": "84104", "addr:country": "US", "name": "Cintas", "phone": "801-972-4544", "brand": "Cintas", "brand:wikidata": "Q1092571"}, "geometry": {"type": "Point", "coordinates": [-112.019875, 40.7353821]}},
{"type": "Feature", "id": "oUJ4SgEhf0CFljjcjWDh0gK4XLw=", "properties": {"ref": "207", "@spider": "cintas", "addr:full": "340 Dunavant Dr", "addr:city": "Rockford", "addr:state": "TN", "addr:postcode": "37853", "addr:country": "US", "name": "Cintas", "phone": "865-546-3210", "brand": "Cintas", "brand:wikidata": "Q1092571"}, "geometry": {"type": "Point", "coordinates": [-83.93884, 35.8644867]}},
{"type": "Feature", "id": "O3LUcX3Tr7q7fkxDebbNZPJa9qc=", "properties": {"ref": "248", "@spider": "cintas", "addr:full": "10301 Cogdill Rd Suite 303", "addr:city": "Knoxville", "addr:state": "TN", "addr:postcode": "37932", "addr:country": "US", "name": "Cintas", "phone": "865-966-4701", "brand": "Cintas", "brand:wikidata": "Q1092571"}, "geometry": {"type": "Point", "coordinates": [-84.1295, 35.9116554]}},
{"type": "Feature", "id": "wqq-82I1czWaWm6JqZTMZgS7pno=", "properties": {"ref": "0039M", "@spider": "cintas", "addr:full": "3217 N 1st Ave", "addr:city": "Sioux Falls", "addr:state": "SD", "addr:postcode": "57104", "addr:country": "US", "name": "Cintas", "phone": "605-334-3052", "brand": "Cintas", "brand:wikidata": "Q1092571"}, "geometry": {"type": "Point", "coordinates": [-96.72504, 43.58065]}},
{"type": "Feature", "id": "x-NiuGb1EImPrMOAUxxRvIAX6Ps=", "properties": {"ref": "213", "@spider": "cintas", "addr:full": "121 Landers Rd", "addr:city": "Spartanburg", "addr:state": "SC", "addr:postcode": "29303", "addr:country": "US", "name": "Cintas", "phone": "864-699-6000", "brand": "Cintas", "brand:wikidata": "Q1092571"}, "geometry": {"type": "Point", "coordinates": [-81.92577, 34.9998474]}},
{"type": "Feature", "id": "kDHTBx75uKezrieSwUmw63-XWcg=", "properties": {"ref": "216", "@spider": "cintas", "addr:full": "191 Elcon Dr", "addr:city": "Greenville", "addr:state": "SC", "addr:postcode": "29605", "addr:country": "US", "name": "Cintas", "phone": "864-299-0567", "brand": "Cintas", "brand:wikidata": "Q1092571"}, "geometry": {"type": "Point", "coordinates": [-82.23266, 34.94648]}},
{"type": "Feature", "id": "m2zq9xvPXU-wS5pDbpA5JhnSrWo=", "properties": {"ref": "00F51", "@spider": "cintas", "addr:full": "1 Marcus Dr Suite 204", "addr:city": "Greenville", "addr:state": "SC", "addr:postcode": "29615", "addr:country": "US", "name": "Cintas", "phone": "864-661-1020", "brand": "Cintas", "brand:wikidata": "Q1092571"}, "geometry": {"type": "Point", "coordinates": [-82.31985, 34.84599]}},
{"type": "Feature", "id": "_EH08ouKWWVhPpi9T33gxdVK1D4=", "properties": {"ref": "756", "@spider": "cintas", "addr:full": "300 Highland Corporate Dr", "addr:city": "Cumberland", "addr:state": "RI", "addr:postcode": "2864", "addr:country": "US", "name": "Cintas", "phone": "401-235-6400", "brand": "Cintas", "brand:wikidata": "Q1092571"}, "geometry": {"type": "Point", "coordinates": [-71.47168, 41.9928474]}},
{"type": "Feature", "id": "7HsWzYXe9okNTnCRxtw7-EqWZ9E=", "properties": {"ref": "00F40", "@spider": "cintas", "addr:full": "710 Narragansett Park Drive", "addr:city": "Pawtucket", "addr:state": "RI", "addr:postcode": "2861", "addr:country": "US", "name": "Cintas", "phone": "401-723-7300", "brand": "Cintas", "brand:wikidata": "Q1092571"}, "geometry": {"type": "Point", "coordinates": [-71.34915, 41.8606377]}},
{"type": "Feature", "id": "Fj1EuS1uwKjvITvoSEl9y_snu28=", "properties": {"ref": "395", "@spider": "cintas", "addr:full": "1111 Smile Way", "addr:city": "York", "addr:state": "PA", "addr:postcode": "17404", "addr:country": "US", "name": "Cintas", "phone": "717-848-4787", "brand": "Cintas", "brand:wikidata": "Q1092571"}, "geometry": {"type": "Point", "coordinates": [-76.7557449, 39.988266]}},
{"type": "Feature", "id": "9EZz7ixngRBz13ZbaZllsCeZrZY=", "properties": {"ref": "0059H", "@spider": "cintas", "addr:full": "1170 Garfield Ave STE 4", "addr:city": "Lancaster", "addr:state": "PA", "addr:postcode": "17601", "addr:country": "US", "name": "Cintas", "phone": "717-207-7228", "brand": "Cintas", "brand:wikidata": "Q1092571"}, "geometry": {"type": "Point", "coordinates": [-76.3204, 40.0580368]}},
{"type": "Feature", "id": "fotVWPJTX0SusJlzea_VPbRFcVU=", "properties": {"ref": "178", "@spider": "cintas", "addr:full": "2406 Antelope Rd", "addr:city": "White City", "addr:state": "OR", "addr:postcode": "97503", "addr:country": "US", "name": "Cintas", "phone": "541-826-8899", "brand": "Cintas", "brand:wikidata": "Q1092571"}, "geometry": {"type": "Point", "coordinates": [-122.847389, 42.42662]}},
{"type": "Feature", "id": "QF5_iUYjjVD6B7INnLBme46QzDw=", "properties": {"ref": "63", "@spider": "cintas", "addr:full": "5940 S 129th East Ave", "addr:city": "Tulsa", "addr:state": "OK", "addr:postcode": "74134", "addr:country": "US", "name": "Cintas", "phone": "918-252-3693", "brand": "Cintas", "brand:wikidata": "Q1092571"}, "geometry": {"type": "Point", "coordinates": [-95.8339, 36.0778]}},
{"type": "Feature", "id": "CRj5TXTawPm5LpdNAAieB1yWLig=", "properties": {"ref": "418", "@spider": "cintas", "addr:full": "1108 N 105th E Ave", "addr:city": "Tulsa", "addr:state": "OK", "addr:postcode": "74116", "addr:country": "US", "name": "Cintas", "phone": "918-835-4255", "brand": "Cintas", "brand:wikidata": "Q1092571"}, "geometry": {"type": "Point", "coordinates": [-95.86276, 36.17174]}},
{"type": "Feature", "id": "xOU2qTMqwCPld6CMo2PGXTpTYow=", "properties": {"ref": "0034K", "@spider": "cintas", "addr:full": "1700 Main Ave W", "addr:city": "West Fargo", "addr:state": "ND", "addr:postcode": "58078", "addr:country": "US", "name": "Cintas", "phone": "701-277-5638", "brand": "Cintas", "brand:wikidata": "Q1092571"}, "geometry": {"type": "Point", "coordinates": [-96.92909, 46.87823]}},
{"type": "Feature", "id": "eI9PYzjeDoO9KPxSYriU3ZuZXw4=", "properties": {"ref": "0011F", "@spider": "cintas", "addr:full": "325 Corporate Blvd S", "addr:city": "Yonkers", "addr:state": "NY", "addr:postcode": "10701", "addr:country": "US", "name": "Cintas", "phone": "914-669-5062", "brand": "Cintas", "brand:wikidata": "Q1092571"}, "geometry": {"type": "Point", "coordinates": [-73.87875, 40.9677162]}},
{"type": "Feature", "id": "0C16V34IW99-t_qqdIIylZO-Ebs=", "properties": {"ref": "790", "@spider": "cintas", "addr:full": "12 Harbor Park Dr", "addr:city": "Port Washington", "addr:state": "NY", "addr:postcode": "11050", "addr:country": "US", "name": "Cintas", "phone": "516-403-4800", "brand": "Cintas", "brand:wikidata": "Q1092571"}, "geometry": {"type": "Point", "coordinates": [-73.6618958, 40.8069572]}},
{"type": "Feature", "id": "FLm-SjEPyxT2GKqw7RoFZWui-Dc=", "properties": {"ref": "793", "@spider": "cintas", "addr:full": "75A Bloomingdale Rd", "addr:city": "Hicksville", "addr:state": "NY", "addr:postcode": "11801", "addr:country": "US", "name": "Cintas", "phone": "855-405-3401", "brand": "Cintas", "brand:wikidata": "Q1092571"}, "geometry": {"type": "Point", "coordinates": [-73.50509, 40.7472954]}},
{"type": "Feature", "id": "y0_KAyGy6bG_nwMbV_qrv93d2hc=", "properties": {"ref": "0019K", "@spider": "cintas", "addr:full": "5101 Wilshire Ave NE", "addr:city": "Albuquerque", "addr:state": "NM", "addr:postcode": "87113", "addr:country": "US", "name": "Cintas", "phone": "505-856-2021", "brand": "Cintas", "brand:wikidata": "Q1092571"}, "geometry": {"type": "Point", "coordinates": [-106.588425, 35.18217]}},
{"type": "Feature", "id": "v942rBUwBrvjofdwo0QAcniTPMQ=", "properties": {"ref": "382", "@spider": "cintas", "addr:full": "5620 Modesto NE", "addr:city": "Albuquerque", "addr:state": "NM", "addr:postcode": "87113", "addr:country": "US", "name": "Cintas", "phone": "505-242-1515", "brand": "Cintas", "brand:wikidata": "Q1092571"}, "geometry": {"type": "Point", "coordinates": [-106.582565, 35.18843]}},
{"type": "Feature", "id": "GWs1983QOBTvtxkUpStA01GKlKU=", "properties": {"ref": "62", "@spider": "cintas", "addr:full": "51 New England Ave", "addr:city": "Piscataway", "addr:state": "NJ", "addr:postcode": "8844", "addr:country": "US", "name": "Cintas", "phone": "732-981-1500", "brand": "Cintas", "brand:wikidata": "Q1092571"}, "geometry": {"type": "Point", "coordinates": [-74.4706039, 40.5553665]}},
{"type": "Feature", "id": "V9_m0BmetfAx37cOGoqPc7Gy8Bw=", "properties": {"ref": "111", "@spider": "cintas", "addr:full": "546 Green Ln", "addr:city": "Union", "addr:state": "NJ", "addr:postcode": "7083", "addr:country": "US", "name": "Cintas", "phone": "908-737-0800", "brand": "Cintas", "brand:wikidata": "Q1092571"}, "geometry": {"type": "Point", "coordinates": [-74.24673, 40.67738]}},
{"type": "Feature", "id": "mAL0gIVhcdX4aHqwDXMcnLbrto0=", "properties": {"ref": "0015F", "@spider": "cintas", "addr:full": "410 Clermont Terrace Ste E", "addr:city": "Union", "addr:state": "NJ", "addr:postcode": "7083", "addr:country": "US", "name": "Cintas", "phone": "908-344-5585", "brand": "Cintas", "brand:wikidata": "Q1092571"}, "geometry": {"type": "Point", "coordinates": [-74.2524, 40.6738968]}},
{"type": "Feature", "id": "3rsITLhRAke18xxBoreoPDejKJw=", "properties": {"ref": "0068M", "@spider": "cintas", "addr:full": "324 Taylor Street", "addr:city": "Manchester", "addr:state": "NH", "addr:postcode": "3103", "addr:country": "US", "name": "Cintas", "phone": "603-625-9722", "brand": "Cintas", "brand:wikidata": "Q1092571"}, "geometry": {"type": "Point", "coordinates": [-71.44264, 42.98208]}},
{"type": "Feature", "id": "9qjRWeiV_6oYvc_vUTE1aEMaE0k=", "properties": {"ref": "00F95", "@spider": "cintas", "addr:full": "79 Dow St", "addr:city": "Bow", "addr:state": "NH", "addr:postcode": "3304", "addr:country": "US", "name": "Cintas", "phone": "603-717-7300", "brand": "Cintas", "brand:wikidata": "Q1092571"}, "geometry": {"type": "Point", "coordinates": [-71.50919, 43.1524658]}},
{"type": "Feature", "id": "YbO1a6wTfHRGyE_hAhCtODxLtVY=", "properties": {"ref": "0015K", "@spider": "cintas", "addr:full": "2111 Industrial St", "addr:city": "Wisconsin Rapids", "addr:state": "WI", "addr:postcode": "54495", "addr:country": "US", "name": "Cintas", "phone": "715-421-1137", "brand": "Cintas", "brand:wikidata": "Q1092571"}, "geometry": {"type": "Point", "coordinates": [-89.8504257, 44.4016266]}},
{"type": "Feature", "id": "0XeRXCfKuP8y_4aJA3WK8W7QzMg=", "properties": {"ref": "442", "@spider": "cintas", "addr:full": "5201 Heffron Ct Bldg A", "addr:city": "Stevens Point", "addr:state": "WI", "addr:postcode": "54481", "addr:country": "US", "name": "Cintas", "phone": "715-254-0280", "brand": "Cintas", "brand:wikidata": "Q1092571"}, "geometry": {"type": "Point", "coordinates": [-89.5211945, 44.5055847]}},
{"type": "Feature", "id": "ezGHU1KKwQOq_QMeJ2Z9DWqN2cA=", "properties": {"ref": "0020K", "@spider": "cintas", "addr:full": "5545 Commerce Rd", "addr:city": "Onalaska", "addr:state": "WI", "addr:postcode": "54650", "addr:country": "US", "name": "Cintas", "phone": "608-783-8899", "brand": "Cintas", "brand:wikidata": "Q1092571"}, "geometry": {"type": "Point", "coordinates": [-91.2440643, 43.92046]}},
{"type": "Feature", "id": "8evG_NfEG_aJFsUxk4Y97qXzLy8=", "properties": {"ref": "184", "@spider": "cintas", "addr:full": "6415 N 62nd St", "addr:city": "Milwaukee", "addr:state": "WI", "addr:postcode": "53223", "addr:country": "US", "name": "Cintas", "phone": "833-711-5952", "brand": "Cintas", "brand:wikidata": "Q1092571"}, "geometry": {"type": "Point", "coordinates": [-87.98964, 43.13486]}},
{"type": "Feature", "id": "3jm04ZZvgfQq7Pon4Cle9wDWPZM=", "properties": {"ref": "447", "@spider": "cintas", "addr:full": "9828 S Oakwood Park Dr", "addr:city": "Franklin", "addr:state": "WI", "addr:postcode": "53132", "addr:country": "US", "name": "Cintas", "phone": "833-711-5952", "brand": "Cintas", "brand:wikidata": "Q1092571"}, "geometry": {"type": "Point", "coordinates": [-87.97222, 42.8661423]}},
{"type": "Feature", "id": "-HLTy8sTooN2aKUj_ucLnT-BwEo=", "properties": {"ref": "455", "@spider": "cintas", "addr:full": "N56 W 13605 Silver Spring Dr", "addr:city": "Menomonee Falls", "addr:state": "WI", "addr:postcode": "53051", "addr:country": "US", "name": "Cintas", "phone": "262-252-3555", "brand": "Cintas", "brand:wikidata": "Q1092571"}, "geometry": {"type": "Point", "coordinates": [-88.08097, 43.1182365]}},
{"type": "Feature", "id": "m75rwF4izYkH0qqjusforwjuyy8=", "properties": {"ref": "0004K", "@spider": "cintas", "addr:full": "2108 Washington Avenue N", "addr:city": "Minneapolis", "addr:state": "MN", "addr:postcode": "55411", "addr:country": "US", "name": "Cintas", "phone": "612-521-4771", "brand": "Cintas", "brand:wikidata": "Q1092571"}, "geometry": {"type": "Point", "coordinates": [-93.28136, 45.000885]}},
{"type": "Feature", "id": "1O4rUs869X3tt3Z6GaxEaB4RFao=", "properties": {"ref": "0021M", "@spider": "cintas", "addr:full": "685 Olive St", "addr:city": "Saint Paul", "addr:state": "MN", "addr:postcode": "55101", "addr:country": "US", "name": "Cintas", "phone": "651-855-7000", "brand": "Cintas", "brand:wikidata": "Q1092571"}, "geometry": {"type": "Point", "coordinates": [-93.0886, 44.9596672]}},
{"type": "Feature", "id": "w1azCzERVu3eM1S5OtF4_LQ9qEU=", "properties": {"ref": "431", "@spider": "cintas", "addr:full": "8701 Brooklyn Blvd", "addr:city": "Brooklyn Park", "addr:state": "MN", "addr:postcode": "55445", "addr:country": "US", "name": "Cintas", "phone": "763-425-7200", "brand": "Cintas", "brand:wikidata": "Q1092571"}, "geometry": {"type": "Point", "coordinates": [-93.3927155, 45.0943069]}},
{"type": "Feature", "id": "7dZz1uJLNMIEFViTW2lx3hpxwFI=", "properties": {"ref": "470", "@spider": "cintas", "addr:full": "11500 95th Ave", "addr:city": "Maple Grove", "addr:state": "MN", "addr:postcode": "55369", "addr:country": "US", "name": "Cintas", "phone": "763-425-6666", "brand": "Cintas", "brand:wikidata": "Q1092571"}, "geometry": {"type": "Point", "coordinates": [-93.42715, 45.1278572]}},
{"type": "Feature", "id": "nnEB2SaUVwHjgBAKnyfQ8IkRz5I=", "properties": {"ref": "754", "@spider": "cintas", "addr:full": "3375 Mike Collins Dr", "addr:city": "Eagan", "addr:state": "MN", "addr:postcode": "55121", "addr:country": "US", "name": "Cintas", "phone": "833-711-5960", "brand": "Cintas", "brand:wikidata": "Q1092571"}, "geometry": {"type": "Point", "coordinates": [-93.13116, 44.8348579]}},
{"type": "Feature", "id": "LLpSqvg_j1FBFw8fMDtEiVlrohU=", "properties": {"ref": "446", "@spider": "cintas", "addr:full": "2222 Vondron Rd", "addr:city": "Madison", "addr:state": "WI", "addr:postcode": "53718", "addr:country": "US", "name": "Cintas", "phone": "608-222-0612", "brand": "Cintas", "brand:wikidata": "Q1092571"}, "geometry": {"type": "Point", "coordinates": [-89.29222, 43.0658035]}},
{"type": "Feature", "id": "DNGbnV3ExADa8C-JuDMDX3d4T_g=", "properties": {"ref": "00F39", "@spider": "cintas", "addr:full": "804 Walsh Rd", "addr:city": "Madison", "addr:state": "WI", "addr:postcode": "53715", "addr:country": "US", "name": "Cintas", "phone": "262-781-0202", "brand": "Cintas", "brand:wikidata": "Q1092571"}, "geometry": {"type": "Point", "coordinates": [-89.31034, 43.1081276]}},
{"type": "Feature", "id": "nd0qI058UabBHW-u9WKiAhm418U=", "properties": {"ref": "443", "@spider": "cintas", "addr:full": "N1352 County Road CB", "addr:city": "Greenville", "addr:state": "WI", "addr:postcode": "54942", "addr:country": "US", "name": "Cintas", "phone": "920-757-1537", "brand": "Cintas", "brand:wikidata": "Q1092571"}, "geometry": {"type": "Point", "coordinates": [-88.5053, 44.2898064]}},
{"type": "Feature", "id": "QfdXuYGx2HE6Qj5PURXThRubZXc=", "properties": {"ref": "0080P", "@spider": "cintas", "addr:full": "3001 E Enterprise AVE", "addr:city": "Appleton", "addr:state": "WI", "addr:postcode": "54913", "addr:country": "US", "name": "Cintas", "phone": "920-739-7764", "brand": "Cintas", "brand:wikidata": "Q1092571"}, "geometry": {"type": "Point", "coordinates": [-88.3627243, 44.2990265]}},
{"type": "Feature", "id": "c2PSYHSjAEw8PlStVqWwnF46ySQ=", "properties": {"ref": "0011K", "@spider": "cintas", "addr:full": "800 Isbell St", "addr:city": "Green Bay", "addr:state": "WI", "addr:postcode": "54303", "addr:country": "US", "name": "Cintas", "phone": "920-497-2509", "brand": "Cintas", "brand:wikidata": "Q1092571"}, "geometry": {"type": "Point", "coordinates": [-88.09542, 44.5271568]}},
{"type": "Feature", "id": "FYTJu4DHNxwrITu_Sj8sbPAU67Y=", "properties": {"ref": "0016K", "@spider": "cintas", "addr:full": "3005 Mondovi Rd", "addr:city": "Eau Claire", "addr:state": "WI", "addr:postcode": "54701", "addr:country": "US", "name": "Cintas", "phone": "715-832-3573", "brand": "Cintas", "brand:wikidata": "Q1092571"}, "geometry": {"type": "Point", "coordinates": [-91.52641, 44.78735]}},
{"type": "Feature", "id": "AP4_bPFvPxgyk5jBXnEPdLvtdUI=", "properties": {"ref": "00F38", "@spider": "cintas", "addr:full": "3405 Truax Ct", "addr:city": "Eau Claire", "addr:state": "WI", "addr:postcode": "54703", "addr:country": "US", "name": "Cintas", "phone": "262-781-0202", "brand": "Cintas", "brand:wikidata": "Q1092571"}, "geometry": {"type": "Point", "coordinates": [-91.5400543, 44.834877]}},
{"type": "Feature", "id": "j4ZrvTfP3pfuCLhznBybjqP_ArQ=", "properties": {"ref": "16", "@spider": "cintas", "addr:full": "200 Apollo Dr", "addr:city": "Chelmsford", "addr:state": "MA", "addr:postcode": "1824", "addr:country": "US", "name": "Cintas", "phone": "978-250-1300", "brand": "Cintas", "brand:wikidata": "Q1092571"}, "geometry": {"type": "Point", "coordinates": [-71.3277, 42.5982628]}},
{"type": "Feature", "id": "VbJv_DPYF0oSAAtpRG84aW5wKPM=", "properties": {"ref": "779", "@spider": "cintas", "addr:full": "10G Gill St", "addr:city": "Woburn", "addr:state": "MA", "addr:postcode": "1801", "addr:country": "US", "name": "Cintas", "phone": "781-497-1900", "brand": "Cintas", "brand:wikidata": "Q1092571"}, "geometry": {"type": "Point", "coordinates": [-71.14875, 42.5081825]}},
{"type": "Feature", "id": "dB8U2yau1v8Gx2vYv1MPxel6_58=", "properties": {"ref": "61", "@spider": "cintas", "addr:full": "10080 Sandmeyer Ln", "addr:city": "Philadelphia", "addr:state": "PA", "addr:postcode": "19116", "addr:country": "US", "name": "Cintas", "phone": "215-673-7230", "brand": "Cintas", "brand:wikidata": "Q1092571"}, "geometry": {"type": "Point", "coordinates": [-75.03346, 40.1119156]}},
{"type": "Feature", "id": "8wQoPCG1Vtv7HZpZYYafPAKbRUs=", "properties": {"ref": "100", "@spider": "cintas", "addr:full": "95 Milton Ave", "addr:city": "Aston", "addr:state": "PA", "addr:postcode": "19014", "addr:country": "US", "name": "Cintas", "phone": "610-364-0887", "brand": "Cintas", "brand:wikidata": "Q1092571"}, "geometry": {"type": "Point", "coordinates": [-75.41098, 39.856163]}},
{"type": "Feature", "id": "vsVNyzVocfqOlk-rVgonyuM_0Rw=", "properties": {"ref": "105", "@spider": "cintas", "addr:full": "1038 Conshohocken Rd", "addr:city": "Conshohocken", "addr:state": "PA", "addr:postcode": "19428", "addr:country": "US", "name": "Cintas", "phone": "610-233-1400", "brand": "Cintas", "brand:wikidata": "Q1092571"}, "geometry": {"type": "Point", "coordinates": [-75.3179855, 40.0937233]}},
{"type": "Feature", "id": "DKf96h7_0hkI6-BtfnegswXJa4c=", "properties": {"ref": "287", "@spider": "cintas", "addr:full": "4700 West Jefferson", "addr:city": "Philadelphia", "addr:state": "PA", "addr:postcode": "19131", "addr:country": "US", "name": "Cintas", "phone": "267-233-5612", "brand": "Cintas", "brand:wikidata": "Q1092571"}, "geometry": {"type": "Point", "coordinates": [-75.21518, 39.9753]}},
{"type": "Feature", "id": "y21Jy4rKlg_k__QdvqtaTAWfwpo=", "properties": {"ref": "0081N", "@spider": "cintas", "addr:full": "190 E 9th Ave Unit A", "addr:city": "Runnemede", "addr:state": "NJ", "addr:postcode": "8078", "addr:country": "US", "name": "Cintas", "phone": "856-861-4920", "brand": "Cintas", "brand:wikidata": "Q1092571"}, "geometry": {"type": "Point", "coordinates": [-75.06668, 39.857708]}},
{"type": "Feature", "id": "JJUN5dgqqc7EF4TEyWzUfoHyGKE=", "properties": {"ref": "00B61", "@spider": "cintas", "addr:full": "1705 US-46", "addr:city": "Ledgewood", "addr:state": "NJ", "addr:postcode": "7852", "addr:country": "US", "name": "Cintas", "phone": "973-347-3901", "brand": "Cintas", "brand:wikidata": "Q1092571"}, "geometry": {"type": "Point", "coordinates": [-74.67124, 40.89161]}},
{"type": "Feature", "id": "fxtamkGNkfiVeisT3iGPLXTtAn8=", "properties": {"ref": "0042F", "@spider": "cintas", "addr:full": "185 Oberline Ave North", "addr:city": "Lakewood", "addr:state": "NJ", "addr:postcode": "8701", "addr:country": "US", "name": "Cintas", "phone": "732-276-4848", "brand": "Cintas", "brand:wikidata": "Q1092571"}, "geometry": {"type": "Point", "coordinates": [-74.17675, 40.0748367]}},
{"type": "Feature", "id": "w1QwaumREH49wfSrbgR4wTuhQ7g=", "properties": {"ref": "411", "@spider": "cintas", "addr:full": "2005 Brighton Henrietta Townline Rd", "addr:city": "Rochester", "addr:state": "NY", "addr:postcode": "14623", "addr:country": "US", "name": "Cintas", "phone": "585-235-7650", "brand": "Cintas", "brand:wikidata": "Q1092571"}, "geometry": {"type": "Point", "coordinates": [-77.6256, 43.09343]}},
{"type": "Feature", "id": "W8TuAwyj54Z9EcdPX8ZXwwJqqEY=", "properties": {"ref": "00F49", "@spider": "cintas", "addr:full": "395 Summit Point Dr Suite 7", "addr:city": "Henrietta", "addr:state": "NY", "addr:postcode": "14467", "addr:country": "US", "name": "Cintas", "phone": "855-859-1363", "brand": "Cintas", "brand:wikidata": "Q1092571"}, "geometry": {"type": "Point", "coordinates": [-77.65048, 43.0555038]}},
{"type": "Feature", "id": "tCPAhr2IWOKZMcFhNuh70q3JQJg=", "properties": {"ref": "780", "@spider": "cintas", "addr:full": "500 South Research Dr", "addr:city": "Central Islip", "addr:state": "NY", "addr:postcode": "11722", "addr:country": "US", "name": "Cintas", "phone": "631-337-0070", "brand": "Cintas", "brand:wikidata": "Q1092571"}, "geometry": {"type": "Point", "coordinates": [-73.20336, 40.7696724]}},
{"type": "Feature", "id": "xbic2UfbVyctF1Ez0QD09chq85I=", "properties": {"ref": "616", "@spider": "cintas", "addr:full": "138 Bracken Rd", "addr:city": "Montgomery", "addr:state": "NY", "addr:postcode": "12549", "addr:country": "US", "name": "Cintas", "phone": "845-457-9655", "brand": "Cintas", "brand:wikidata": "Q1092571"}, "geometry": {"type": "Point", "coordinates": [-74.1903152, 41.5216637]}},
{"type": "Feature", "id": "zT4uCpTRWzcIaUT2obnijVwpn0k=", "properties": {"ref": "121", "@spider": "cintas", "addr:full": "7655 Henry Clay Blvd", "addr:city": "Liverpool", "addr:state": "NY", "addr:postcode": "13088", "addr:country": "US", "name": "Cintas", "phone": "315-432-1888", "brand": "Cintas", "brand:wikidata": "Q1092571"}, "geometry": {"type": "Point", "coordinates": [-76.18879, 43.1392136]}},
{"type": "Feature", "id": "VkLud-J9rFVEYD9USPrdc8ACuz8=", "properties": {"ref": "0035M", "@spider": "cintas", "addr:full": "292 Wolf Rd", "addr:city": "Albany", "addr:state": "NY", "addr:postcode": "12110", "addr:country": "US", "name": "Cintas", "phone": "315-432-1888", "brand": "Cintas", "brand:wikidata": "Q1092571"}, "geometry": {"type": "Point", "coordinates": [-73.79384, 42.73341]}},
{"type": "Feature", "id": "aXNVknLRQJq57gIuZocOIkEatZQ=", "properties": {"ref": "0067P", "@spider": "cintas", "addr:full": "11980 Walden Ave", "addr:city": "Alden", "addr:state": "NY", "addr:postcode": "14004", "addr:country": "US", "name": "Cintas", "phone": "716-684-6600", "brand": "Cintas", "brand:wikidata": "Q1092571"}, "geometry": {"type": "Point", "coordinates": [-78.54138, 42.9380074]}},
{"type": "Feature", "id": "rR40sGXzBpBtM9HahFeexJxHPY8=", "properties": {"ref": "782", "@spider": "cintas", "addr:full": "5740 Genesee St", "addr:city": "Lancaster", "addr:state": "NY", "addr:postcode": "14086", "addr:country": "US", "name": "Cintas", "phone": "716-685-6800", "brand": "Cintas", "brand:wikidata": "Q1092571"}, "geometry": {"type": "Point", "coordinates": [-78.64537, 42.9463768]}},
{"type": "Feature", "id": "QaUliJlU0Lify7eMcov56yurOqU=", "properties": {"ref": "0036M", "@spider": "cintas", "addr:full": "96 Murphy Rd", "addr:city": "Hartford", "addr:state": "CT", "addr:postcode": "6114", "addr:country": "US", "name": "Cintas", "phone": "860-856-4400", "brand": "Cintas", "brand:wikidata": "Q1092571"}, "geometry": {"type": "Point", "coordinates": [-72.6529846, 41.7413063]}},
{"type": "Feature", "id": "vSczwL6hs0ADW35giKoSbsPknrs=", "properties": {"ref": "600", "@spider": "cintas", "addr:full": "431 Hayden Station Rd Suite B", "addr:city": "Windsor", "addr:state": "CT", "addr:postcode": "6095", "addr:country": "US", "name": "Cintas", "phone": "860-787-5950", "brand": "Cintas", "brand:wikidata": "Q1092571"}, "geometry": {"type": "Point", "coordinates": [-72.64518, 41.8954964]}},
{"type": "Feature", "id": "y3CfayeKzIWsYzMoKgP6z4_CWcE=", "properties": {"ref": "00D56", "@spider": "cintas", "addr:full": "394 East St", "addr:city": "Plainville", "addr:state": "CT", "addr:postcode": "6062", "addr:country": "US", "name": "Cintas", "phone": "860-747-2757", "brand": "Cintas", "brand:wikidata": "Q1092571"}, "geometry": {"type": "Point", "coordinates": [-72.8679352, 41.6547623]}},
{"type": "Feature", "id": "hLHtcd93n6tBfbkkdn8r5q70F8w=", "properties": {"ref": "2", "@spider": "cintas", "addr:full": "850 Center Dr", "addr:city": "Vandalia", "addr:state": "OH", "addr:postcode": "45377", "addr:country": "US", "name": "Cintas", "phone": "937-890-8585", "brand": "Cintas", "brand:wikidata": "Q1092571"}, "geometry": {"type": "Point", "coordinates": [-84.18294, 39.8838921]}},
{"type": "Feature", "id": "6bKbEXeYlg2CRzoEnvTBwziEbLU=", "properties": {"ref": "00G45", "@spider": "cintas", "addr:full": "903 Brandt St", "addr:city": "Dayton", "addr:state": "OH", "addr:postcode": "45404", "addr:country": "US", "name": "Cintas", "phone": "937-235-3744", "brand": "Cintas", "brand:wikidata": "Q1092571"}, "geometry": {"type": "Point", "coordinates": [-84.158844, 39.789402]}},
{"type": "Feature", "id": "bAGsMFSoGGKhh9tkuOUyhZk9C0k=", "properties": {"ref": "11", "@spider": "cintas", "addr:full": "8221 Dow Cir", "addr:city": "Strongsville", "addr:state": "OH", "addr:postcode": "44136", "addr:country": "US", "name": "Cintas", "phone": "440-238-5565", "brand": "Cintas", "brand:wikidata": "Q1092571"}, "geometry": {"type": "Point", "coordinates": [-81.80212, 41.34765]}},
{"type": "Feature", "id": "hc0T0J3RzywzQOiZcCYBWGZBQpA=", "properties": {"ref": "12", "@spider": "cintas", "addr:full": "30250 Bruce Indstrl Pkwy", "addr:city": "Solon", "addr:state": "OH", "addr:postcode": "44139", "addr:country": "US", "name": "Cintas", "phone": "440-349-4200", "brand": "Cintas", "brand:wikidata": "Q1092571"}, "geometry": {"type": "Point", "coordinates": [-81.4672241, 41.3770447]}},
{"type": "Feature", "id": "MjVngeDr_QLoCtuN4zgE4PsFyW8=", "properties": {"ref": "352", "@spider": "cintas", "addr:full": "4350 Renaissance Pkwy Suite F", "addr:city": "Cleveland", "addr:state": "OH", "addr:postcode": "44128", "addr:country": "US", "name": "Cintas", "phone": "440-746-7800", "brand": "Cintas", "brand:wikidata": "Q1092571"}, "geometry": {"type": "Point", "coordinates": [-81.49285, 41.44176]}},
{"type": "Feature", "id": "a-SoqSPyHHL8MPCNc4_R_KRhSrc=", "properties": {"ref": "306", "@spider": "cintas", "addr:full": "28140 Cedar Park Blvd", "addr:city": "Perrysburg", "addr:state": "OH", "addr:postcode": "43551", "addr:country": "US", "name": "Cintas", "phone": "419-662-4720", "brand": "Cintas", "brand:wikidata": "Q1092571"}, "geometry": {"type": "Point", "coordinates": [-83.54916, 41.55676]}},
{"type": "Feature", "id": "g23pIp9HPgmH9VC9qQbt2dHunJs=", "properties": {"ref": "318", "@spider": "cintas", "addr:full": "4715 Hayes Ave", "addr:city": "Sandusky", "addr:state": "OH", "addr:postcode": "44870", "addr:country": "US", "name": "Cintas", "phone": "419-626-9726", "brand": "Cintas", "brand:wikidata": "Q1092571"}, "geometry": {"type": "Point", "coordinates": [-82.73155, 41.401413]}},
{"type": "Feature", "id": "zCjhWSz6YicsUc5EIbFPqlJGFfI=", "properties": {"ref": "300", "@spider": "cintas", "addr:full": "39145 Webb Dr", "addr:city": "Westland", "addr:state": "MI", "addr:postcode": "48185", "addr:country": "US", "name": "Cintas", "phone": "734-326-0800", "brand": "Cintas", "brand:wikidata": "Q1092571"}, "geometry": {"type": "Point", "coordinates": [-83.42783, 42.33081]}},
{"type": "Feature", "id": "CxNiQPeCmv6pP5eK-xkYEKt8wGY=", "properties": {"ref": "0045P", "@spider": "cintas", "addr:full": "12875 S Huron River Dr", "addr:city": "Romulus", "addr:state": "MI", "addr:postcode": "48174", "addr:country": "US", "name": "Cintas", "phone": "734-992-5558", "brand": "Cintas", "brand:wikidata": "Q1092571"}, "geometry": {"type": "Point", "coordinates": [-83.4039154, 42.20926]}},
{"type": "Feature", "id": "wExUmZ2lSv50ap8a4a1F9AkzXEM=", "properties": {"ref": "0051M", "@spider": "cintas", "addr:full": "13500 Ashurst St", "addr:city": "Livonia", "addr:state": "MI", "addr:postcode": "48150", "addr:country": "US", "name": "Cintas", "phone": "734-266-3840", "brand": "Cintas", "brand:wikidata": "Q1092571"}, "geometry": {"type": "Point", "coordinates": [-83.38278, 42.3805923]}},
{"type": "Feature", "id": "Xh7CqIHmQS51RnSOos8vQw6k83w=", "properties": {"ref": "721", "@spider": "cintas", "addr:full": "37005 Industrial Rd", "addr:city": "Livonia", "addr:state": "MI", "addr:postcode": "48150", "addr:country": "US", "name": "Cintas", "phone": "734-437-3233", "brand": "Cintas", "brand:wikidata": "Q1092571"}, "geometry": {"type": "Point", "coordinates": [-83.40881, 42.3771935]}},
{"type": "Feature", "id": "Zv0pLrznBfUh11RAOa95tiitt4M=", "properties": {"ref": "259", "@spider": "cintas", "addr:full": "800 Renaissance Pkwy", "addr:city": "Painesville", "addr:state": "OH", "addr:postcode": "44077", "addr:country": "US", "name": "Cintas", "phone": "440-352-4003", "brand": "Cintas", "brand:wikidata": "Q1092571"}, "geometry": {"type": "Point", "coordinates": [-81.27029, 41.7168]}},
{"type": "Feature", "id": "9MqeshvCV4ZhbKwB-RCxaIbBLxA=", "properties": {"ref": "310", "@spider": "cintas", "addr:full": "12601 Debartolo Dr", "addr:city": "North Jackson", "addr:state": "OH", "addr:postcode": "44451", "addr:country": "US", "name": "Cintas", "phone": "330-538-6911", "brand": "Cintas", "brand:wikidata": "Q1092571"}, "geometry": {"type": "Point", "coordinates": [-80.88154, 41.09391]}},
{"type": "Feature", "id": "t0xkQ48FYDFGTu2mbHVRwAg1DDg=", "properties": {"ref": "316", "@spider": "cintas", "addr:full": "3865 Highland Park", "addr:city": "North Canton", "addr:state": "OH", "addr:postcode": "44720", "addr:country": "US", "name": "Cintas", "phone": "330-966-7800", "brand": "Cintas", "brand:wikidata": "Q1092571"}, "geometry": {"type": "Point", "coordinates": [-81.41676, 40.91806]}},
{"type": "Feature", "id": "ju4NMMI40PoL-DzQ6qczO3CCxL0=", "properties": {"ref": "0046P", "@spider": "cintas", "addr:full": "3902 Kropf Avenue SW", "addr:city": "Canton", "addr:state": "OH", "addr:postcode": "44706", "addr:country": "US", "name": "Cintas", "phone": "330-915-2227", "brand": "Cintas", "brand:wikidata": "Q1092571"}, "geometry": {"type": "Point", "coordinates": [-81.44395, 40.7506371]}},
{"type": "Feature", "id": "U-yDxqfIJcnpzBJdrjnJJq3w-e0=", "properties": {"ref": "1", "@spider": "cintas", "addr:full": "5570 Ridge Ave", "addr:city": "Cincinnati", "addr:state": "OH", "addr:postcode": "45213", "addr:country": "US", "name": "Cintas", "phone": "513-631-5750", "brand": "Cintas", "brand:wikidata": "Q1092571"}, "geometry": {"type": "Point", "coordinates": [-84.4252243, 39.1736755]}},
{"type": "Feature", "id": "3KnSPp6BG-Buq-88g3iNMdgi2wY=", "properties": {"ref": "9", "@spider": "cintas", "addr:full": "27 Whitney Dr", "addr:city": "Milford", "addr:state": "OH", "addr:postcode": "45150", "addr:country": "US", "name": "Cintas", "phone": "513-831-4300", "brand": "Cintas", "brand:wikidata": "Q1092571"}, "geometry": {"type": "Point", "coordinates": [-84.25599, 39.1554947]}},
{"type": "Feature", "id": "bM6azqd_pRSUztN6NaPaa9skxyg=", "properties": {"ref": "335", "@spider": "cintas", "addr:full": "2909 Crescentville Rd", "addr:city": "West Chester", "addr:state": "OH", "addr:postcode": "45069", "addr:country": "US", "name": "Cintas", "phone": "513-346-5900", "brand": "Cintas", "brand:wikidata": "Q1092571"}, "geometry": {"type": "Point", "coordinates": [-84.42062, 39.29651]}},
{"type": "Feature", "id": "BbLQAkWcuCayCqPHUO1pqGGcFDg=", "properties": {"ref": "935", "@spider": "cintas", "addr:full": "3368 Turfway Rd", "addr:city": "Erlanger", "addr:state": "KY", "addr:postcode": "41018", "addr:country": "US", "name": "Cintas", "phone": "859-814-0200", "brand": "Cintas", "brand:wikidata": "Q1092571"}, "geometry": {"type": "Point", "coordinates": [-84.6228, 39.0407]}},
{"type": "Feature", "id": "DWMA5Yvhl4bSu3h_4LqFIePcftw=", "properties": {"ref": "718", "@spider": "cintas", "addr:full": "810 E Hanthorn Rd", "addr:city": "Lima", "addr:state": "OH", "addr:postcode": "45804", "addr:country": "US", "name": "Cintas", "phone": "937-235-4703", "brand": "Cintas", "brand:wikidata": "Q1092571"}, "geometry": {"type": "Point", "coordinates": [-84.09229, 40.7019119]}},
{"type": "Feature", "id": "-4x5Y0FEKMEklVfwE13F_XHapCE=", "properties": {"ref": "3", "@spider": "cintas", "addr:full": "1275 Research Rd", "addr:city": "Gahanna", "addr:state": "OH", "addr:postcode": "43230", "addr:country": "US", "name": "Cintas", "phone": "614-860-9152", "brand": "Cintas", "brand:wikidata": "Q1092571"}, "geometry": {"type": "Point", "coordinates": [-82.8383942, 39.9912453]}},
{"type": "Feature", "id": "MLNLLZnrErL6HPJVWQUvOGrQjQA=", "properties": {"ref": "530", "@spider": "cintas", "addr:full": "2250 Commerce St", "addr:city": "Lancaster", "addr:state": "OH", "addr:postcode": "43130", "addr:country": "US", "name": "Cintas", "phone": "740-687-6230", "brand": "Cintas", "brand:wikidata": "Q1092571"}, "geometry": {"type": "Point", "coordinates": [-82.54589, 39.7100449]}},
{"type": "Feature", "id": "m9rJuqD1aYGD_3oP34ECqpmoptA=", "properties": {"ref": "304", "@spider": "cintas", "addr:full": "1300 Boltonfield St", "addr:city": "Columbus", "addr:state": "OH", "addr:postcode": "43228", "addr:country": "US", "name": "Cintas", "phone": "614-878-7313", "brand": "Cintas", "brand:wikidata": "Q1092571"}, "geometry": {"type": "Point", "coordinates": [-83.12788, 39.9263]}},
{"type": "Feature", "id": "hhXmybAUlCrCzQdzhBFbARMD3PQ=", "properties": {"ref": "00G44", "@spider": "cintas", "addr:full": "940 Science Blvd", "addr:city": "Columbus", "addr:state": "OH", "addr:postcode": "43230", "addr:country": "US", "name": "Cintas", "phone": "614-655-3950", "brand": "Cintas", "brand:wikidata": "Q1092571"}, "geometry": {"type": "Point", "coordinates": [-82.84364, 39.9936447]}},
{"type": "Feature", "id": "NNXVuicPvaa7zOmcdk3dnY0Mykg=", "properties": {"ref": "64", "@spider": "cintas", "addr:full": "45 NE 42nd", "addr:city": "Oklahoma City", "addr:state": "OK", "addr:postcode": "73105", "addr:country": "US", "name": "Cintas", "phone": "405-525-6746", "brand": "Cintas", "brand:wikidata": "Q1092571"}, "geometry": {"type": "Point", "coordinates": [-97.5106, 35.5155449]}},
{"type": "Feature", "id": "aRDngfXwp50j6htiKXodK5NRx0Q=", "properties": {"ref": "628", "@spider": "cintas", "addr:full": "821 SW Grande Ave", "addr:city": "Lawton", "addr:state": "OK", "addr:postcode": "73501", "addr:country": "US", "name": "Cintas", "phone": "580-355-0314", "brand": "Cintas", "brand:wikidata": "Q1092571"}, "geometry": {"type": "Point", "coordinates": [-98.402916, 34.57129]}},
{"type": "Feature", "id": "XK3A1yvAjCMFXGGguu00JLZaOCo=", "properties": {"ref": "624", "@spider": "cintas", "addr:full": "5815 Douglas", "addr:city": "Enid", "addr:state": "OK", "addr:postcode": "73701", "addr:country": "US", "name": "Cintas", "phone": "580-233-8821", "brand": "Cintas", "brand:wikidata": "Q1092571"}, "geometry": {"type": "Point", "coordinates": [-97.79406, 36.3934441]}},
{"type": "Feature", "id": "S_t9D6-6FVKY6R5QJfBlcCOtkcw=", "properties": {"ref": "618", "@spider": "cintas", "addr:full": "530 Seabrook Rd", "addr:city": "Ada", "addr:state": "OK", "addr:postcode": "74820", "addr:country": "US", "name": "Cintas", "phone": "580-436-2770", "brand": "Cintas", "brand:wikidata": "Q1092571"}, "geometry": {"type": "Point", "coordinates": [-96.68695, 34.800312]}},
{"type": "Feature", "id": "o4fYnxg9y-JgWUUcwaWBiznfn2c=", "properties": {"ref": "173", "@spider": "cintas", "addr:full": "Building A-Unit A-2 10754 SW Manahasset Dr", "addr:city": "Tualatin", "addr:state": "OR", "addr:postcode": "97062", "addr:country": "US", "name": "Cintas", "phone": "503-520-5007", "brand": "Cintas", "brand:wikidata": "Q1092571"}, "geometry": {"type": "Point", "coordinates": [-122.788376, 45.3793755]}},
{"type": "Feature", "id": "c1vhNLSbujlElthAl6pfB45t51s=", "properties": {"ref": "463", "@spider": "cintas", "addr:full": "9045 N Ramsey Blvd", "addr:city": "Portland", "addr:state": "OR", "addr:postcode": "97203", "addr:country": "US", "name": "Cintas", "phone": "503-283-7733", "brand": "Cintas", "brand:wikidata": "Q1092571"}, "geometry": {"type": "Point", "coordinates": [-122.770187, 45.62454]}},
{"type": "Feature", "id": "SR3CyVG7qb6HqJn3hIqkDfWAQFc=", "properties": {"ref": "0056K", "@spider": "cintas", "addr:full": "14109 NE Airport Way", "addr:city": "Portland", "addr:state": "OR", "addr:postcode": "97230", "addr:country": "US", "name": "Cintas", "phone": "503-247-8228", "brand": "Cintas", "brand:wikidata": "Q1092571"}, "geometry": {"type": "Point", "coordinates": [-122.517014, 45.5613823]}},
{"type": "Feature", "id": "7X1c5U_eJTbLMAd2PACxi-b2EGU=", "properties": {"ref": "00F80", "@spider": "cintas", "addr:full": "704 W 8th St", "addr:city": "Vancouver", "addr:state": "WA", "addr:postcode": "98660", "addr:country": "US", "name": "Cintas", "phone": "360-695-9212", "brand": "Cintas", "brand:wikidata": "Q1092571"}, "geometry": {"type": "Point", "coordinates": [-122.678696, 45.627533]}},
{"type": "Feature", "id": "j6eGTU0nc8SsQY9vO8OoSEsCz5U=", "properties": {"ref": "172", "@spider": "cintas", "addr:full": "29536A Airport Rd", "addr:city": "Eugene", "addr:state": "OR", "addr:postcode": "97402", "addr:country": "US", "name": "Cintas", "phone": "541-607-0988", "brand": "Cintas", "brand:wikidata": "Q1092571"}, "geometry": {"type": "Point", "coordinates": [-123.1835, 44.1127243]}},
{"type": "Feature", "id": "W0R8DfSrcnozNatSp5x36DTE8fw=", "properties": {"ref": "14", "@spider": "cintas", "addr:full": "10611 Iron Ridge Rd", "addr:city": "Jessup", "addr:state": "MD", "addr:postcode": "20794", "addr:country": "US", "name": "Cintas", "phone": "410-712-9417", "brand": "Cintas", "brand:wikidata": "Q1092571"}, "geometry": {"type": "Point", "coordinates": [-76.80307, 39.1356049]}},
{"type": "Feature", "id": "4JWkPrIHNxdeBLenBhRz7tp5up0=", "properties": {"ref": "41", "@spider": "cintas", "addr:full": "1769 Brightseat Rd", "addr:city": "Landover", "addr:state": "MD", "addr:postcode": "20785", "addr:country": "US", "name": "Cintas", "phone": "301-322-2255", "brand": "Cintas", "brand:wikidata": "Q1092571"}, "geometry": {"type": "Point", "coordinates": [-76.85281, 38.9132729]}},
{"type": "Feature", "id": "BI1fRONkbD4DPvkctZVDQ0BhhJw=", "properties": {"ref": "42", "@spider": "cintas", "addr:full": "6300 Seaforth St", "addr:city": "Baltimore", "addr:state": "MD", "addr:postcode": "21224", "addr:country": "US", "name": "Cintas", "phone": "410-633-6400", "brand": "Cintas", "brand:wikidata": "Q1092571"}, "geometry": {"type": "Point", "coordinates": [-76.53925, 39.27163]}},
{"type": "Feature", "id": "oL2NYXiFJ7dqeaGmKjYt9s32ReE=", "properties": {"ref": "0047M", "@spider": "cintas", "addr:full": "136 Lafayette Ave", "addr:city": "Laurel", "addr:state": "MD", "addr:postcode": "20707", "addr:country": "US", "name": "Cintas", "phone": "301-725-9500", "brand": "Cintas", "brand:wikidata": "Q1092571"}, "geometry": {"type": "Point", "coordinates": [-76.84335, 39.10001]}},
{"type": "Feature", "id": "PLqB7x8j8tcZwYY2PG2cQ8F2MEE=", "properties": {"ref": "104", "@spider": "cintas", "addr:full": "114 Centerpoint Blvd", "addr:city": "Pittston", "addr:state": "PA", "addr:postcode": "18640", "addr:country": "US", "name": "Cintas", "phone": "570-891-0400", "brand": "Cintas", "brand:wikidata": "Q1092571"}, "geometry": {"type": "Point", "coordinates": [-75.7554, 41.297905]}},
{"type": "Feature", "id": "VuSDOUKcioEVkqDl9yXAK6A6J8s=", "properties": {"ref": "735", "@spider": "cintas", "addr:full": "1065 Hanover St Suite 105", "addr:city": "Wilkes Barre", "addr:state": "PA", "addr:postcode": "18706", "addr:country": "US", "name": "Cintas", "phone": "570-822-9486", "brand": "Cintas", "brand:wikidata": "Q1092571"}, "geometry": {"type": "Point", "coordinates": [-75.93489, 41.20187]}},
{"type": "Feature", "id": "bbJJP7jXNTVnxjFRJM8ZzPDKrjQ=", "properties": {"ref": "536", "@spider": "cintas", "addr:full": "2700 Carolean Industrial Dr", "addr:city": "State College", "addr:state": "PA", "addr:postcode": "16801", "addr:country": "US", "name": "Cintas", "phone": "814-237-5744", "brand": "Cintas", "brand:wikidata": "Q1092571"}, "geometry": {"type": "Point", "coordinates": [-77.8, 40.826767]}},
{"type": "Feature", "id": "dIvQjXeRLYGR-r80WAccXNjiy44=", "properties": {"ref": "13", "@spider": "cintas", "addr:full": "40 Abele Rd", "addr:city": "Bridgeville", "addr:state": "PA", "addr:postcode": "15017", "addr:country": "US", "name": "Cintas", "phone": "412-221-8870", "brand": "Cintas", "brand:wikidata": "Q1092571"}, "geometry": {"type": "Point", "coordinates": [-80.1242752, 40.3505478]}},
{"type": "Feature", "id": "W3j2xP916ohNz7wIaQLeRVt2TT4=", "properties": {"ref": "0060J", "@spider": "cintas", "addr:full": "560 Alpha Dr", "addr:city": "Pittsburgh", "addr:state": "PA", "addr:postcode": "15238", "addr:country": "US", "name": "Cintas", "phone": "412-455-5044", "brand": "Cintas", "brand:wikidata": "Q1092571"}, "geometry": {"type": "Point", "coordinates": [-79.8700562, 40.4993858]}},
{"type": "Feature", "id": "8eE6wfVKw2qLUJ1whkcT-NqQrkU=", "properties": {"ref": "00D28", "@spider": "cintas", "addr:full": "600 Bursca Dr STE 610", "addr:city": "Bridgeville", "addr:state": "PA", "addr:postcode": "15017", "addr:country": "US", "name": "Cintas", "phone": "412-257-1896", "brand": "Cintas", "brand:wikidata": "Q1092571"}, "geometry": {"type": "Point", "coordinates": [-80.11294, 40.34152]}},
{"type": "Feature", "id": "IPo4ClBMJDzkk88mPJ7LZ9B6xlc=", "properties": {"ref": "00F87", "@spider": "cintas", "addr:full": "2737 W State St", "addr:city": "New Castle", "addr:state": "PA", "addr:postcode": "16101", "addr:country": "US", "name": "Cintas", "phone": "724-498-0663", "brand": "Cintas", "brand:wikidata": "Q1092571"}, "geometry": {"type": "Point", "coordinates": [-80.40179, 41.01392]}},
{"type": "Feature", "id": "kJ0AAu7tTc21GmPV30WeLZFS1Rw=", "properties": {"ref": "6", "@spider": "cintas", "addr:full": "320 Westec Dr", "addr:city": "Mount Pleasant", "addr:state": "PA", "addr:postcode": "15666", "addr:country": "US", "name": "Cintas", "phone": "724-696-5640", "brand": "Cintas", "brand:wikidata": "Q1092571"}, "geometry": {"type": "Point", "coordinates": [-79.5667953, 40.1893349]}},
{"type": "Feature", "id": "KZ5FJ1UwPvHIARWbK3pgQfU5RkA=", "properties": {"ref": "00T90", "@spider": "cintas", "addr:full": "1317 W 12th ST", "addr:city": "Erie", "addr:state": "PA", "addr:postcode": "16501", "addr:country": "US", "name": "Cintas", "phone": "814-838-2208", "brand": "Cintas", "brand:wikidata": "Q1092571"}, "geometry": {"type": "Point", "coordinates": [-80.1097946, 42.11234]}},
{"type": "Feature", "id": "zhuL1yzkN-wejrY6QTn8tT6oix0=", "properties": {"ref": "101", "@spider": "cintas", "addr:full": "164 E Main St", "addr:city": "Emmaus", "addr:state": "PA", "addr:postcode": "18049", "addr:country": "US", "name": "Cintas", "phone": "610-967-5155", "brand": "Cintas", "brand:wikidata": "Q1092571"}, "geometry": {"type": "Point", "coordinates": [-75.4852753, 40.5456]}},
{"type": "Feature", "id": "7kJVcWmDcBXRbOvnQL5AGIBlnT4=", "properties": {"ref": "235", "@spider": "cintas", "addr:full": "9540 Hamburg Rd", "addr:city": "Ladson", "addr:state": "SC", "addr:postcode": "29456", "addr:country": "US", "name": "Cintas", "phone": "843-552-5070", "brand": "Cintas", "brand:wikidata": "Q1092571"}, "geometry": {"type": "Point", "coordinates": [-80.11398, 32.98007]}},
{"type": "Feature", "id": "WUb6xBbAuctSK0pMl6pBOcQcl4c=", "properties": {"ref": "0081H", "@spider": "cintas", "addr:full": "9481 Industrial Center Dr Unit 1A", "addr:city": "Ladson", "addr:state": "SC", "addr:postcode": "29456", "addr:country": "US", "name": "Cintas", "phone": "843-804-4180", "brand": "Cintas", "brand:wikidata": "Q1092571"}, "geometry": {"type": "Point", "coordinates": [-80.100235, 32.9855347]}},
{"type": "Feature", "id": "EBI6Vcykdi1jvKwhMCpgon9x-VM=", "properties": {"ref": "0013Q", "@spider": "cintas", "addr:full": "2335 Laurens Circle", "addr:city": "Florence", "addr:state": "SC", "addr:postcode": "29501", "addr:country": "US", "name": "Cintas", "phone": "843-393-5289", "brand": "Cintas", "brand:wikidata": "Q1092571"}, "geometry": {"type": "Point", "coordinates": [-79.81475, 34.24891]}},
{"type": "Feature", "id": "VD40JzPmb3ulW8bhTsISmNL2YAI=", "properties": {"ref": "260", "@spider": "cintas", "addr:full": "460 Century Cir", "addr:city": "Myrtle Beach", "addr:state": "SC", "addr:postcode": "29526", "addr:country": "US", "name": "Cintas", "phone": "843-839-9327", "brand": "Cintas", "brand:wikidata": "Q1092571"}, "geometry": {"type": "Point", "coordinates": [-78.9926147, 33.79423]}},
{"type": "Feature", "id": "0-X8-KnBTr4pHADrsoaMNv0a28A=", "properties": {"ref": "218", "@spider": "cintas", "addr:full": "1722 Airport Blvd", "addr:city": "Cayce", "addr:state": "SC", "addr:postcode": "29033", "addr:country": "US", "name": "Cintas", "phone": "803-794-4774", "brand": "Cintas", "brand:wikidata": "Q1092571"}, "geometry": {"type": "Point", "coordinates": [-81.08349, 33.96612]}},
{"type": "Feature", "id": "Q-cBe05z_-X3LOLkGUFB3veFQzg=", "properties": {"ref": "0022M", "@spider": "cintas", "addr:full": "1325 Metro East Dr", "addr:city": "Pleasant Hill", "addr:state": "IA", "addr:postcode": "50327", "addr:country": "US", "name": "Cintas", "phone": "515-266-3232", "brand": "Cintas", "brand:wikidata": "Q1092571"}, "geometry": {"type": "Point", "coordinates": [-93.49861, 41.60282]}},
{"type": "Feature", "id": "HEjObaXHFMSE-Esh-bjnrzamNw4=", "properties": {"ref": "00D89", "@spider": "cintas", "addr:full": "1400 SE Gateway Dr STE 109", "addr:city": "Grimes", "addr:state": "IA", "addr:postcode": "50111", "addr:country": "US", "name": "Cintas", "phone": "515-276-5055", "brand": "Cintas", "brand:wikidata": "Q1092571"}, "geometry": {"type": "Point", "coordinates": [-93.77852, 41.67749]}},
{"type": "Feature", "id": "7q-FyY9W-DbJEgn9vLxcM-Q6Cdc=", "properties": {"ref": "51", "@spider": "cintas", "addr:full": "3400 Briley Park Blvd N", "addr:city": "Nashville", "addr:state": "TN", "addr:postcode": "37207", "addr:country": "US", "name": "Cintas", "phone": "615-228-3400", "brand": "Cintas", "brand:wikidata": "Q1092571"}, "geometry": {"type": "Point", "coordinates": [-86.7828751, 36.2454872]}},
{"type": "Feature", "id": "MQv0llEM-j0S9VdrTt8ct3cOtp0=", "properties": {"ref": "00F59", "@spider": "cintas", "addr:full": "1865 Air Lane Dr", "addr:city": "Nashville", "addr:state": "TN", "addr:postcode": "37210", "addr:country": "US", "name": "Cintas", "phone": "615-846-1972", "brand": "Cintas", "brand:wikidata": "Q1092571"}, "geometry": {"type": "Point", "coordinates": [-86.69985, 36.1452446]}},
{"type": "Feature", "id": "pbZdzr2vGaVkk5SOYQhE1vKeMlI=", "properties": {"ref": "206", "@spider": "cintas", "addr:full": "5425 Mineral Wells Rd", "addr:city": "Memphis", "addr:state": "TN", "addr:postcode": "38141", "addr:country": "US", "name": "Cintas", "phone": "901-942-5497", "brand": "Cintas", "brand:wikidata": "Q1092571"}, "geometry": {"type": "Point", "coordinates": [-89.86094, 35.0003548]}},
{"type": "Feature", "id": "SYtWfHFRnStcXYwz9HZ5cJ-gvno=", "properties": {"ref": "377", "@spider": "cintas", "addr:full": "3955 Vantech Dr STE 12", "addr:city": "Memphis", "addr:state": "TN", "addr:postcode": "38115", "addr:country": "US", "name": "Cintas", "phone": "901-202-8059", "brand": "Cintas", "brand:wikidata": "Q1092571"}, "geometry": {"type": "Point", "coordinates": [-89.88805, 35.0411453]}},
{"type": "Feature", "id": "hOn_e-0DTusz71OnhQ24Eud2EgU=", "properties": {"ref": "0056M", "@spider": "cintas", "addr:full": "2117 Berry St", "addr:city": "Kingsport", "addr:state": "TN", "addr:postcode": "37664", "addr:country": "US", "name": "Cintas", "phone": "423-349-4823", "brand": "Cintas", "brand:wikidata": "Q1092571"}, "geometry": {"type": "Point", "coordinates": [-82.52383, 36.53372]}},
{"type": "Feature", "id": "dzziFVpH4c7uU5lA9VOF0XcpFjk=", "properties": {"ref": "475", "@spider": "cintas", "addr:full": "2131 Polymer Dr Suite 2131A", "addr:city": "Chattanooga", "addr:state": "TN", "addr:postcode": "37421", "addr:country": "US", "name": "Cintas", "phone": "423-296-6306", "brand": "Cintas", "brand:wikidata": "Q1092571"}, "geometry": {"type": "Point", "coordinates": [-85.1945, 35.0488968]}},
{"type": "Feature", "id": "hEgchwEJDrUpRIfLkq9Lx67Bf3s=", "properties": {"ref": "0082K", "@spider": "cintas", "addr:full": "710 Jewell Dr", "addr:city": "Waco", "addr:state": "TX", "addr:postcode": "76712", "addr:country": "US", "name": "Cintas", "phone": "936-760-3030", "brand": "Cintas", "brand:wikidata": "Q1092571"}, "geometry": {"type": "Point", "coordinates": [-97.1937561, 31.50116]}},
{"type": "Feature", "id": "dySZKrTZFBiQyj9Iut3fnM-xH9g=", "properties": {"ref": "83", "@spider": "cintas", "addr:full": "307 S Vine St", "addr:city": "Victoria", "addr:state": "TX", "addr:postcode": "77901", "addr:country": "US", "name": "Cintas", "phone": "361-573-6397", "brand": "Cintas", "brand:wikidata": "Q1092571"}, "geometry": {"type": "Point", "coordinates": [-97.01175, 28.7982616]}},
{"type": "Feature", "id": "353gQWz9N7T4qc3dyqI_p_x1z0I=", "properties": {"ref": "87", "@spider": "cintas", "addr:full": "3349 SE Loop 410", "addr:city": "San Antonio", "addr:state": "TX", "addr:postcode": "78222", "addr:country": "US", "name": "Cintas", "phone": "210-224-6321", "brand": "Cintas", "brand:wikidata": "Q1092571"}, "geometry": {"type": "Point", "coordinates": [-98.3942642, 29.3786678]}},
{"type": "Feature", "id": "6E7vPcuOveTvXh1j81ToeKuLuTg=", "properties": {"ref": "00F71", "@spider": "cintas", "addr:full": "7007 Fairgrounds Pkwy Suite 121", "addr:city": "San Antonio", "addr:state": "TX", "addr:postcode": "78238", "addr:country": "US", "name": "Cintas", "phone": "210-762-5195", "brand": "Cintas", "brand:wikidata": "Q1092571"}, "geometry": {"type": "Point", "coordinates": [-98.6165848, 29.45697]}},
{"type": "Feature", "id": "Pu-Y1Eqh5Akp0rBhmebCkhfjiJY=", "properties": {"ref": "86", "@spider": "cintas", "addr:full": "25 Cypress Blvd", "addr:city": "Round Rock", "addr:state": "TX", "addr:postcode": "78664", "addr:country": "US", "name": "Cintas", "phone": "512-388-9709", "brand": "Cintas", "brand:wikidata": "Q1092571"}, "geometry": {"type": "Point", "coordinates": [-97.6823654, 30.5549564]}},
{"type": "Feature", "id": "5xDiHwBJRfeuIar0nmF9LXvZBEQ=", "properties": {"ref": "0041F", "@spider": "cintas", "addr:full": "2525 Ridgepoint Dr Suite 300", "addr:city": "Austin", "addr:state": "TX", "addr:postcode": "78754", "addr:country": "US", "name": "Cintas", "phone": "512-640-8585", "brand": "Cintas", "brand:wikidata": "Q1092571"}, "geometry": {"type": "Point", "coordinates": [-97.6721649, 30.3275661]}},
{"type": "Feature", "id": "xvSGLYFkaPjnvASaXSzH1WawN4c=", "properties": {"ref": "0042K", "@spider": "cintas", "addr:full": "194 Park 35 Cove South", "addr:city": "Buda", "addr:state": "TX", "addr:postcode": "78610", "addr:country": "US", "name": "Cintas", "phone": "512-312-0849", "brand": "Cintas", "brand:wikidata": "Q1092571"}, "geometry": {"type": "Point", "coordinates": [-97.83395, 30.06471]}},
{"type": "Feature", "id": "xYwRdmUzqoGBalRefj3e_LFG1PI=", "properties": {"ref": "81", "@spider": "cintas", "addr:full": "1335 Kress St", "addr:city": "Houston", "addr:state": "TX", "addr:postcode": "77020", "addr:country": "US", "name": "Cintas", "phone": "713-676-0261", "brand": "Cintas", "brand:wikidata": "Q1092571"}, "geometry": {"type": "Point", "coordinates": [-95.30599, 29.76418]}},
{"type": "Feature", "id": "_o1gZrpQKkNBwxxHjgqWHeUnQ3o=", "properties": {"ref": "0014G", "@spider": "cintas", "addr:full": "611 E Sam Houston Pkwy S Suite 100", "addr:city": "Pasadena", "addr:state": "TX", "addr:postcode": "77503", "addr:country": "US", "name": "Cintas", "phone": "281-542-4001", "brand": "Cintas", "brand:wikidata": "Q1092571"}, "geometry": {"type": "Point", "coordinates": [-95.15257, 29.6950474]}},
{"type": "Feature", "id": "ehS7PSZRKeVzKbsFRZuy7c1gZ5o=", "properties": {"ref": "0016M", "@spider": "cintas", "addr:full": "7355 Denny St", "addr:city": "Houston", "addr:state": "TX", "addr:postcode": "77040", "addr:country": "US", "name": "Cintas", "phone": "713-300-3100", "brand": "Cintas", "brand:wikidata": "Q1092571"}, "geometry": {"type": "Point", "coordinates": [-95.50463, 29.8650761]}},
{"type": "Feature", "id": "aVzjoDin2EsTz5KEGFX6oYnX1IU=", "properties": {"ref": "0024K", "@spider": "cintas", "addr:full": "8404 Lawndale Ave", "addr:city": "Houston", "addr:state": "TX", "addr:postcode": "77012", "addr:country": "US", "name": "Cintas", "phone": "713-928-6567", "brand": "Cintas", "brand:wikidata": "Q1092571"}, "geometry": {"type": "Point", "coordinates": [-95.27359, 29.7152061]}},
{"type": "Feature", "id": "QckHuWJzYBL03GXTXkxfimGn6hs=", "properties": {"ref": "197", "@spider": "cintas", "addr:full": "113 Slaton Dr", "addr:city": "Nash", "addr:state": "TX", "addr:postcode": "75569", "addr:country": "US", "name": "Cintas", "phone": "903-223-3215", "brand": "Cintas", "brand:wikidata": "Q1092571"}, "geometry": {"type": "Point", "coordinates": [-94.14244, 33.4452057]}},
{"type": "Feature", "id": "koabFxL2-4pVN0yTzo6fwMj0XDw=", "properties": {"ref": "440", "@spider": "cintas", "addr:full": "2029 S Loop 250 W", "addr:city": "Midland", "addr:state": "TX", "addr:postcode": "79703", "addr:country": "US", "name": "Cintas", "phone": "432-681-3750", "brand": "Cintas", "brand:wikidata": "Q1092571"}, "geometry": {"type": "Point", "coordinates": [-102.140137, 31.9601231]}},
{"type": "Feature", "id": "GkKOwDHlLkeYoplNAGEqOwcy3Nw=", "properties": {"ref": "85", "@spider": "cintas", "addr:full": "5280 Investment Dr", "addr:city": "Dallas", "addr:state": "TX", "addr:postcode": "75236", "addr:country": "US", "name": "Cintas", "phone": "972-709-0291", "brand": "Cintas", "brand:wikidata": "Q1092571"}, "geometry": {"type": "Point", "coordinates": [-96.91578, 32.6952438]}},
{"type": "Feature", "id": "ND-9a1GLceY9MCm6Ge9VQ0K1qh8=", "properties": {"ref": "0012M", "@spider": "cintas", "addr:full": "603 Airline Dr", "addr:city": "Coppell", "addr:state": "TX", "addr:postcode": "75019", "addr:country": "US", "name": "Cintas", "phone": "972-393-1764", "brand": "Cintas", "brand:wikidata": "Q1092571"}, "geometry": {"type": "Point", "coordinates": [-97.00742, 32.94311]}},
{"type": "Feature", "id": "dYICMKWTpH5Za5W3eQzCXGmbpmA=", "properties": {"ref": "163", "@spider": "cintas", "addr:full": "505 Century Pkwy", "addr:city": "Allen", "addr:state": "TX", "addr:postcode": "75013", "addr:country": "US", "name": "Cintas", "phone": "469-854-1180", "brand": "Cintas", "brand:wikidata": "Q1092571"}, "geometry": {"type": "Point", "coordinates": [-96.674, 33.095253]}},
{"type": "Feature", "id": "HTG7RjjMdzUF76iefisl3Wdeg5Q=", "properties": {"ref": "487", "@spider": "cintas", "addr:full": "850 Freeport Parkway Suite 300", "addr:city": "Coppell", "addr:state": "TX", "addr:postcode": "75019", "addr:country": "US", "name": "Cintas", "phone": "469-322-1100", "brand": "Cintas", "brand:wikidata": "Q1092571"}, "geometry": {"type": "Point", "coordinates": [-97.00936, 32.9500961]}},
{"type": "Feature", "id": "vskT1gaFwV9CWEX_J7DjYZ-tkm8=", "properties": {"ref": "0079J", "@spider": "cintas", "addr:full": "3100 N State Hwy 161 100", "addr:city": "Grand Prairie", "addr:state": "TX", "addr:postcode": "75050", "addr:country": "US", "name": "Cintas", "phone": "469-251-1200", "brand": "Cintas", "brand:wikidata": "Q1092571"}, "geometry": {"type": "Point", "coordinates": [-97.01708, 32.80135]}},
{"type": "Feature", "id": "a5ECsytWrgI1XUHMN0O_4xTYiw4=", "properties": {"ref": "00F77", "@spider": "cintas", "addr:full": "751 109th Street", "addr:city": "Arlington", "addr:state": "TX", "addr:postcode": "76011", "addr:country": "US", "name": "Cintas", "phone": "817-640-2223", "brand": "Cintas", "brand:wikidata": "Q1092571"}, "geometry": {"type": "Point", "coordinates": [-97.0545349, 32.7546959]}},
{"type": "Feature", "id": "oT7IHiao7uBNhzDuew5dYa33lBg=", "properties": {"ref": "00K56", "@spider": "cintas", "addr:full": "1801 Big Town Blvd Suite 1000", "addr:city": "Mesquite", "addr:state": "TX", "addr:postcode": "75149", "addr:country": "US", "name": "Cintas", "phone": "972-709-0291", "brand": "Cintas", "brand:wikidata": "Q1092571"}, "geometry": {"type": "Point", "coordinates": [-96.66991, 32.7897]}},
{"type": "Feature", "id": "sfk2HxpDLHgA_fNJ6GaIb4vDGkc=", "properties": {"ref": "494", "@spider": "cintas", "addr:full": "5011 Lotus Ln", "addr:city": "Lufkin", "addr:state": "TX", "addr:postcode": "75902", "addr:country": "US", "name": "Cintas", "phone": "936-760-3030", "brand": "Cintas", "brand:wikidata": "Q1092571"}, "geometry": {"type": "Point", "coordinates": [-94.762825, 31.35006]}},
{"type": "Feature", "id": "m2SEK1JPapJm0cZy9Z3D7qRELu0=", "properties": {"ref": "0018A", "@spider": "cintas", "addr:full": "1105 Slaton Rd STE D", "addr:city": "Lubbock", "addr:state": "TX", "addr:postcode": "79404", "addr:country": "US", "name": "Cintas", "phone": "806-379-6000", "brand": "Cintas", "brand:wikidata": "Q1092571"}, "geometry": {"type": "Point", "coordinates": [-101.824646, 33.53253]}},
{"type": "Feature", "id": "PKxFKhD2YZW8-7pt2Y4LmCw4kao=", "properties": {"ref": "496", "@spider": "cintas", "addr:full": "4106 Airpark Dr", "addr:city": "Laredo", "addr:state": "TX", "addr:postcode": "78041", "addr:country": "US", "name": "Cintas", "phone": "210-224-6321", "brand": "Cintas", "brand:wikidata": "Q1092571"}, "geometry": {"type": "Point", "coordinates": [-99.46666, 27.53357]}},
{"type": "Feature", "id": "JGnI1qJ2S_p96Xi2BlLjAs_JVrQ=", "properties": {"ref": "484", "@spider": "cintas", "addr:full": "5355 W Sam Houston Pkwy N Suite 300", "addr:city": "Houston", "addr:state": "TX", "addr:postcode": "77041", "addr:country": "US", "name": "Cintas", "phone": "713-937-0006", "brand": "Cintas", "brand:wikidata": "Q1092571"}, "geometry": {"type": "Point", "coordinates": [-95.56554, 29.8424244]}},
{"type": "Feature", "id": "dDMgMBBiPPFZp5cfgXtdHJHBXVg=", "properties": {"ref": "00F78", "@spider": "cintas", "addr:full": "5355 W Sam Houston Pkwy N", "addr:city": "Houston", "addr:state": "TX", "addr:postcode": "77041", "addr:country": "US", "name": "Cintas", "phone": "713-937-0006", "brand": "Cintas", "brand:wikidata": "Q1092571"}, "geometry": {"type": "Point", "coordinates": [-95.5655, 29.842062]}},
{"type": "Feature", "id": "Tekv-8m1vanNw2p3mwMk573fe10=", "properties": {"ref": "492", "@spider": "cintas", "addr:full": "3450 Northern Cross Blvd", "addr:city": "Fort Worth", "addr:state": "TX", "addr:postcode": "76137", "addr:country": "US", "name": "Cintas", "phone": "817-831-5600", "brand": "Cintas", "brand:wikidata": "Q1092571"}, "geometry": {"type": "Point", "coordinates": [-97.29783, 32.8336945]}},
{"type": "Feature", "id": "0BVe7RxSypR9vaEvno9Xj42fzy0=", "properties": {"ref": "539", "@spider": "cintas", "addr:full": "301 Junior Beck Dr", "addr:city": "Corpus Christi", "addr:state": "TX", "addr:postcode": "78405", "addr:country": "US", "name": "Cintas", "phone": "361-289-1781", "brand": "Cintas", "brand:wikidata": "Q1092571"}, "geometry": {"type": "Point", "coordinates": [-97.46987, 27.758707]}},
{"type": "Feature", "id": "CthEYHIqMIsf9ZcO-P-QKuReH-k=", "properties": {"ref": "0043K", "@spider": "cintas", "addr:full": "3903 Elaine St", "addr:city": "Bryan", "addr:state": "TX", "addr:postcode": "77808", "addr:country": "US", "name": "Cintas", "phone": "979-589-5740", "brand": "Cintas", "brand:wikidata": "Q1092571"}, "geometry": {"type": "Point", "coordinates": [-96.3807449, 30.7165985]}},
{"type": "Feature", "id": "qyKDkG6zudFP8SeJUDkg90pQRHM=", "properties": {"ref": "84", "@spider": "cintas", "addr:full": "3030 Milam St", "addr:city": "Beaumont", "addr:state": "TX", "addr:postcode": "77701", "addr:country": "US", "name": "Cintas", "phone": "409-832-9906", "brand": "Cintas", "brand:wikidata": "Q1092571"}, "geometry": {"type": "Point", "coordinates": [-94.1183548, 30.0664177]}},
{"type": "Feature", "id": "dcMI7Hyn2h4vueikW0zNS9kNgrg=", "properties": {"ref": "491", "@spider": "cintas", "addr:full": "801 SE 2nd", "addr:city": "Amarillo", "addr:state": "TX", "addr:postcode": "79101", "addr:country": "US", "name": "Cintas", "phone": "806-379-6000", "brand": "Cintas", "brand:wikidata": "Q1092571"}, "geometry": {"type": "Point", "coordinates": [-101.826385, 35.2109566]}},
{"type": "Feature", "id": "Jiylf9w8AA2vKbkL7HpKpXcVNt0=", "properties": {"ref": "439", "@spider": "cintas", "addr:full": "768 Walnut St", "addr:city": "Abilene", "addr:state": "TX", "addr:postcode": "79601", "addr:country": "US", "name": "Cintas", "phone": "325-677-5266", "brand": "Cintas", "brand:wikidata": "Q1092571"}, "geometry": {"type": "Point", "coordinates": [-99.73137, 32.456562]}},
{"type": "Feature", "id": "l7rTKGKp-potZZ1i0p8cxSfr_hg=", "properties": {"ref": "525", "@spider": "cintas", "addr:full": "2122 Winfield Rd", "addr:city": "St Albans", "addr:state": "WV", "addr:postcode": "25177", "addr:country": "US", "name": "Cintas", "phone": "304-755-0590", "brand": "Cintas", "brand:wikidata": "Q1092571"}, "geometry": {"type": "Point", "coordinates": [-81.85377, 38.42567]}},
{"type": "Feature", "id": "ZSXY_uNlbchV78H18-jNCswgIWA=", "properties": {"ref": "394", "@spider": "cintas", "addr:full": "1000 Shenandoah Village Dr", "addr:city": "Waynesboro", "addr:state": "VA", "addr:postcode": "22980", "addr:country": "US", "name": "Cintas", "phone": "540-949-0072", "brand": "Cintas", "brand:wikidata": "Q1092571"}, "geometry": {"type": "Point", "coordinates": [-78.93935, 38.05588]}},
{"type": "Feature", "id": "QO59JKbGK2d9FdYoYHXSJFEeeXI=", "properties": {"ref": "605", "@spider": "cintas", "addr:full": "918 N 5th Ave", "addr:city": "Yakima", "addr:state": "WA", "addr:postcode": "98902", "addr:country": "US", "name": "Cintas", "phone": "509-248-3860", "brand": "Cintas", "brand:wikidata": "Q1092571"}, "geometry": {"type": "Point", "coordinates": [-120.518906, 46.61329]}},
{"type": "Feature", "id": "682Up90EofWXgNzcGw2bceZnK_o=", "properties": {"ref": "749", "@spider": "cintas", "addr:full": "1601 North 24th St", "addr:city": "Omaha", "addr:state": "NE", "addr:postcode": "68110", "addr:country": "US", "name": "Cintas", "phone": "402-734-3428", "brand": "Cintas", "brand:wikidata": "Q1092571"}, "geometry": {"type": "Point", "coordinates": [-95.9461, 41.27373]}},
{"type": "Feature", "id": "HWWnwCSPDduFQmwnwdzohn_1eAg=", "properties": {"ref": "0071M", "@spider": "cintas", "addr:full": "156 Avenue B", "addr:city": "Williston", "addr:state": "VT", "addr:postcode": "5495", "addr:country": "US", "name": "Cintas", "phone": "802-864-9078", "brand": "Cintas", "brand:wikidata": "Q1092571"}, "geometry": {"type": "Point", "coordinates": [-73.12716, 44.462677]}},
{"type": "Feature", "id": "zU8ITkcudYjTNZnBoh5Gi0OUrVw=", "properties": {"ref": "0032K", "@spider": "cintas", "addr:full": "1250 Kuhn Dr", "addr:city": "Saint Cloud", "addr:state": "MN", "addr:postcode": "56301", "addr:country": "US", "name": "Cintas", "phone": "320-252-9471", "brand": "Cintas", "brand:wikidata": "Q1092571"}, "geometry": {"type": "Point", "coordinates": [-94.1662445, 45.5168648]}},
{"type": "Feature", "id": "nNphOn-QQC2jIx60Vm5r2WJ-7ts=", "properties": {"ref": "31", "@spider": "cintas", "addr:full": "31850 Sherman Ave", "addr:city": "Madison Hgts", "addr:state": "MI", "addr:postcode": "48071", "addr:country": "US", "name": "Cintas", "phone": "248-585-7930", "brand": "Cintas", "brand:wikidata": "Q1092571"}, "geometry": {"type": "Point", "coordinates": [-83.09502, 42.5252838]}},
{"type": "Feature", "id": "ujTcgkAXxGeEFfBPNUupkjwa_90=", "properties": {"ref": "325", "@spider": "cintas", "addr:full": "232 E Maple Road", "addr:city": "Troy", "addr:state": "MI", "addr:postcode": "48083", "addr:country": "US", "name": "Cintas", "phone": "248-817-3777", "brand": "Cintas", "brand:wikidata": "Q1092571"}, "geometry": {"type": "Point", "coordinates": [-83.14187, 42.5466347]}},
{"type": "Feature", "id": "s5Ta10_36lZ1rLooL_hkra_Ho6s=", "properties": {"ref": "0076J", "@spider": "cintas", "addr:full": "209 Brooks St", "addr:city": "Worcester", "addr:state": "MA", "addr:postcode": "1606", "addr:country": "US", "name": "Cintas", "phone": "508-556-6115", "brand": "Cintas", "brand:wikidata": "Q1092571"}, "geometry": {"type": "Point", "coordinates": [-71.8016357, 42.31878]}},
{"type": "Feature", "id": "F0_ZyJa8AiCZofixhh3PJ3zYmn8=", "properties": {"ref": "758", "@spider": "cintas", "addr:full": "88 Spiller Dr", "addr:city": "Westbrook", "addr:state": "ME", "addr:postcode": "4092", "addr:country": "US", "name": "Cintas", "phone": "207-854-0000", "brand": "Cintas", "brand:wikidata": "Q1092571"}, "geometry": {"type": "Point", "coordinates": [-70.3821259, 43.656456]}},
{"type": "Feature", "id": "7lDNVGYfdZAtLxqEnmqIGDN07B8=", "properties": {"ref": "397", "@spider": "cintas", "addr:full": "304 Downing Pines", "addr:city": "West Monroe", "addr:state": "LA", "addr:postcode": "71291", "addr:country": "US", "name": "Cintas", "phone": "318-387-3322", "brand": "Cintas", "brand:wikidata": "Q1092571"}, "geometry": {"type": "Point", "coordinates": [-92.16536, 32.5016632]}},
{"type": "Feature", "id": "IMFER9YTTW_9F0s9IuvTsz70SoQ=", "properties": {"ref": "0025D", "@spider": "cintas", "addr:full": "8201 E 34th St N Suite 909", "addr:city": "Wichita", "addr:state": "KS", "addr:postcode": "67226", "addr:country": "US", "name": "Cintas", "phone": "316-665-6060", "brand": "Cintas", "brand:wikidata": "Q1092571"}, "geometry": {"type": "Point", "coordinates": [-97.24019, 37.7457848]}},
{"type": "Feature", "id": "spR4esZu_9wLU3ns77egCYHRHu0=", "properties": {"ref": "451", "@spider": "cintas", "addr:full": "9333 E 35th St N", "addr:city": "Wichita", "addr:state": "KS", "addr:postcode": "67226", "addr:country": "US", "name": "Cintas", "phone": "316-945-5700", "brand": "Cintas", "brand:wikidata": "Q1092571"}, "geometry": {"type": "Point", "coordinates": [-97.22943, 37.7487564]}},
{"type": "Feature", "id": "NIXbtTg0rMA2Zx21tHD4pGhX6ig=", "properties": {"ref": "623", "@spider": "cintas", "addr:full": "1312 Capital Boulevard Suite 102", "addr:city": "Reno", "addr:state": "NV", "addr:postcode": "89502", "addr:country": "US", "name": "Cintas", "phone": "775-352-1753", "brand": "Cintas", "brand:wikidata": "Q1092571"}, "geometry": {"type": "Point", "coordinates": [-119.749275, 39.5049]}},
{"type": "Feature", "id": "fzDTkTQCRjJW04zvHEObRzxeL-c=", "properties": {"ref": "0019P", "@spider": "cintas", "addr:full": "1331 Armory Rd", "addr:city": "Salina", "addr:state": "KS", "addr:postcode": "67401", "addr:country": "US", "name": "Cintas", "phone": "785-376-0522", "brand": "Cintas", "brand:wikidata": "Q1092571"}, "geometry": {"type": "Point", "coordinates": [-97.62748, 38.831356]}},
{"type": "Feature", "id": "EY2OLS9kSzV6LlOmbWETvdB4ExQ=", "properties": {"ref": "0001K", "@spider": "cintas", "addr:full": "1745 N Reynolds", "addr:city": "Kansas City", "addr:state": "MO", "addr:postcode": "64120", "addr:country": "US", "name": "Cintas", "phone": "816-231-6500", "brand": "Cintas", "brand:wikidata": "Q1092571"}, "geometry": {"type": "Point", "coordinates": [-94.50847, 39.14101]}},
{"type": "Feature", "id": "zj3aNAMoE7WpZ9Is-Ifk6qWlloI=", "properties": {"ref": "430", "@spider": "cintas", "addr:full": "2050 Kansas City Rd", "addr:city": "Olathe", "addr:state": "KS", "addr:postcode": "66051", "addr:country": "US", "name": "Cintas", "phone": "913-782-8333", "brand": "Cintas", "brand:wikidata": "Q1092571"}, "geometry": {"type": "Point", "coordinates": [-94.7838058, 38.9054871]}},
{"type": "Feature", "id": "Oui2PukwZG9Mn_WYwG2wPlGQpWE=", "properties": {"ref": "479", "@spider": "cintas", "addr:full": "10060 Lackman Rd", "addr:city": "Lenexa", "addr:state": "KS", "addr:postcode": "66219", "addr:country": "US", "name": "Cintas", "phone": "913-441-4477", "brand": "Cintas", "brand:wikidata": "Q1092571"}, "geometry": {"type": "Point", "coordinates": [-94.76157, 38.94661]}},
{"type": "Feature", "id": "GI3NkVmuj8zscn8csXIul0e_0Rs=", "properties": {"ref": "00F58", "@spider": "cintas", "addr:full": "15533 W 100th Terrace", "addr:city": "Lenexa", "addr:state": "KS", "addr:postcode": "66219", "addr:country": "US", "name": "Cintas", "phone": "913-441-4477", "brand": "Cintas", "brand:wikidata": "Q1092571"}, "geometry": {"type": "Point", "coordinates": [-94.76515, 38.94594]}},
{"type": "Feature", "id": "6c7dsae8dFpKQ0MEvBhdDbp1V2k=", "properties": {"ref": "449", "@spider": "cintas", "addr:full": "1200 S 2nd St", "addr:city": "Dodge City", "addr:state": "KS", "addr:postcode": "67801", "addr:country": "US", "name": "Cintas", "phone": "620-225-6450", "brand": "Cintas", "brand:wikidata": "Q1092571"}, "geometry": {"type": "Point", "coordinates": [-100.018707, 37.7329674]}},
{"type": "Feature", "id": "M0VyqefbZz7rO2CSNrYqBCxtABo=", "properties": {"ref": "0055M", "@spider": "cintas", "addr:full": "70 Sir Noahs Way", "addr:city": "Somerset", "addr:state": "KY", "addr:postcode": "42503", "addr:country": "US", "name": "Cintas", "phone": "606-679-3703", "brand": "Cintas", "brand:wikidata": "Q1092571"}, "geometry": {"type": "Point", "coordinates": [-84.63733, 37.08488]}},
{"type": "Feature", "id": "2lGp4y39BGoU1VZNLejL2FyyJCA=", "properties": {"ref": "904", "@spider": "cintas", "addr:full": "5200 Charter Oak Dr", "addr:city": "Paducah", "addr:state": "KY", "addr:postcode": "42001", "addr:country": "US", "name": "Cintas", "phone": "270-443-7192", "brand": "Cintas", "brand:wikidata": "Q1092571"}, "geometry": {"type": "Point", "coordinates": [-88.6823349, 37.09549]}},
{"type": "Feature", "id": "34q0KzH_kW8ZtjOM9RkoU45w_mQ=", "properties": {"ref": "302", "@spider": "cintas", "addr:full": "3916 Oaklawn Dr", "addr:city": "Louisville", "addr:state": "KY", "addr:postcode": "40219", "addr:country": "US", "name": "Cintas", "phone": "502-964-6449", "brand": "Cintas", "brand:wikidata": "Q1092571"}, "geometry": {"type": "Point", "coordinates": [-85.68763, 38.1478271]}},
{"type": "Feature", "id": "s6wDDnyK26saBhjNRBxyDKHFysY=", "properties": {"ref": "326", "@spider": "cintas", "addr:full": "2900 Blankenbaker Pkwy Suite 120", "addr:city": "Louisville", "addr:state": "KY", "addr:postcode": "40299", "addr:country": "US", "name": "Cintas", "phone": "502-964-7337", "brand": "Cintas", "brand:wikidata": "Q1092571"}, "geometry": {"type": "Point", "coordinates": [-85.54014, 38.20097]}},
{"type": "Feature", "id": "1ouOdwN6RMPzwyuY1B28F_O12t4=", "properties": {"ref": "0071P", "@spider": "cintas", "addr:full": "1720 Research Drive", "addr:city": "Louisville", "addr:state": "KY", "addr:postcode": "40299", "addr:country": "US", "name": "Cintas", "phone": "502-776-1551", "brand": "Cintas", "brand:wikidata": "Q1092571"}, "geometry": {"type": "Point", "coordinates": [-85.5566559, 38.22127]}},
{"type": "Feature", "id": "4HhaX4_JMTMXkS1seqyms5GKOL0=", "properties": {"ref": "314", "@spider": "cintas", "addr:full": "7233 Enterprise Park Dr", "addr:city": "Evansville", "addr:state": "IN", "addr:postcode": "47715", "addr:country": "US", "name": "Cintas", "phone": "812-471-0870", "brand": "Cintas", "brand:wikidata": "Q1092571"}, "geometry": {"type": "Point", "coordinates": [-87.46353, 37.99504]}},
{"type": "Feature", "id": "6YYKcVScclLeV5wSdKJ1xTDkQOU=", "properties": {"ref": "383", "@spider": "cintas", "addr:full": "6149 Wedeking Ave Suite B", "addr:city": "Evansville", "addr:state": "IN", "addr:postcode": "47715", "addr:country": "US", "name": "Cintas", "phone": "812-213-8800", "brand": "Cintas", "brand:wikidata": "Q1092571"}, "geometry": {"type": "Point", "coordinates": [-87.4754639, 37.9959068]}},
{"type": "Feature", "id": "MJzE4dJvQnSw0SkSu9UMrS20PQM=", "properties": {"ref": "312", "@spider": "cintas", "addr:full": "100 Westhampton Dr", "addr:city": "Lexington", "addr:state": "KY", "addr:postcode": "40511", "addr:country": "US", "name": "Cintas", "phone": "859-252-8487", "brand": "Cintas", "brand:wikidata": "Q1092571"}, "geometry": {"type": "Point", "coordinates": [-84.54065, 38.0778847]}},
{"type": "Feature", "id": "4WA9QDvjbzOdedyKgVZW6AB7ndQ=", "properties": {"ref": "00K62", "@spider": "cintas", "addr:full": "305 Peterson Dr", "addr:city": "Elizabethtown", "addr:state": "KY", "addr:postcode": "42701", "addr:country": "US", "name": "Cintas", "phone": "270-737-3100", "brand": "Cintas", "brand:wikidata": "Q1092571"}, "geometry": {"type": "Point", "coordinates": [-85.90338, 37.6838074]}},
{"type": "Feature", "id": "wDed2iziexSAp-TqNPC-Js8B__c=", "properties": {"ref": "0015J", "@spider": "cintas", "addr:full": "101 23rd St", "addr:city": "Corbin", "addr:state": "KY", "addr:postcode": "40701", "addr:country": "US", "name": "Cintas", "phone": "606-523-0878", "brand": "Cintas", "brand:wikidata": "Q1092571"}, "geometry": {"type": "Point", "coordinates": [-84.09093, 36.9247246]}},
{"type": "Feature", "id": "CBm8tdy8aRgDy2TW9qycIkc6xuk=", "properties": {"ref": "288", "@spider": "cintas", "addr:full": "1526 Madison Avenue", "addr:city": "Huntington", "addr:state": "WV", "addr:postcode": "25704", "addr:country": "US", "name": "Cintas", "phone": "304-710-3200", "brand": "Cintas", "brand:wikidata": "Q1092571"}, "geometry": {"type": "Point", "coordinates": [-82.4807358, 38.4090576]}},
{"type": "Feature", "id": "Z6jNFulpdQIKPIQ7eT9gSZcGNyM=", "properties": {"ref": "311", "@spider": "cintas", "addr:full": "4125 Winchester Ave", "addr:city": "Ashland", "addr:state": "KY", "addr:postcode": "41101", "addr:country": "US", "name": "Cintas", "phone": "606-325-3777", "brand": "Cintas", "brand:wikidata": "Q1092571"}, "geometry": {"type": "Point", "coordinates": [-82.61162, 38.451828]}},
{"type": "Feature", "id": "5ckip3GPx0kl_1oqAotsTvw8P88=", "properties": {"ref": "541", "@spider": "cintas", "addr:full": "1101 Talbot Ave", "addr:city": "Thibodaux", "addr:state": "LA", "addr:postcode": "70301", "addr:country": "US", "name": "Cintas", "phone": "985-446-8664", "brand": "Cintas", "brand:wikidata": "Q1092571"}, "geometry": {"type": "Point", "coordinates": [-90.84123, 29.7767639]}},
{"type": "Feature", "id": "Pg0q4csiD_ssYiv86kyEmohbUYI=", "properties": {"ref": "0016H", "@spider": "cintas", "addr:full": "100 Machine Loop Road", "addr:city": "Scott", "addr:state": "LA", "addr:postcode": "70583", "addr:country": "US", "name": "Cintas", "phone": "337-735-3630", "brand": "Cintas", "brand:wikidata": "Q1092571"}, "geometry": {"type": "Point", "coordinates": [-92.1039352, 30.2364655]}},
{"type": "Feature", "id": "ssD_B03oS1Hy_0KW2CLqnREUDBg=", "properties": {"ref": "543", "@spider": "cintas", "addr:full": "101 Venture Way", "addr:city": "Lafayette", "addr:state": "LA", "addr:postcode": "70507", "addr:country": "US", "name": "Cintas", "phone": "337-234-8531", "brand": "Cintas", "brand:wikidata": "Q1092571"}, "geometry": {"type": "Point", "coordinates": [-92.0369644, 30.2735386]}},
{"type": "Feature", "id": "FXKBBGD1VaVzPR4wEGVyaTUztCA=", "properties": {"ref": "0029K", "@spider": "cintas", "addr:full": "120 Canvasback Dr", "addr:city": "Saint Rose", "addr:state": "LA", "addr:postcode": "70087", "addr:country": "US", "name": "Cintas", "phone": "504-464-1593", "brand": "Cintas", "brand:wikidata": "Q1092571"}, "geometry": {"type": "Point", "coordinates": [-90.28321, 29.9855843]}},
{"type": "Feature", "id": "ZNhW80638nq2xiOSHEC0u3LJExg=", "properties": {"ref": "544", "@spider": "cintas", "addr:full": "625 Elmwood Park Blvd", "addr:city": "Harahan", "addr:state": "LA", "addr:postcode": "70123", "addr:country": "US", "name": "Cintas", "phone": "504-733-8555", "brand": "Cintas", "brand:wikidata": "Q1092571"}, "geometry": {"type": "Point", "coordinates": [-90.1851349, 29.9528751]}},
{"type": "Feature", "id": "elJjyzu0Ebw0T3DadlVtu8wCEOQ=", "properties": {"ref": "252", "@spider": "cintas", "addr:full": "1140 Expressway Drive", "addr:city": "Pineville", "addr:state": "LA", "addr:postcode": "71360", "addr:country": "US", "name": "Cintas", "phone": "318-443-5332", "brand": "Cintas", "brand:wikidata": "Q1092571"}, "geometry": {"type": "Point", "coordinates": [-92.42326, 31.3216553]}},
{"type": "Feature", "id": "WQhjzi0ODQBVh_NjUNKkDAdVRkQ=", "properties": {"ref": "542", "@spider": "cintas", "addr:full": "408 Pryce St", "addr:city": "Lake Charles", "addr:state": "LA", "addr:postcode": "70601", "addr:country": "US", "name": "Cintas", "phone": "337-439-5755", "brand": "Cintas", "brand:wikidata": "Q1092571"}, "geometry": {"type": "Point", "coordinates": [-93.21509, 30.233717]}},
{"type": "Feature", "id": "jXymLKyrVkj7h6ZWCuGt_HebXpQ=", "properties": {"ref": "547", "@spider": "cintas", "addr:full": "4100 Viking Dr", "addr:city": "Bossier City", "addr:state": "LA", "addr:postcode": "71111", "addr:country": "US", "name": "Cintas", "phone": "318-752-0460", "brand": "Cintas", "brand:wikidata": "Q1092571"}, "geometry": {"type": "Point", "coordinates": [-93.68942, 32.55032]}},
{"type": "Feature", "id": "Ch2_1SIza299X2e6y2gG_UKVHEE=", "properties": {"ref": "263", "@spider": "cintas", "addr:full": "11401 Industriplex Blvd Suite 5", "addr:city": "Baton Rouge", "addr:state": "LA", "addr:postcode": "70806", "addr:country": "US", "name": "Cintas", "phone": "225-346-4642", "brand": "Cintas", "brand:wikidata": "Q1092571"}, "geometry": {"type": "Point", "coordinates": [-91.0545044, 30.3883]}},
{"type": "Feature", "id": "C_bYHWSnuWyixuzHShMK_SZZdCY=", "properties": {"ref": "540", "@spider": "cintas", "addr:full": "10220 Perkins Rd", "addr:city": "Baton Rouge", "addr:state": "LA", "addr:postcode": "70810", "addr:country": "US", "name": "Cintas", "phone": "225-767-8860", "brand": "Cintas", "brand:wikidata": "Q1092571"}, "geometry": {"type": "Point", "coordinates": [-91.09539, 30.37725]}},
{"type": "Feature", "id": "Ny5jNmOW44qtt7Xh8iyjQzbWEjU=", "properties": {"ref": "549", "@spider": "cintas", "addr:full": "205 N 19th St", "addr:city": "Baton Rouge", "addr:state": "LA", "addr:postcode": "70806", "addr:country": "US", "name": "Cintas", "phone": "225-383-5267", "brand": "Cintas", "brand:wikidata": "Q1092571"}, "geometry": {"type": "Point", "coordinates": [-91.17025, 30.4494438]}},
{"type": "Feature", "id": "FH-DxrjJQxyE3Up2q0YTaGs5XcU=", "properties": {"ref": "0065H", "@spider": "cintas", "addr:full": "293 Target Industrial Circle", "addr:city": "Bangor", "addr:state": "ME", "addr:postcode": "4401", "addr:country": "US", "name": "Cintas", "phone": "207-854-0000", "brand": "Cintas", "brand:wikidata": "Q1092571"}, "geometry": {"type": "Point", "coordinates": [-68.82763, 44.78916]}},
{"type": "Feature", "id": "39QWyDojVD4HUqKu8ZoB3Zfs5n8=", "properties": {"ref": "145", "@spider": "cintas", "addr:full": "9022 Euclid Ave", "addr:city": "Manassas", "addr:state": "VA", "addr:postcode": "20110", "addr:country": "US", "name": "Cintas", "phone": "703-881-4370", "brand": "Cintas", "brand:wikidata": "Q1092571"}, "geometry": {"type": "Point", "coordinates": [-77.45308, 38.7626]}},
{"type": "Feature", "id": "bVU7-PXgaN42HVSWfNiSoxtlcU4=", "properties": {"ref": "0044F", "@spider": "cintas", "addr:full": "6313 Gravel Avenue", "addr:city": "Alexandria", "addr:state": "VA", "addr:postcode": "22310", "addr:country": "US", "name": "Cintas", "phone": "757-484-1116", "brand": "Cintas", "brand:wikidata": "Q1092571"}, "geometry": {"type": "Point", "coordinates": [-77.15844, 38.7703362]}},
{"type": "Feature", "id": "Y82spnLAjgVHrrpQ9TvHf9L77Uo=", "properties": {"ref": "0080N", "@spider": "cintas", "addr:full": "15100 Enterprise Ct Suite 200", "addr:city": "Chantilly", "addr:state": "VA", "addr:postcode": "20151", "addr:country": "US", "name": "Cintas", "phone": "571-446-6902", "brand": "Cintas", "brand:wikidata": "Q1092571"}, "geometry": {"type": "Point", "coordinates": [-77.46843, 38.9069824]}},
{"type": "Feature", "id": "o25ClXExfCVgi1jZbUw4Kx5UrU4=", "properties": {"ref": "393", "@spider": "cintas", "addr:full": "6520 Hughesville Industrial Park Rd", "addr:city": "Hughesville", "addr:state": "MD", "addr:postcode": "20637", "addr:country": "US", "name": "Cintas", "phone": "301-843-1076", "brand": "Cintas", "brand:wikidata": "Q1092571"}, "geometry": {"type": "Point", "coordinates": [-76.77233, 38.53335]}},
{"type": "Feature", "id": "B0WFFVmR4xLob498Rxas-KZc9SU=", "properties": {"ref": "387", "@spider": "cintas", "addr:full": "3951 Dartmouth Ct", "addr:city": "Frederick", "addr:state": "MD", "addr:postcode": "21703", "addr:country": "US", "name": "Cintas", "phone": "301-874-8352", "brand": "Cintas", "brand:wikidata": "Q1092571"}, "geometry": {"type": "Point", "coordinates": [-77.5048752, 39.3380432]}},
{"type": "Feature", "id": "MDMFRbOPCtTqCgm-h1sJbhT0Kmo=", "properties": {"ref": "386", "@spider": "cintas", "addr:full": "11800 Upper Potomac Industrial Park St", "addr:city": "Cumberland", "addr:state": "MD", "addr:postcode": "21502", "addr:country": "US", "name": "Cintas", "phone": "301-729-6800", "brand": "Cintas", "brand:wikidata": "Q1092571"}, "geometry": {"type": "Point", "coordinates": [-78.80286, 39.6299744]}},
{"type": "Feature", "id": "kembxEMwrPqbqhqzcW-zLSljVYE=", "properties": {"ref": "617", "@spider": "cintas", "addr:full": "481 Pleasant St", "addr:city": "Lee", "addr:state": "MA", "addr:postcode": "1238", "addr:country": "US", "name": "Cintas", "phone": "413-243-1363", "brand": "Cintas", "brand:wikidata": "Q1092571"}, "geometry": {"type": "Point", "coordinates": [-73.24402, 42.287117]}},
{"type": "Feature", "id": "lOwSFA1TPRD_JMv_YDGT6-OUYbM=", "properties": {"ref": "0032N", "@spider": "cintas", "addr:full": "9085 Twin Oaks Dr", "addr:city": "Windsor", "addr:state": "ON", "addr:postcode": "N8N 5B8", "addr:country": "US", "name": "Cintas", "phone": "519-979-5913", "brand": "Cintas", "brand:wikidata": "Q1092571"}, "geometry": {"type": "Point", "coordinates": [-82.91469, 42.29164]}},
{"type": "Feature", "id": "hZQDENTfKUPB3dYgAJUuy0wVTyg=", "properties": {"ref": "354", "@spider": "cintas", "addr:full": "51518 Quadrate Dr", "addr:city": "Macomb", "addr:state": "MI", "addr:postcode": "48042", "addr:country": "US", "name": "Cintas", "phone": "586-677-9900", "brand": "Cintas", "brand:wikidata": "Q1092571"}, "geometry": {"type": "Point", "coordinates": [-82.9624252, 42.67595]}},
{"type": "Feature", "id": "ycJ1UGV5a6Opzm60f7IIVYD584c=", "properties": {"ref": "847", "@spider": "cintas", "addr:full": "1775 Sylvestre Dr", "addr:city": "Tecumseh", "addr:state": "ON", "addr:postcode": "N8N 2L9", "addr:country": "US", "name": "Cintas", "phone": "519-735-2114", "brand": "Cintas", "brand:wikidata": "Q1092571"}, "geometry": {"type": "Point", "coordinates": [-82.87626, 42.3012848]}},
{"type": "Feature", "id": "cWND5n0YQCofGQKAzo8veYGjqUI=", "properties": {"ref": "724", "@spider": "cintas", "addr:full": "4400 Dove Rd", "addr:city": "Port Huron", "addr:state": "MI", "addr:postcode": "48060", "addr:country": "US", "name": "Cintas", "phone": "810-364-1276", "brand": "Cintas", "brand:wikidata": "Q1092571"}, "geometry": {"type": "Point", "coordinates": [-82.49841, 42.9508553]}},
{"type": "Feature", "id": "U-SsIFXixVSkVW6trj--iCt90aI=", "properties": {"ref": "346", "@spider": "cintas", "addr:full": "421 Bayliss St", "addr:city": "Midland", "addr:state": "MI", "addr:postcode": "48640", "addr:country": "US", "name": "Cintas", "phone": "989-835-7709", "brand": "Cintas", "brand:wikidata": "Q1092571"}, "geometry": {"type": "Point", "coordinates": [-84.2243, 43.62295]}},
{"type": "Feature", "id": "g0MC9OrjcSJf5N0QnlP3Vmwa0XE=", "properties": {"ref": "725", "@spider": "cintas", "addr:full": "2408 South Canal Rd STE C", "addr:city": "Lansing", "addr:state": "MI", "addr:postcode": "48917", "addr:country": "US", "name": "Cintas", "phone": "517-322-7700", "brand": "Cintas", "brand:wikidata": "Q1092571"}, "geometry": {"type": "Point", "coordinates": [-84.6634445, 42.7078857]}},
{"type": "Feature", "id": "82q8psBgucgh6J0wyRPe0MpkMv0=", "properties": {"ref": "301", "@spider": "cintas", "addr:full": "3149 Wilson Dr NW", "addr:city": "Walker", "addr:state": "MI", "addr:postcode": "49544", "addr:country": "US", "name": "Cintas", "phone": "616-791-6300", "brand": "Cintas", "brand:wikidata": "Q1092571"}, "geometry": {"type": "Point", "coordinates": [-85.78668, 43.0226936]}},
{"type": "Feature", "id": "iPGGbIYyvTKemH85E5Qnd9i-0YM=", "properties": {"ref": "305", "@spider": "cintas", "addr:full": "5079 33rd St SE", "addr:city": "Kentwood", "addr:state": "MI", "addr:postcode": "49512", "addr:country": "US", "name": "Cintas", "phone": "616-942-9225", "brand": "Cintas", "brand:wikidata": "Q1092571"}, "geometry": {"type": "Point", "coordinates": [-85.54207, 42.9032974]}},
{"type": "Feature", "id": "hUVvNDRh_bQxlb5sWNxkcfohJA8=", "properties": {"ref": "308", "@spider": "cintas", "addr:full": "4162 S Dye Rd", "addr:city": "Swartz Creek", "addr:state": "MI", "addr:postcode": "48473", "addr:country": "US", "name": "Cintas", "phone": "810-230-5580", "brand": "Cintas", "brand:wikidata": "Q1092571"}, "geometry": {"type": "Point", "coordinates": [-83.78289, 42.9681473]}},
{"type": "Feature", "id": "i1LIbPTgUjwUwkI0v9WJ8ce77rw=", "properties": {"ref": "729", "@spider": "cintas", "addr:full": "6881 N US 131", "addr:city": "Fife Lake", "addr:state": "MI", "addr:postcode": "49633", "addr:country": "US", "name": "Cintas", "phone": "231-879-3163", "brand": "Cintas", "brand:wikidata": "Q1092571"}, "geometry": {"type": "Point", "coordinates": [-85.35133, 44.5860558]}},
{"type": "Feature", "id": "navUU7LX1W9pW-GqYbku7fKCu-c=", "properties": {"ref": "459", "@spider": "cintas", "addr:full": "3517 West Red Iron Dr", "addr:city": "Webb City", "addr:state": "MO", "addr:postcode": "64870", "addr:country": "US", "name": "Cintas", "phone": "417-781-8011", "brand": "Cintas", "brand:wikidata": "Q1092571"}, "geometry": {"type": "Point", "coordinates": [-94.4602661, 37.1219826]}},
{"type": "Feature", "id": "qJK_UTbDguIsA4iE6fDF3A6EbSs=", "properties": {"ref": "0002K", "@spider": "cintas", "addr:full": "2624 Park Dr", "addr:city": "Owatonna", "addr:state": "MN", "addr:postcode": "55060", "addr:country": "US", "name": "Cintas", "phone": "507-451-5710", "brand": "Cintas", "brand:wikidata": "Q1092571"}, "geometry": {"type": "Point", "coordinates": [-93.26048, 44.09248]}},
{"type": "Feature", "id": "RWzdCZyrsPvxvDO1vGTfnB2pXho=", "properties": {"ref": "448", "@spider": "cintas", "addr:full": "634 Lambert Pointe Dr", "addr:city": "Hazelwood", "addr:state": "MO", "addr:postcode": "63042", "addr:country": "US", "name": "Cintas", "phone": "314-426-7100", "brand": "Cintas", "brand:wikidata": "Q1092571"}, "geometry": {"type": "Point", "coordinates": [-90.37788, 38.77406]}},
{"type": "Feature", "id": "zMuQatUjuXqR0uYnxLDZ0LnD4zk=", "properties": {"ref": "452", "@spider": "cintas", "addr:full": "3750 Mueller Rd", "addr:city": "St Charles", "addr:state": "MO", "addr:postcode": "63301", "addr:country": "US", "name": "Cintas", "phone": "636-947-0030", "brand": "Cintas", "brand:wikidata": "Q1092571"}, "geometry": {"type": "Point", "coordinates": [-90.50271, 38.8232346]}},
{"type": "Feature", "id": "by2K4VTbXNRJwbYfr87NSg1AW2E=", "properties": {"ref": "731", "@spider": "cintas", "addr:full": "6200 Olive Blvd", "addr:city": "University City", "addr:state": "MO", "addr:postcode": "63130", "addr:country": "US", "name": "Cintas", "phone": "314-862-1010", "brand": "Cintas", "brand:wikidata": "Q1092571"}, "geometry": {"type": "Point", "coordinates": [-90.29884, 38.660305]}},
{"type": "Feature", "id": "GD7nJugVWjRiHfrRqzSFoPUkrSo=", "properties": {"ref": "0006K", "@spider": "cintas", "addr:full": "3246 E Hwy 7 Suite 100", "addr:city": "Montevideo", "addr:state": "MN", "addr:postcode": "56265", "addr:country": "US", "name": "Cintas", "phone": "320-269-5557", "brand": "Cintas", "brand:wikidata": "Q1092571"}, "geometry": {"type": "Point", "coordinates": [-95.68584, 44.94831]}},
{"type": "Feature", "id": "SHT7x4iHeCZ5Z3FGTXTOf4ntF_s=", "properties": {"ref": "177", "@spider": "cintas", "addr:full": "3220 Leonard Rd", "addr:city": "St Joseph", "addr:state": "MO", "addr:postcode": "64503", "addr:country": "US", "name": "Cintas", "phone": "816-232-8401", "brand": "Cintas", "brand:wikidata": "Q1092571"}, "geometry": {"type": "Point", "coordinates": [-94.7877655, 39.736763]}},
{"type": "Feature", "id": "BQaf9R4VWp1IMXA_Vdjqlcel0uc=", "properties": {"ref": "569", "@spider": "cintas", "addr:full": "4600 E Mustard Way", "addr:city": "Springfield", "addr:state": "MO", "addr:postcode": "65803", "addr:country": "US", "name": "Cintas", "phone": "417-831-4040", "brand": "Cintas", "brand:wikidata": "Q1092571"}, "geometry": {"type": "Point", "coordinates": [-93.19758, 37.2443237]}},
{"type": "Feature", "id": "ia4FyDqmVx8TQqh_3ynfzyduWNM=", "properties": {"ref": "0083P", "@spider": "cintas", "addr:full": "1711 N Barnes", "addr:city": "Springfield", "addr:state": "MO", "addr:postcode": "65803", "addr:country": "US", "name": "Cintas", "phone": "417-865-6185", "brand": "Cintas", "brand:wikidata": "Q1092571"}, "geometry": {"type": "Point", "coordinates": [-93.2517242, 37.2282753]}},
{"type": "Feature", "id": "ss14X5_C5clKH98QjRYC2aqiKNI=", "properties": {"ref": "210", "@spider": "cintas", "addr:full": "3894 Beasley Rd", "addr:city": "Jackson", "addr:state": "MS", "addr:postcode": "39213", "addr:country": "US", "name": "Cintas", "phone": "601-366-0667", "brand": "Cintas", "brand:wikidata": "Q1092571"}, "geometry": {"type": "Point", "coordinates": [-90.2254944, 32.38582]}},
{"type": "Feature", "id": "FP086_E_r6Ucx__2RcpsnJaaAnI=", "properties": {"ref": "0046M", "@spider": "cintas", "addr:full": "240 W Mitchell Ave", "addr:city": "Jackson", "addr:state": "MS", "addr:postcode": "39213", "addr:country": "US", "name": "Cintas", "phone": "601-366-5204", "brand": "Cintas", "brand:wikidata": "Q1092571"}, "geometry": {"type": "Point", "coordinates": [-90.1870346, 32.3365631]}},
{"type": "Feature", "id": "nnn_2pea4moqfTw5V1syX3ZYMgg=", "properties": {"ref": "00J71", "@spider": "cintas", "addr:full": "106 Business Park Drive", "addr:city": "Ridgeland", "addr:state": "MS", "addr:postcode": "39157", "addr:country": "US", "name": "Cintas", "phone": "601-693-6121", "brand": "Cintas", "brand:wikidata": "Q1092571"}, "geometry": {"type": "Point", "coordinates": [-90.1743, 32.40581]}},
{"type": "Feature", "id": "3OpMdNqdo8dkLN0maVGy6ROxqn4=", "properties": {"ref": "00J66", "@spider": "cintas", "addr:full": "112 E 8th Ave", "addr:city": "Petal", "addr:state": "MS", "addr:postcode": "39465", "addr:country": "US", "name": "Cintas", "phone": "601-544-3623", "brand": "Cintas", "brand:wikidata": "Q1092571"}, "geometry": {"type": "Point", "coordinates": [-89.26168, 31.3369045]}},
{"type": "Feature", "id": "fIdBV3cJPwCr5ElqSTk4q66eM-w=", "properties": {"ref": "0045M", "@spider": "cintas", "addr:full": "367 Garfield Ave", "addr:city": "Duluth", "addr:state": "MN", "addr:postcode": "55802", "addr:country": "US", "name": "Cintas", "phone": "218-727-2954", "brand": "Cintas", "brand:wikidata": "Q1092571"}, "geometry": {"type": "Point", "coordinates": [-92.11365, 46.76414]}},
{"type": "Feature", "id": "MFqFt8PeKgLcKs3BJ02G52_G5uk=", "properties": {"ref": "379", "@spider": "cintas", "addr:full": "8771 E Columbus CT", "addr:city": "Columbia", "addr:state": "MO", "addr:postcode": "65201", "addr:country": "US", "name": "Cintas", "phone": "573-441-2440", "brand": "Cintas", "brand:wikidata": "Q1092571"}, "geometry": {"type": "Point", "coordinates": [-92.203186, 38.95306]}},
{"type": "Feature", "id": "Jrpl8LCUgjIVzlYW0nENzqppdHM=", "properties": {"ref": "00D71", "@spider": "cintas", "addr:full": "140 Sheridan Street", "addr:city": "Cape Girardeau", "addr:state": "MO", "addr:postcode": "63703", "addr:country": "US", "name": "Cintas", "phone": "573-334-6843", "brand": "Cintas", "brand:wikidata": "Q1092571"}, "geometry": {"type": "Point", "coordinates": [-89.54589, 37.3034821]}},
{"type": "Feature", "id": "9oItdtB6SUNiEo2VfS-G1BxgIT4=", "properties": {"ref": "240", "@spider": "cintas", "addr:full": "14081 Fastway Ln", "addr:city": "Gulfport", "addr:state": "MS", "addr:postcode": "39503", "addr:country": "US", "name": "Cintas", "phone": "228-822-0065", "brand": "Cintas", "brand:wikidata": "Q1092571"}, "geometry": {"type": "Point", "coordinates": [-89.07223, 30.4363079]}},
{"type": "Feature", "id": "OUOaUCKHEqNLCLgD9m01SHVg2d0=", "properties": {"ref": "212", "@spider": "cintas", "addr:full": "5970 Greenwood Pkwy", "addr:city": "Bessemer", "addr:state": "AL", "addr:postcode": "35023", "addr:country": "US", "name": "Cintas", "phone": "205-424-2250", "brand": "Cintas", "brand:wikidata": "Q1092571"}, "geometry": {"type": "Point", "coordinates": [-86.9206, 33.3458328]}},
{"type": "Feature", "id": "sKrl3No4nDDWhu6BSsxtgQS-_rU=", "properties": {"ref": "247", "@spider": "cintas", "addr:full": "276 Cahaba Valley Cir", "addr:city": "Pelham", "addr:state": "AL", "addr:postcode": "35124", "addr:country": "US", "name": "Cintas", "phone": "205-403-0911", "brand": "Cintas", "brand:wikidata": "Q1092571"}, "geometry": {"type": "Point", "coordinates": [-86.78733, 33.341423]}},
{"type": "Feature", "id": "EAMoqyzGqDl4q01YqLBxiPn9MpI=", "properties": {"ref": "59", "@spider": "cintas", "addr:full": "2460 Kiel Way", "addr:city": "Las Vegas", "addr:state": "NV", "addr:postcode": "89030", "addr:country": "US", "name": "Cintas", "phone": "702-649-7511", "brand": "Cintas", "brand:wikidata": "Q1092571"}, "geometry": {"type": "Point", "coordinates": [-115.139442, 36.20578]}},
{"type": "Feature", "id": "ZxW457SRzs2A9mv8bhEZ_Yo7vDY=", "properties": {"ref": "187", "@spider": "cintas", "addr:full": "730 Valle Verde Dr", "addr:city": "Henderson", "addr:state": "NV", "addr:postcode": "89014", "addr:country": "US", "name": "Cintas", "phone": "702-435-2192", "brand": "Cintas", "brand:wikidata": "Q1092571"}, "geometry": {"type": "Point", "coordinates": [-115.066154, 36.0704041]}},
{"type": "Feature", "id": "02jL4Qp461N31vxiAEqCIarPR60=", "properties": {"ref": "0020M", "@spider": "cintas", "addr:full": "4670 Vandenberg Drive", "addr:city": "North Las Vegas", "addr:state": "NV", "addr:postcode": "89081", "addr:country": "US", "name": "Cintas", "phone": "702-677-3000", "brand": "Cintas", "brand:wikidata": "Q1092571"}, "geometry": {"type": "Point", "coordinates": [-115.085709, 36.2457657]}},
{"type": "Feature", "id": "Wm8hpOAymxOltN_06_QvNwAlHhE=", "properties": {"ref": "532", "@spider": "cintas", "addr:full": "436 Dora Hwy", "addr:city": "Pulaski", "addr:state": "VA", "addr:postcode": "24301", "addr:country": "US", "name": "Cintas", "phone": "540-980-1655", "brand": "Cintas", "brand:wikidata": "Q1092571"}, "geometry": {"type": "Point", "coordinates": [-80.7747, 37.0448647]}},
{"type": "Feature", "id": "U1moMvxdgUkBZP5cjsVSXBORi0c=", "properties": {"ref": "391", "@spider": "cintas", "addr:full": "2707 Smithfield Rd", "addr:city": "Portsmouth", "addr:state": "VA", "addr:postcode": "23702", "addr:country": "US", "name": "Cintas", "phone": "757-485-1100", "brand": "Cintas", "brand:wikidata": "Q1092571"}, "geometry": {"type": "Point", "coordinates": [-76.33966, 36.7945824]}},
{"type": "Feature", "id": "Uiqgl3hDOFZs-uE3pu7b7e_RJgE=", "properties": {"ref": "0036J", "@spider": "cintas", "addr:full": "701 Flag Stone Way STE C", "addr:city": "Newport News", "addr:state": "VA", "addr:postcode": "23608", "addr:country": "US", "name": "Cintas", "phone": "757-723-9111", "brand": "Cintas", "brand:wikidata": "Q1092571"}, "geometry": {"type": "Point", "coordinates": [-76.5315857, 37.1697922]}},
{"type": "Feature", "id": "zrBumLDm9KfHFr076tP1KY7Pn9I=", "properties": {"ref": "143", "@spider": "cintas", "addr:full": "12524 Kingston Ave", "addr:city": "Chester", "addr:state": "VA", "addr:postcode": "23836", "addr:country": "US", "name": "Cintas", "phone": "804-530-2601", "brand": "Cintas", "brand:wikidata": "Q1092571"}, "geometry": {"type": "Point", "coordinates": [-77.3469543, 37.35631]}},
{"type": "Feature", "id": "eWRKgsMMQ_ORW2eOjLgqhntVn1A=", "properties": {"ref": "00G46", "@spider": "cintas", "addr:full": "1708 W Hundred Rd", "addr:city": "Chester", "addr:state": "VA", "addr:postcode": "23836", "addr:country": "US", "name": "Cintas", "phone": "804-530-2605", "brand": "Cintas", "brand:wikidata": "Q1092571"}, "geometry": {"type": "Point", "coordinates": [-77.39175, 37.353508]}},
{"type": "Feature", "id": "oBCFfEck1BMo2ueUzVAAtUvPp_E=", "properties": {"ref": "524", "@spider": "cintas", "addr:full": "704 Industrial Ave", "addr:city": "Bedford", "addr:state": "VA", "addr:postcode": "24523", "addr:country": "US", "name": "Cintas", "phone": "540-586-3626", "brand": "Cintas", "brand:wikidata": "Q1092571"}, "geometry": {"type": "Point", "coordinates": [-79.53549, 37.3230934]}},
{"type": "Feature", "id": "eVA7oJ2ciikDydnCuK9CZ90XCsc=", "properties": {"ref": "0059P", "@spider": "cintas", "addr:full": "800 S Industry Way STE 330", "addr:city": "Meridian", "addr:state": "ID", "addr:postcode": "83651", "addr:country": "US", "name": "Cintas", "phone": "208-286-4750", "brand": "Cintas", "brand:wikidata": "Q1092571"}, "geometry": {"type": "Point", "coordinates": [-116.38604, 43.59725]}},
{"type": "Feature", "id": "uaNLQWdkrXP4qp3OWc9xky_znn4=", "properties": {"ref": "610", "@spider": "cintas", "addr:full": "2302 E Railroad St", "addr:city": "Nampa", "addr:state": "ID", "addr:postcode": "83687", "addr:country": "US", "name": "Cintas", "phone": "208-466-7088", "brand": "Cintas", "brand:wikidata": "Q1092571"}, "geometry": {"type": "Point", "coordinates": [-116.542282, 43.56988]}},
{"type": "Feature", "id": "ESAFvzEkEDbSAvjt4aPAN2MSIos=", "properties": {"ref": "606", "@spider": "cintas", "addr:full": "3808 N Sullivan Rd", "addr:city": "Spokane", "addr:state": "WA", "addr:postcode": "99216", "addr:country": "US", "name": "Cintas", "phone": "509-536-4818", "brand": "Cintas", "brand:wikidata": "Q1092571"}, "geometry": {"type": "Point", "coordinates": [-117.196144, 47.69047]}},
{"type": "Feature", "id": "htl6MPba3F_iFxg3PnD3bTkYD6M=", "properties": {"ref": "0024D", "@spider": "cintas", "addr:full": "3526 B St NW Suite 102", "addr:city": "Auburn", "addr:state": "WA", "addr:postcode": "98001", "addr:country": "US", "name": "Cintas", "phone": "425-609-7249", "brand": "Cintas", "brand:wikidata": "Q1092571"}, "geometry": {"type": "Point", "coordinates": [-122.230492, 47.33905]}},