{"type":"FeatureCollection","features":[{"type": "Feature", "id": "jtUt2fr5ghhz0NCDtrVfjXqcKCk=", "properties": {"ref": "1462", "@spider": "dm", "shop": "chemist", "addr:street": "M\u00fcnsterstra\u00dfe 5", "addr:city": "Castrop-Rauxel", "addr:postcode": "44575", "addr:country": "DE", "name": "dm-drogerie markt", "phone": "+4923059788257", "opening_hours": "Mo-Fr 08:30-19:00; Sa 08:30-17:00", "brand": "dm", "brand:wikidata": "Q266572", "nsi_id": "dm-64e7ae"}, "geometry": {"type": "Point", "coordinates": [7.310184, 51.548709]}},
{"type": "Feature", "id": "kKvlwzQpAXFu0ZAudhvP6uglG6Y=", "properties": {"ref": "1464", "@spider": "dm", "shop": "chemist", "addr:street": "Gierslinger Stra\u00dfe 3 a", "addr:city": "Niederkassel", "addr:postcode": "53859", "addr:country": "DE", "name": "dm-drogerie markt", "phone": "+4922085060851", "opening_hours": "Mo-Sa 08:00-20:00", "brand": "dm", "brand:wikidata": "Q266572", "nsi_id": "dm-64e7ae"}, "geometry": {"type": "Point", "coordinates": [7.0287247, 50.8298714]}},
{"type": "Feature", "id": "enB6GYXuKQxzSqDJCcriRkdHf5U=", "properties": {"ref": "1465", "@spider": "dm", "shop": "chemist", "addr:street": "Joseph-Schneider-Stra\u00dfe 1", "addr:city": "Limburg a. d. Lahn", "addr:postcode": "65549", "addr:country": "DE", "name": "dm-drogerie markt", "phone": "+4964312172629", "opening_hours": "Mo-Sa 08:00-20:00", "brand": "dm", "brand:wikidata": "Q266572", "nsi_id": "dm-64e7ae"}, "geometry": {"type": "Point", "coordinates": [8.0569491, 50.3838996]}},
{"type": "Feature", "id": "T2ddpvmozYH66e4APtrpx2spuCU=", "properties": {"ref": "1467", "@spider": "dm", "shop": "chemist", "addr:street": "Karl-Marx-Stra\u00dfe 92-98", "addr:city": "Berlin", "addr:postcode": "12043", "addr:country": "DE", "name": "dm-drogerie markt", "phone": "+493056824956", "opening_hours": "Mo-Sa 09:00-21:00", "brand": "dm", "brand:wikidata": "Q266572", "nsi_id": "dm-64e7ae"}, "geometry": {"type": "Point", "coordinates": [13.4360649, 52.4800091]}},
{"type": "Feature", "id": "rlWie_RGc1vbmNXvXQqeF4_1aaY=", "properties": {"ref": "1469", "@spider": "dm", "shop": "chemist", "addr:street": "Franz-Haniel-Stra\u00dfe 92", "addr:city": "Moers", "addr:postcode": "47443", "addr:country": "DE", "name": "dm-drogerie markt", "phone": "+4928418810992", "opening_hours": "Mo-Sa 08:00-20:00", "brand": "dm", "brand:wikidata": "Q266572", "nsi_id": "dm-64e7ae"}, "geometry": {"type": "Point", "coordinates": [6.6680742, 51.4560273]}},
{"type": "Feature", "id": "eisHi3Yy_MMhlOLJQjmFnIZltyU=", "properties": {"ref": "1470", "@spider": "dm", "shop": "chemist", "addr:street": "Bornstra\u00dfe 160", "addr:city": "Dortmund", "addr:postcode": "44145", "addr:country": "DE", "name": "dm-drogerie markt", "phone": "+492311897400", "opening_hours": "Mo-Sa 08:00-20:00", "brand": "dm", "brand:wikidata": "Q266572", "nsi_id": "dm-64e7ae"}, "geometry": {"type": "Point", "coordinates": [7.4723012, 51.5302142]}},
{"type": "Feature", "id": "ZuYKMoC8glOw7LfXP98AMRuKAME=", "properties": {"ref": "1471", "@spider": "dm", "shop": "chemist", "addr:street": "Amlingstadter Stra\u00dfe 47", "addr:city": "Hirschaid", "addr:postcode": "96114", "addr:country": "DE", "name": "dm-drogerie markt", "phone": "+4995434183385", "opening_hours": "Mo-Sa 08:00-20:00", "brand": "dm", "brand:wikidata": "Q266572", "nsi_id": "dm-64e7ae"}, "geometry": {"type": "Point", "coordinates": [10.9892856, 49.8290333]}},
{"type": "Feature", "id": "gHXPqx_f_EX4b4QxkOrz07ZiDVo=", "properties": {"ref": "1472", "@spider": "dm", "shop": "chemist", "addr:street": "Im Moorbusche 3", "addr:city": "Cremlingen", "addr:postcode": "38162", "addr:country": "DE", "name": "dm-drogerie markt", "phone": "+495306990338", "opening_hours": "Mo-Sa 08:00-20:00", "brand": "dm", "brand:wikidata": "Q266572", "nsi_id": "dm-64e7ae"}, "geometry": {"type": "Point", "coordinates": [10.6412577, 52.2517883]}},
{"type": "Feature", "id": "jvNU9D8IgFNkqe2JInmm_wsxQec=", "properties": {"ref": "1473", "@spider": "dm", "shop": "chemist", "addr:street": "In den Geld\u00e4ckern 6", "addr:city": "Eisenberg (Pfalz)", "addr:postcode": "67304", "addr:country": "DE", "name": "dm-drogerie markt", "phone": "+496351124370", "opening_hours": "Mo-Sa 08:00-20:00", "brand": "dm", "brand:wikidata": "Q266572", "nsi_id": "dm-64e7ae"}, "geometry": {"type": "Point", "coordinates": [8.0820099, 49.557078]}},
{"type": "Feature", "id": "m0LrPdT93gMv4GmU2o_6C7e9Oxg=", "properties": {"ref": "1474", "@spider": "dm", "shop": "chemist", "addr:street": "Fleischstra\u00dfe 62-65", "addr:city": "Trier", "addr:postcode": "54290", "addr:country": "DE", "name": "dm-drogerie markt", "phone": "+496519790961", "opening_hours": "Mo-Sa 09:00-20:00", "brand": "dm", "brand:wikidata": "Q266572", "nsi_id": "dm-64e7ae"}, "geometry": {"type": "Point", "coordinates": [6.6385825, 49.7556191]}},
{"type": "Feature", "id": "BvO7ji1T2F4t-4EMbz6EVQ3nkxg=", "properties": {"ref": "1475", "@spider": "dm", "shop": "chemist", "addr:street": "Bahnhofstra\u00dfe 1", "addr:city": "Ebersbach an der Fils", "addr:postcode": "73061", "addr:country": "DE", "name": "dm-drogerie markt", "phone": "+4971635323545", "opening_hours": "Mo-Sa 08:00-20:00", "brand": "dm", "brand:wikidata": "Q266572", "nsi_id": "dm-64e7ae"}, "geometry": {"type": "Point", "coordinates": [9.5259516, 48.7147223]}},
{"type": "Feature", "id": "oX-pqg4nqrfXFVIWXFfvUbntKXg=", "properties": {"ref": "1476", "@spider": "dm", "shop": "chemist", "addr:street": "K\u00f6lner Stra\u00dfe 133", "addr:city": "Mechernich", "addr:postcode": "53894", "addr:country": "DE", "name": "dm-drogerie markt", "phone": "+4924433102010", "opening_hours": "Mo-Sa 08:00-20:00", "brand": "dm", "brand:wikidata": "Q266572", "nsi_id": "dm-64e7ae"}, "geometry": {"type": "Point", "coordinates": [6.6573586, 50.6181256]}},
{"type": "Feature", "id": "UcvQ0g0yFcbe_PuocgMyPPlPk6Y=", "properties": {"ref": "1477", "@spider": "dm", "shop": "chemist", "addr:street": "Brabanter Stra\u00dfe 48-50", "addr:city": "Wassenberg", "addr:postcode": "41849", "addr:country": "DE", "name": "dm-drogerie markt", "phone": "+4924329029973", "opening_hours": "Mo-Sa 08:00-20:00", "brand": "dm", "brand:wikidata": "Q266572", "nsi_id": "dm-64e7ae"}, "geometry": {"type": "Point", "coordinates": [6.1836858, 51.1029218]}},
{"type": "Feature", "id": "F1ghP_vdLoQ7oV-OISPerkMYvec=", "properties": {"ref": "1478", "@spider": "dm", "shop": "chemist", "addr:street": "Hauptst\u00e4tter Stra\u00dfe 149", "addr:city": "Stuttgart", "addr:postcode": "70178", "addr:country": "DE", "name": "dm-drogerie markt", "phone": "+4971162007023", "opening_hours": "Mo-Sa 08:30-20:00", "brand": "dm", "brand:wikidata": "Q266572", "nsi_id": "dm-64e7ae"}, "geometry": {"type": "Point", "coordinates": [9.169822, 48.764641]}},
{"type": "Feature", "id": "rpi8xM-nOLSXdCINzK4CJUm2U80=", "properties": {"ref": "1479", "@spider": "dm", "shop": "chemist", "addr:street": "Rosenheimer Stra\u00dfe 21", "addr:city": "Holzkirchen", "addr:postcode": "83607", "addr:country": "DE", "name": "dm-drogerie markt", "phone": "+4980244745711", "opening_hours": "Mo-Sa 08:00-20:00", "brand": "dm", "brand:wikidata": "Q266572", "nsi_id": "dm-64e7ae"}, "geometry": {"type": "Point", "coordinates": [11.7030121, 47.8812943]}},
{"type": "Feature", "id": "cEU9flkqcnbL0E5_dHHiPgKc6zQ=", "properties": {"ref": "148", "@spider": "dm", "shop": "chemist", "addr:street": "Seckenheimer Stra\u00dfe 62-64", "addr:city": "Mannheim", "addr:postcode": "68165", "addr:country": "DE", "name": "dm-drogerie markt", "phone": "+496214310180", "opening_hours": "Mo-Sa 08:00-20:00", "brand": "dm", "brand:wikidata": "Q266572", "nsi_id": "dm-64e7ae"}, "geometry": {"type": "Point", "coordinates": [8.481277, 49.479269]}},
{"type": "Feature", "id": "dJ6E1WCHvvHpHabLAWUl5-84kgg=", "properties": {"ref": "1480", "@spider": "dm", "shop": "chemist", "addr:street": "Durlacher Weg 2", "addr:city": "Linkenheim-Hochstetten", "addr:postcode": "76351", "addr:country": "DE", "name": "dm-drogerie markt", "phone": "+4972478009227", "opening_hours": "Mo-Sa 08:00-20:00", "brand": "dm", "brand:wikidata": "Q266572", "nsi_id": "dm-64e7ae"}, "geometry": {"type": "Point", "coordinates": [8.4187692, 49.1288616]}},
{"type": "Feature", "id": "x7ymokEN5AIuRbZI3_rwKENdDJk=", "properties": {"ref": "1482", "@spider": "dm", "shop": "chemist", "addr:street": "Rothenburger Stra\u00dfe 26", "addr:city": "Zirndorf", "addr:postcode": "90513", "addr:country": "DE", "name": "dm-drogerie markt", "phone": "+499116276802", "opening_hours": "Mo-Sa 08:00-20:00", "brand": "dm", "brand:wikidata": "Q266572", "nsi_id": "dm-64e7ae"}, "geometry": {"type": "Point", "coordinates": [10.9584506, 49.4352052]}},
{"type": "Feature", "id": "AWpvzpQ7mz2J_jal3A8i-2oQxJc=", "properties": {"ref": "1483", "@spider": "dm", "shop": "chemist", "addr:street": "Bahnhofstra\u00dfe 1", "addr:city": "Passau", "addr:postcode": "94032", "addr:country": "DE", "name": "dm-drogerie markt", "phone": "+498514903939", "opening_hours": "Mo-Sa 09:00-20:00", "brand": "dm", "brand:wikidata": "Q266572", "nsi_id": "dm-64e7ae"}, "geometry": {"type": "Point", "coordinates": [13.4566855, 48.5736283]}},
{"type": "Feature", "id": "958pIqTpGleSVob8uU4igY0OTKM=", "properties": {"ref": "1484", "@spider": "dm", "shop": "chemist", "addr:street": "Gewerbestra\u00dfe 16", "addr:city": "M\u00fcnsingen", "addr:postcode": "72525", "addr:country": "DE", "name": "dm-drogerie markt", "phone": "+497381921745", "opening_hours": "Mo-Sa 08:00-20:00", "brand": "dm", "brand:wikidata": "Q266572", "nsi_id": "dm-64e7ae"}, "geometry": {"type": "Point", "coordinates": [9.5056299, 48.412676]}},
{"type": "Feature", "id": "YIsAFtshVJbsQ9AY0JYIRWGuw-g=", "properties": {"ref": "1485", "@spider": "dm", "shop": "chemist", "addr:street": "Am Stadion 2", "addr:city": "Emmelshausen", "addr:postcode": "56281", "addr:country": "DE", "name": "dm-drogerie markt", "phone": "+496747597787", "opening_hours": "Mo-Sa 08:00-20:00", "brand": "dm", "brand:wikidata": "Q266572", "nsi_id": "dm-64e7ae"}, "geometry": {"type": "Point", "coordinates": [7.5464211, 50.1564198]}},
{"type": "Feature", "id": "nA2LELSJewn7XHsgJNZw1875BXU=", "properties": {"ref": "1486", "@spider": "dm", "shop": "chemist", "addr:street": "Bahnhofstra\u00dfe 15", "addr:city": "Uhingen", "addr:postcode": "73066", "addr:country": "DE", "name": "dm-drogerie markt", "phone": "+4971613890064", "opening_hours": "Mo-Sa 08:00-20:00", "brand": "dm", "brand:wikidata": "Q266572", "nsi_id": "dm-64e7ae"}, "geometry": {"type": "Point", "coordinates": [9.585025, 48.708387]}},
{"type": "Feature", "id": "HIBRctrqMwliIWxAjUxjSBzj7eA=", "properties": {"ref": "1487", "@spider": "dm", "shop": "chemist", "addr:street": "Masayaplatz 3", "addr:city": "Dietzenbach", "addr:postcode": "63128", "addr:country": "DE", "name": "dm-drogerie markt", "phone": "+4960742116227", "opening_hours": "Mo-Sa 08:00-21:00", "brand": "dm", "brand:wikidata": "Q266572", "nsi_id": "dm-64e7ae"}, "geometry": {"type": "Point", "coordinates": [8.7877333, 50.0174578]}},
{"type": "Feature", "id": "n5q2O_-xMejZF2bJLyYMNA1jWI0=", "properties": {"ref": "1488", "@spider": "dm", "shop": "chemist", "addr:street": "Prager Stra\u00dfe 15", "addr:city": "Dresden", "addr:postcode": "01069", "addr:country": "DE", "name": "dm-drogerie markt", "phone": "+493514817029", "opening_hours": "Mo-Sa 09:30-20:00", "brand": "dm", "brand:wikidata": "Q266572", "nsi_id": "dm-64e7ae"}, "geometry": {"type": "Point", "coordinates": [13.7356717, 51.0452003]}},
{"type": "Feature", "id": "h6-d8c4rVuyG2kxDFDaGO7Hu_g0=", "properties": {"ref": "1489", "@spider": "dm", "shop": "chemist", "addr:street": "Sankt-Annen-Stra\u00dfe 23", "addr:city": "Brandenburg an der Havel", "addr:postcode": "14776", "addr:country": "DE", "name": "dm-drogerie markt", "phone": "+493381209738", "opening_hours": "Mo-Sa 09:00-20:00", "brand": "dm", "brand:wikidata": "Q266572", "nsi_id": "dm-64e7ae"}, "geometry": {"type": "Point", "coordinates": [12.5632707, 52.4088905]}},
{"type": "Feature", "id": "12fH7iiaqAsRhndilghZG6XcnB0=", "properties": {"ref": "149", "@spider": "dm", "shop": "chemist", "addr:street": "Br\u00fcckstra\u00dfe 28", "addr:city": "Essen", "addr:postcode": "45239", "addr:country": "DE", "name": "dm-drogerie markt", "phone": "+492018496120", "opening_hours": "Mo-Fr 08:30-19:00; Sa 08:30-14:00", "brand": "dm", "brand:wikidata": "Q266572", "nsi_id": "dm-64e7ae"}, "geometry": {"type": "Point", "coordinates": [7.002105, 51.388123]}},
{"type": "Feature", "id": "eBG-vLO6ZGKJMHS6R61XagPEz6A=", "properties": {"ref": "1490", "@spider": "dm", "shop": "chemist", "addr:street": "Alte Biberacher Stra\u00dfe 51/6", "addr:city": "Schemmerhofen", "addr:postcode": "88433", "addr:country": "DE", "name": "dm-drogerie markt", "phone": "+497356923393", "opening_hours": "Mo-Sa 08:00-20:00", "brand": "dm", "brand:wikidata": "Q266572", "nsi_id": "dm-64e7ae"}, "geometry": {"type": "Point", "coordinates": [9.7875402, 48.1668847]}},
{"type": "Feature", "id": "UhoDrZMbie89_wSX2UI8TYKkCP8=", "properties": {"ref": "1491", "@spider": "dm", "shop": "chemist", "addr:street": "Alexanderplatz 3", "addr:city": "Berlin", "addr:postcode": "10178", "addr:country": "DE", "name": "dm-drogerie markt", "phone": "+493020054369", "opening_hours": "Mo-Fr 08:30-22:00; Sa 09:00-22:00", "brand": "dm", "brand:wikidata": "Q266572", "nsi_id": "dm-64e7ae"}, "geometry": {"type": "Point", "coordinates": [13.415341, 52.5220469]}},
{"type": "Feature", "id": "n7Vg8dkUecvhiA8D5ENbK9Y225M=", "properties": {"ref": "1493", "@spider": "dm", "shop": "chemist", "addr:street": "Im St\u00fchlinger 56", "addr:city": "Heitersheim", "addr:postcode": "79423", "addr:country": "DE", "name": "dm-drogerie markt", "phone": "+497634507575", "opening_hours": "Mo-Sa 08:00-20:00", "brand": "dm", "brand:wikidata": "Q266572", "nsi_id": "dm-64e7ae"}, "geometry": {"type": "Point", "coordinates": [7.6553135, 47.875361]}},
{"type": "Feature", "id": "gdu8zmYbLyJGHQbvo8X0MgeytTQ=", "properties": {"ref": "1494", "@spider": "dm", "shop": "chemist", "addr:street": "Karwendelring 1", "addr:city": "Freising", "addr:postcode": "85354", "addr:country": "DE", "name": "dm-drogerie markt", "phone": "+4981612349324", "opening_hours": "Mo-Sa 07:00-20:00", "brand": "dm", "brand:wikidata": "Q266572", "nsi_id": "dm-64e7ae"}, "geometry": {"type": "Point", "coordinates": [11.7415758, 48.4119613]}},
{"type": "Feature", "id": "HDzoXzQI3XmHG6H2oJI7J3wQMIo=", "properties": {"ref": "1495", "@spider": "dm", "shop": "chemist", "addr:street": "Unter Linden 282", "addr:city": "K\u00f6ln", "addr:postcode": "50859", "addr:country": "DE", "name": "dm-drogerie markt", "phone": "+4922129271140", "opening_hours": "Mo-Sa 08:00-21:00", "brand": "dm", "brand:wikidata": "Q266572", "nsi_id": "dm-64e7ae"}, "geometry": {"type": "Point", "coordinates": [6.8314065, 50.9614342]}},
{"type": "Feature", "id": "4vjFq5mrd8ptUS9fY5yBmzznKHI=", "properties": {"ref": "1497", "@spider": "dm", "shop": "chemist", "addr:street": "Ursulinerstra\u00dfe 7-9", "addr:city": "Aachen", "addr:postcode": "52062", "addr:country": "DE", "name": "dm-drogerie markt", "phone": "+4924155924267", "opening_hours": "Mo-Sa 09:00-20:00", "brand": "dm", "brand:wikidata": "Q266572", "nsi_id": "dm-64e7ae"}, "geometry": {"type": "Point", "coordinates": [6.0857196, 50.7748697]}},
{"type": "Feature", "id": "BwY67JhxNSifQn6cWM5-Dt0hVWM=", "properties": {"ref": "1498", "@spider": "dm", "shop": "chemist", "addr:street": "Speltenbach 60", "addr:city": "Freyung", "addr:postcode": "94078", "addr:country": "DE", "name": "dm-drogerie markt", "phone": "+498551912665", "opening_hours": "Mo-Sa 07:00-20:00", "brand": "dm", "brand:wikidata": "Q266572", "nsi_id": "dm-64e7ae"}, "geometry": {"type": "Point", "coordinates": [13.5439411, 48.8223997]}},
{"type": "Feature", "id": "3CnA75QjQUFJRBoH0GgX8jiErj4=", "properties": {"ref": "1499", "@spider": "dm", "shop": "chemist", "addr:street": "Alter Rathausplatz 14", "addr:city": "Iserlohn", "addr:postcode": "58636", "addr:country": "DE", "name": "dm-drogerie markt", "phone": "+4923711559489", "opening_hours": "Mo-Fr 08:30-19:00; Sa 08:30-18:00", "brand": "dm", "brand:wikidata": "Q266572", "nsi_id": "dm-64e7ae"}, "geometry": {"type": "Point", "coordinates": [7.6975862, 51.3742427]}},
{"type": "Feature", "id": "p5EY4jwE7RapZRrY0zjSYcThTiI=", "properties": {"ref": "1500", "@spider": "dm", "shop": "chemist", "addr:street": "K\u00f6nigsteiner Stra\u00dfe 76", "addr:city": "Bad Soden am Taunus", "addr:postcode": "65812", "addr:country": "DE", "name": "dm-drogerie markt", "phone": "+4961966526403", "opening_hours": "Mo-Fr 08:00-20:00; Sa 08:30-20:00", "brand": "dm", "brand:wikidata": "Q266572", "nsi_id": "dm-64e7ae"}, "geometry": {"type": "Point", "coordinates": [8.5023642, 50.1434547]}},
{"type": "Feature", "id": "D8itYfQKk6x1GBqkmEHmJhliYQs=", "properties": {"ref": "1501", "@spider": "dm", "shop": "chemist", "addr:street": "Beyerbachstra\u00dfe 2-6", "addr:city": "Kriftel", "addr:postcode": "65830", "addr:country": "DE", "name": "dm-drogerie markt", "phone": "+4961929799824", "opening_hours": "Mo-Sa 08:00-20:00", "brand": "dm", "brand:wikidata": "Q266572", "nsi_id": "dm-64e7ae"}, "geometry": {"type": "Point", "coordinates": [8.4731447, 50.0769272]}},
{"type": "Feature", "id": "ey4Jvf9HU3dEdDd1ScYdutaNU_k=", "properties": {"ref": "1502", "@spider": "dm", "shop": "chemist", "addr:street": "Friedrichstra\u00dfe 129-133", "addr:city": "D\u00fcsseldorf", "addr:postcode": "40217", "addr:country": "DE", "name": "dm-drogerie markt", "phone": "+4921130121992", "opening_hours": "Mo-Sa 08:30-21:00", "brand": "dm", "brand:wikidata": "Q266572", "nsi_id": "dm-64e7ae"}, "geometry": {"type": "Point", "coordinates": [6.7763982, 51.2085142]}},
{"type": "Feature", "id": "Hl5Md2EzSR6LKLPi84Xlg0qk54U=", "properties": {"ref": "1503", "@spider": "dm", "shop": "chemist", "addr:street": "Albertstra\u00dfe 10", "addr:city": "Duisburg", "addr:postcode": "47059", "addr:country": "DE", "name": "dm-drogerie markt", "phone": "+492032898293", "opening_hours": "Mo-Sa 08:00-20:00", "brand": "dm", "brand:wikidata": "Q266572", "nsi_id": "dm-64e7ae"}, "geometry": {"type": "Point", "coordinates": [6.746319, 51.4415492]}},
{"type": "Feature", "id": "8ZTGAtGbiepDm7PRG7b-AILEsOk=", "properties": {"ref": "1506", "@spider": "dm", "shop": "chemist", "addr:street": "Schadowstra\u00dfe 11", "addr:city": "D\u00fcsseldorf", "addr:postcode": "40212", "addr:country": "DE", "name": "dm-drogerie markt", "phone": "+4921115973235", "opening_hours": "Mo-Sa 09:00-20:30", "brand": "dm", "brand:wikidata": "Q266572", "nsi_id": "dm-64e7ae"}, "geometry": {"type": "Point", "coordinates": [6.7820801, 51.2250303]}},
{"type": "Feature", "id": "s1PwmiFhdAlf3E8zjvEVX4wLTUc=", "properties": {"ref": "1507", "@spider": "dm", "shop": "chemist", "addr:street": "Gr\u00fcnhutstra\u00dfe 1", "addr:city": "Karlsruhe", "addr:postcode": "76187", "addr:country": "DE", "name": "dm-drogerie markt", "phone": "+497215316210", "opening_hours": "Mo-Sa 08:00-20:00", "brand": "dm", "brand:wikidata": "Q266572", "nsi_id": "dm-64e7ae"}, "geometry": {"type": "Point", "coordinates": [8.3520136, 49.0365414]}},
{"type": "Feature", "id": "aqRRMfP5C_5yye8xHpZpWcQsncM=", "properties": {"ref": "1509", "@spider": "dm", "shop": "chemist", "addr:street": "Bremer Stra\u00dfe 106", "addr:city": "Stuhr", "addr:postcode": "28816", "addr:country": "DE", "name": "dm-drogerie markt", "phone": "+494218718030", "opening_hours": "Mo-Fr 09:00-20:00; Sa 09:00-19:00", "brand": "dm", "brand:wikidata": "Q266572", "nsi_id": "dm-64e7ae"}, "geometry": {"type": "Point", "coordinates": [8.8069275, 53.0283519]}},
{"type": "Feature", "id": "6ta6MZq8Nj0fd9EgFQgThuOmGKY=", "properties": {"ref": "1511", "@spider": "dm", "shop": "chemist", "addr:street": "Eberhardstra\u00dfe 35/37", "addr:city": "Stuttgart", "addr:postcode": "70173", "addr:country": "DE", "name": "dm-drogerie markt", "phone": "+4971124869724", "opening_hours": "Mo-Sa 08:00-20:00", "brand": "dm", "brand:wikidata": "Q266572", "nsi_id": "dm-64e7ae"}, "geometry": {"type": "Point", "coordinates": [9.1782366, 48.7732899]}},
{"type": "Feature", "id": "RiIjWcz1FVNTeD_YYrm4NmhZJM4=", "properties": {"ref": "1512", "@spider": "dm", "shop": "chemist", "addr:street": "Unterer Talweg 60", "addr:city": "Augsburg", "addr:postcode": "86179", "addr:country": "DE", "name": "dm-drogerie markt", "phone": "+498216088627", "opening_hours": "Mo-Sa 08:00-20:00", "brand": "dm", "brand:wikidata": "Q266572", "nsi_id": "dm-64e7ae"}, "geometry": {"type": "Point", "coordinates": [10.8914856, 48.3165626]}},
{"type": "Feature", "id": "jEG-5EiIygIo-8E84El1K4yU5ps=", "properties": {"ref": "1514", "@spider": "dm", "shop": "chemist", "addr:street": "Wickeder Hellweg 103", "addr:city": "Dortmund", "addr:postcode": "44319", "addr:country": "DE", "name": "dm-drogerie markt", "phone": "+492311769537", "opening_hours": "Mo-Sa 08:00-20:00", "brand": "dm", "brand:wikidata": "Q266572", "nsi_id": "dm-64e7ae"}, "geometry": {"type": "Point", "coordinates": [7.6118986, 51.5323154]}},
{"type": "Feature", "id": "5y9dH36TYusv7ifB9HLxiupyX1U=", "properties": {"ref": "1515", "@spider": "dm", "shop": "chemist", "addr:street": "Erlenbacher Stra\u00dfe 8", "addr:city": "Elsenfeld", "addr:postcode": "63820", "addr:country": "DE", "name": "dm-drogerie markt", "phone": "+4960222631905", "opening_hours": "Mo-Sa 08:00-20:00", "brand": "dm", "brand:wikidata": "Q266572", "nsi_id": "dm-64e7ae"}, "geometry": {"type": "Point", "coordinates": [9.1581125, 49.8413503]}},
{"type": "Feature", "id": "pjDsVumFwpu1n_RLICo8ylP_fa8=", "properties": {"ref": "1516", "@spider": "dm", "shop": "chemist", "addr:street": "Ostring 6", "addr:city": "Roth", "addr:postcode": "91154", "addr:country": "DE", "name": "dm-drogerie markt", "phone": "+4991718515136", "opening_hours": "Mo-Sa 08:00-20:00", "brand": "dm", "brand:wikidata": "Q266572", "nsi_id": "dm-64e7ae"}, "geometry": {"type": "Point", "coordinates": [11.104754, 49.2479666]}},
{"type": "Feature", "id": "Pqp_Rgv6JXowPWjJcL8850oE3v8=", "properties": {"ref": "1517", "@spider": "dm", "shop": "chemist", "addr:street": "Poststra\u00dfe 36", "addr:city": "Wadern", "addr:postcode": "66687", "addr:country": "DE", "name": "dm-drogerie markt", "phone": "+4968715020969", "opening_hours": "Mo-Sa 08:00-20:00", "brand": "dm", "brand:wikidata": "Q266572", "nsi_id": "dm-64e7ae"}, "geometry": {"type": "Point", "coordinates": [6.8919098, 49.5366931]}},
{"type": "Feature", "id": "PbA92lBKGb2DArQ4swDBfb5rAk8=", "properties": {"ref": "1518", "@spider": "dm", "shop": "chemist", "addr:street": "Friedrich-Ebert-Platz 1", "addr:city": "Leverkusen", "addr:postcode": "51373", "addr:country": "DE", "name": "dm-drogerie markt", "phone": "+492142600679", "opening_hours": "Mo-Sa 09:30-20:00", "brand": "dm", "brand:wikidata": "Q266572", "nsi_id": "dm-64e7ae"}, "geometry": {"type": "Point", "coordinates": [6.9869935, 51.0325618]}},
{"type": "Feature", "id": "OuKA-k56NI4pc19KvF8l9e4rmfU=", "properties": {"ref": "1519", "@spider": "dm", "shop": "chemist", "addr:street": "Lindau 7", "addr:city": "Passau", "addr:postcode": "94034", "addr:country": "DE", "name": "dm-drogerie markt", "phone": "+498514901138", "opening_hours": "Mo-Sa 07:00-20:00", "brand": "dm", "brand:wikidata": "Q266572", "nsi_id": "dm-64e7ae"}, "geometry": {"type": "Point", "coordinates": [13.4999064, 48.5840322]}},
{"type": "Feature", "id": "VXxtBpu7LpBVwUa3EDPr4sZKqcg=", "properties": {"ref": "152", "@spider": "dm", "shop": "chemist", "addr:street": "Rheinstra\u00dfe 12", "addr:city": "Karlsruhe", "addr:postcode": "76185", "addr:country": "DE", "name": "dm-drogerie markt", "phone": "+497219553046", "opening_hours": "Mo-Fr 08:00-20:00; Sa 08:00-18:00", "brand": "dm", "brand:wikidata": "Q266572", "nsi_id": "dm-64e7ae"}, "geometry": {"type": "Point", "coordinates": [8.3639692, 49.0116238]}},
{"type": "Feature", "id": "kB8VdBy6g66hGFMYv7m64xf8zQ4=", "properties": {"ref": "1521", "@spider": "dm", "shop": "chemist", "addr:street": "Gro\u00dfen Haag 5b", "addr:city": "Kranenburg", "addr:postcode": "47559", "addr:country": "DE", "name": "dm-drogerie markt", "phone": "+492826916296", "opening_hours": "Mo-Sa 08:00-20:00", "brand": "dm", "brand:wikidata": "Q266572", "nsi_id": "dm-64e7ae"}, "geometry": {"type": "Point", "coordinates": [6.0109704, 51.7902284]}},
{"type": "Feature", "id": "dWr7Aid-XiXCQ-39Mp7ONpFKPsk=", "properties": {"ref": "1522", "@spider": "dm", "shop": "chemist", "addr:street": "Agnetendorfer Stra\u00dfe 4", "addr:city": "Bonn", "addr:postcode": "53119", "addr:country": "DE", "name": "dm-drogerie markt", "phone": "+4922892894599", "opening_hours": "Mo-Sa 08:00-20:00", "brand": "dm", "brand:wikidata": "Q266572", "nsi_id": "dm-64e7ae"}, "geometry": {"type": "Point", "coordinates": [7.0454713, 50.7526327]}},
{"type": "Feature", "id": "6Tfcr9jxU6shAbbXJpqfXiMqI7c=", "properties": {"ref": "1523", "@spider": "dm", "shop": "chemist", "addr:street": "Bahnhofplatz 20", "addr:city": "Horb am Neckar", "addr:postcode": "72160", "addr:country": "DE", "name": "dm-drogerie markt", "phone": "+4974515529673", "opening_hours": "Mo-Sa 08:00-20:00", "brand": "dm", "brand:wikidata": "Q266572", "nsi_id": "dm-64e7ae"}, "geometry": {"type": "Point", "coordinates": [8.6866511, 48.4420593]}},
{"type": "Feature", "id": "AvSlgrhUzyYjJT5__blxVemI_dc=", "properties": {"ref": "1524", "@spider": "dm", "shop": "chemist", "addr:street": "Schleswiger Chaussee 41-43", "addr:city": "Rendsburg", "addr:postcode": "24768", "addr:country": "DE", "name": "dm-drogerie markt", "phone": "+4943314595250", "opening_hours": "Mo-Sa 08:00-20:00", "brand": "dm", "brand:wikidata": "Q266572", "nsi_id": "dm-64e7ae"}, "geometry": {"type": "Point", "coordinates": [9.6461784, 54.3121995]}},
{"type": "Feature", "id": "4cwlA7NUFaud_Sxh7hZrAEAqVlk=", "properties": {"ref": "1527", "@spider": "dm", "shop": "chemist", "addr:street": "Geislinger Stra\u00dfe 5", "addr:city": "Laichingen", "addr:postcode": "89150", "addr:country": "DE", "name": "dm-drogerie markt", "phone": "+497333923133", "opening_hours": "Mo-Sa 08:00-20:00", "brand": "dm", "brand:wikidata": "Q266572", "nsi_id": "dm-64e7ae"}, "geometry": {"type": "Point", "coordinates": [9.6927185, 48.4902127]}},
{"type": "Feature", "id": "LbO1Nulp8uFv-Mf0p8mhhY_LVb4=", "properties": {"ref": "1529", "@spider": "dm", "shop": "chemist", "addr:street": "Neumarkt 15-17", "addr:city": "Moers", "addr:postcode": "47441", "addr:country": "DE", "name": "dm-drogerie markt", "phone": "+4928411732117", "opening_hours": "Mo-Fr 08:00-19:30; Sa 09:00-18:00", "brand": "dm", "brand:wikidata": "Q266572", "nsi_id": "dm-64e7ae"}, "geometry": {"type": "Point", "coordinates": [6.6258371, 51.452561]}},
{"type": "Feature", "id": "mdm6xZD5OFT1fwRSdm2ctGRNJDE=", "properties": {"ref": "153", "@spider": "dm", "shop": "chemist", "addr:street": "Lindenstra\u00dfe 2", "addr:city": "Rottach-Egern", "addr:postcode": "83700", "addr:country": "DE", "name": "dm-drogerie markt", "phone": "+498022665780", "opening_hours": "Mo-Fr 08:30-20:00; Sa 08:30-19:00", "brand": "dm", "brand:wikidata": "Q266572", "nsi_id": "dm-64e7ae"}, "geometry": {"type": "Point", "coordinates": [11.767629, 47.688714]}},
{"type": "Feature", "id": "MfWdhCQYVdhhQXtlEAzSSTPA-4k=", "properties": {"ref": "1531", "@spider": "dm", "shop": "chemist", "addr:street": "Gro\u00dfe-Leege-Stra\u00dfe 96", "addr:city": "Berlin", "addr:postcode": "13055", "addr:country": "DE", "name": "dm-drogerie markt", "phone": "+493091426588", "opening_hours": "Mo-Sa 08:00-20:00", "brand": "dm", "brand:wikidata": "Q266572", "nsi_id": "dm-64e7ae"}, "geometry": {"type": "Point", "coordinates": [13.4977309, 52.5435536]}},
{"type": "Feature", "id": "I3s53-6A6d_Z5Pk0EjOjlRjHQXQ=", "properties": {"ref": "1534", "@spider": "dm", "shop": "chemist", "addr:street": "An der Klanze 17a", "addr:city": "Weyhausen", "addr:postcode": "38554", "addr:country": "DE", "name": "dm-drogerie markt", "phone": "+495362726213", "opening_hours": "Mo-Sa 08:00-20:00", "brand": "dm", "brand:wikidata": "Q266572", "nsi_id": "dm-64e7ae"}, "geometry": {"type": "Point", "coordinates": [10.7240439, 52.4633405]}},
{"type": "Feature", "id": "w_f-4KgWGUZ3zY6HMIDz94jA1Eg=", "properties": {"ref": "1535", "@spider": "dm", "shop": "chemist", "addr:street": "Westerwaldstra\u00dfe 107", "addr:city": "Limburg a. d. Lahn", "addr:postcode": "65549", "addr:country": "DE", "name": "dm-drogerie markt", "phone": "+4964312172149", "opening_hours": "Mo-Th 08:00-20:00; Fr-Sa 08:00-20:30", "brand": "dm", "brand:wikidata": "Q266572", "nsi_id": "dm-64e7ae"}, "geometry": {"type": "Point", "coordinates": [8.0573933, 50.3976038]}},
{"type": "Feature", "id": "Q4EvsXTcruzgk06skYtxeVlLeqI=", "properties": {"ref": "1536", "@spider": "dm", "shop": "chemist", "addr:street": "Seestra\u00dfe 71/2", "addr:city": "Eppelheim", "addr:postcode": "69214", "addr:country": "DE", "name": "dm-drogerie markt", "phone": "+4962217592763", "opening_hours": "Mo-Sa 08:00-20:00", "brand": "dm", "brand:wikidata": "Q266572", "nsi_id": "dm-64e7ae"}, "geometry": {"type": "Point", "coordinates": [8.6274788, 49.4092839]}},
{"type": "Feature", "id": "Xv9PE6LCt0au5R9KBshcJtCtYUw=", "properties": {"ref": "1537", "@spider": "dm", "shop": "chemist", "addr:street": "H\u00e4cklinger Weg 66c", "addr:city": "L\u00fcneburg", "addr:postcode": "21335", "addr:country": "DE", "name": "dm-drogerie markt", "phone": "+4941312239581", "opening_hours": "Mo-Sa 08:00-21:00", "brand": "dm", "brand:wikidata": "Q266572", "nsi_id": "dm-64e7ae"}, "geometry": {"type": "Point", "coordinates": [10.385625, 53.2216453]}},
{"type": "Feature", "id": "dn_M993xWBn8mfqPKy6jFBK368Y=", "properties": {"ref": "1538", "@spider": "dm", "shop": "chemist", "addr:street": "K\u00fchgrunddamm 4", "addr:city": "W\u00f6rth am Rhein", "addr:postcode": "76744", "addr:country": "DE", "name": "dm-drogerie markt", "phone": "+4972714080816", "opening_hours": "Mo-Sa 08:00-20:00", "brand": "dm", "brand:wikidata": "Q266572", "nsi_id": "dm-64e7ae"}, "geometry": {"type": "Point", "coordinates": [8.2890671, 49.0406084]}},
{"type": "Feature", "id": "oDb1VlxPsa0-gMgJEXA8u-JumWM=", "properties": {"ref": "1539", "@spider": "dm", "shop": "chemist", "addr:street": "Seestra\u00dfe 5", "addr:city": "Delmenhorst", "addr:postcode": "27755", "addr:country": "DE", "name": "dm-drogerie markt", "phone": "+4942212890083", "opening_hours": "Mo-Sa 08:00-20:00", "brand": "dm", "brand:wikidata": "Q266572", "nsi_id": "dm-64e7ae"}, "geometry": {"type": "Point", "coordinates": [8.6604111, 53.0286902]}},
{"type": "Feature", "id": "NZjwLJT0tYBgMGDZ2B5FEV8gq_0=", "properties": {"ref": "154", "@spider": "dm", "shop": "chemist", "addr:street": "K\u00e4mmererstra\u00dfe 34", "addr:city": "Worms", "addr:postcode": "67547", "addr:country": "DE", "name": "dm-drogerie markt", "phone": "+496241925073", "opening_hours": "Mo-Sa 08:00-20:00", "brand": "dm", "brand:wikidata": "Q266572", "nsi_id": "dm-64e7ae"}, "geometry": {"type": "Point", "coordinates": [8.363033, 49.631756]}},
{"type": "Feature", "id": "H1YDvDhyOWSXi5Mii0Ns2OtiQi4=", "properties": {"ref": "1540", "@spider": "dm", "shop": "chemist", "addr:street": "Bodelschwinghstra\u00dfe 9", "addr:city": "Vechelde", "addr:postcode": "38159", "addr:country": "DE", "name": "dm-drogerie markt", "phone": "+495302804479", "opening_hours": "Mo-Sa 08:00-20:00", "brand": "dm", "brand:wikidata": "Q266572", "nsi_id": "dm-64e7ae"}, "geometry": {"type": "Point", "coordinates": [10.3662063, 52.2641847]}},
{"type": "Feature", "id": "30yjjZpwzZx-JLNzeVVnjN8rzBc=", "properties": {"ref": "1541", "@spider": "dm", "shop": "chemist", "addr:street": "N\u00fcrnberger Stra\u00dfe 44", "addr:city": "Neumarkt in der Oberpfalz", "addr:postcode": "92318", "addr:country": "DE", "name": "dm-drogerie markt", "phone": "+4991814089548", "opening_hours": "Mo-Sa 08:00-20:00", "brand": "dm", "brand:wikidata": "Q266572", "nsi_id": "dm-64e7ae"}, "geometry": {"type": "Point", "coordinates": [11.4430719, 49.2889129]}},
{"type": "Feature", "id": "fo_XzVk9ps3kJcsyq0XF2I3k0P4=", "properties": {"ref": "1542", "@spider": "dm", "shop": "chemist", "addr:street": "Strietweg 70", "addr:city": "Pforzheim", "addr:postcode": "75181", "addr:country": "DE", "name": "dm-drogerie markt", "phone": "+4972312805678", "opening_hours": "Mo-Sa 08:00-21:00", "brand": "dm", "brand:wikidata": "Q266572", "nsi_id": "dm-64e7ae"}, "geometry": {"type": "Point", "coordinates": [8.7312702, 48.8816732]}},
{"type": "Feature", "id": "FAXZhpLWbEPxDuqkytA8zTXyiAI=", "properties": {"ref": "1544", "@spider": "dm", "shop": "chemist", "addr:street": "Osttangente 8", "addr:city": "Springe", "addr:postcode": "31832", "addr:country": "DE", "name": "dm-drogerie markt", "phone": "+495041649753", "opening_hours": "Mo-Sa 08:00-20:00", "brand": "dm", "brand:wikidata": "Q266572", "nsi_id": "dm-64e7ae"}, "geometry": {"type": "Point", "coordinates": [9.5708221, 52.2109889]}},
{"type": "Feature", "id": "2qRwbN3erIBmgJKblISCvTnfWiU=", "properties": {"ref": "1546", "@spider": "dm", "shop": "chemist", "addr:street": "R\u00f6merallee 48d", "addr:city": "Z\u00fclpich", "addr:postcode": "53909", "addr:country": "DE", "name": "dm-drogerie markt", "phone": "+4922528366183", "opening_hours": "Mo-Sa 08:00-20:00", "brand": "dm", "brand:wikidata": "Q266572", "nsi_id": "dm-64e7ae"}, "geometry": {"type": "Point", "coordinates": [6.6594227, 50.6984474]}},
{"type": "Feature", "id": "NWfLJ-g2dU1SbFJQn6ZU8AE3jeM=", "properties": {"ref": "1547", "@spider": "dm", "shop": "chemist", "addr:street": "Am Emaillierwerk 1", "addr:city": "Fulda", "addr:postcode": "36043", "addr:country": "DE", "name": "dm-drogerie markt", "phone": "+4966125030953", "opening_hours": "Mo-Sa 08:30-20:00", "brand": "dm", "brand:wikidata": "Q266572", "nsi_id": "dm-64e7ae"}, "geometry": {"type": "Point", "coordinates": [9.6885674, 50.5482262]}},
{"type": "Feature", "id": "SiVpOxEsl9Rp7_M8q8fB0EEoP1Y=", "properties": {"ref": "1548", "@spider": "dm", "shop": "chemist", "addr:street": "Marktplatz 10", "addr:city": "Offenbach am Main", "addr:postcode": "63065", "addr:country": "DE", "name": "dm-drogerie markt", "phone": "+496980052326", "opening_hours": "Mo-Sa 09:00-20:00", "brand": "dm", "brand:wikidata": "Q266572", "nsi_id": "dm-64e7ae"}, "geometry": {"type": "Point", "coordinates": [8.7645842, 50.1048022]}},
{"type": "Feature", "id": "15EFLuHTkeebqu2p-zIgppgRWJY=", "properties": {"ref": "1549", "@spider": "dm", "shop": "chemist", "addr:street": "Felix-Wankel-Stra\u00dfe 18", "addr:city": "Heidelberg", "addr:postcode": "69126", "addr:country": "DE", "name": "dm-drogerie markt", "phone": "+4962213344106", "opening_hours": "Mo-Sa 08:00-21:00", "brand": "dm", "brand:wikidata": "Q266572", "nsi_id": "dm-64e7ae"}, "geometry": {"type": "Point", "coordinates": [8.6784249, 49.3830198]}},
{"type": "Feature", "id": "Lv5o_607PiNqbWjsPWoR8H6m2vU=", "properties": {"ref": "155", "@spider": "dm", "shop": "chemist", "addr:street": "Otto-Eichhorn-Stra\u00dfe 4", "addr:city": "Waldbr\u00f6l", "addr:postcode": "51545", "addr:country": "DE", "name": "dm-drogerie markt", "phone": "+492291808082", "opening_hours": "Mo-Fr 08:30-19:00; Sa 08:30-18:00", "brand": "dm", "brand:wikidata": "Q266572", "nsi_id": "dm-64e7ae"}, "geometry": {"type": "Point", "coordinates": [7.6229512, 50.8800231]}},
{"type": "Feature", "id": "4loHg_p9KQ2LjMA5DM1guVUdPQU=", "properties": {"ref": "1550", "@spider": "dm", "shop": "chemist", "addr:street": "Herzogenbuscher Stra\u00dfe 95", "addr:city": "Trier", "addr:postcode": "54292", "addr:country": "DE", "name": "dm-drogerie markt", "phone": "+496511454649", "opening_hours": "Mo-Sa 08:00-21:00", "brand": "dm", "brand:wikidata": "Q266572", "nsi_id": "dm-64e7ae"}, "geometry": {"type": "Point", "coordinates": [6.6654141, 49.7714042]}},
{"type": "Feature", "id": "H1W4zja2n12nlC8E-b6gJrVnX08=", "properties": {"ref": "1551", "@spider": "dm", "shop": "chemist", "addr:street": "Dietrich-Bonhoeffer-Platz 2", "addr:city": "Schw\u00e4bisch Hall", "addr:postcode": "74523", "addr:country": "DE", "name": "dm-drogerie markt", "phone": "+4979197817395", "opening_hours": "Mo-Sa 08:00-20:00", "brand": "dm", "brand:wikidata": "Q266572", "nsi_id": "dm-64e7ae"}, "geometry": {"type": "Point", "coordinates": [9.7355008, 49.115333]}},
{"type": "Feature", "id": "i7_Ic18ODLHpyDYlOo1JlVOV-RA=", "properties": {"ref": "1552", "@spider": "dm", "shop": "chemist", "addr:street": "Bahnhofstra\u00dfe 49", "addr:city": "Sulz am Neckar", "addr:postcode": "72172", "addr:country": "DE", "name": "dm-drogerie markt", "phone": "+4974544071349", "opening_hours": "Mo-Sa 08:00-20:00", "brand": "dm", "brand:wikidata": "Q266572", "nsi_id": "dm-64e7ae"}, "geometry": {"type": "Point", "coordinates": [8.6382931, 48.3672509]}},
{"type": "Feature", "id": "20-WqvMg-S1RrIp2strFsU5abi4=", "properties": {"ref": "1555", "@spider": "dm", "shop": "chemist", "addr:street": "Hauptstra\u00dfe 36c", "addr:city": "Gaggenau", "addr:postcode": "76571", "addr:country": "DE", "name": "dm-drogerie markt", "phone": "+497225982038", "opening_hours": "Mo-Fr 08:00-19:00; Sa 08:00-18:00", "brand": "dm", "brand:wikidata": "Q266572", "nsi_id": "dm-64e7ae"}, "geometry": {"type": "Point", "coordinates": [8.3199109, 48.8026447]}},
{"type": "Feature", "id": "t9l9MtTYJGMUnmHXPf87wkGHzpI=", "properties": {"ref": "1556", "@spider": "dm", "shop": "chemist", "addr:street": "M\u00f6llner Landstra\u00dfe 119", "addr:city": "Glinde", "addr:postcode": "21509", "addr:country": "DE", "name": "dm-drogerie markt", "phone": "+494071005706", "opening_hours": "Mo-Sa 08:00-20:00", "brand": "dm", "brand:wikidata": "Q266572", "nsi_id": "dm-64e7ae"}, "geometry": {"type": "Point", "coordinates": [10.213775, 53.5428618]}},
{"type": "Feature", "id": "1vnVnoi8DE4OTjoqdEjb4DSaihc=", "properties": {"ref": "1557", "@spider": "dm", "shop": "chemist", "addr:street": "Gadastra\u00dfe 5", "addr:city": "Bergkirchen", "addr:postcode": "85232", "addr:country": "DE", "name": "dm-drogerie markt", "phone": "+4981422842455", "opening_hours": "Mo-Sa 08:00-20:00", "brand": "dm", "brand:wikidata": "Q266572", "nsi_id": "dm-64e7ae"}, "geometry": {"type": "Point", "coordinates": [11.3510391, 48.2357197]}},
{"type": "Feature", "id": "WuozUs6bz8SYcQbYinKmOq5kr6s=", "properties": {"ref": "1560", "@spider": "dm", "shop": "chemist", "addr:street": "Alter Dorfweg 30-50", "addr:city": "Bremen", "addr:postcode": "28259", "addr:country": "DE", "name": "dm-drogerie markt", "phone": "+494215720282", "opening_hours": "Mo-Sa 09:00-20:00", "brand": "dm", "brand:wikidata": "Q266572", "nsi_id": "dm-64e7ae"}, "geometry": {"type": "Point", "coordinates": [8.7417133, 53.0483258]}},
{"type": "Feature", "id": "lZ4bn4WlRGWF8RjYKhjlDqKz0pw=", "properties": {"ref": "1561", "@spider": "dm", "shop": "chemist", "addr:street": "Wickerer Stra\u00dfe 50", "addr:city": "Fl\u00f6rsheim am Main", "addr:postcode": "65439", "addr:country": "DE", "name": "dm-drogerie markt", "phone": "+4961459338943", "opening_hours": "Mo-Sa 08:00-20:00", "brand": "dm", "brand:wikidata": "Q266572", "nsi_id": "dm-64e7ae"}, "geometry": {"type": "Point", "coordinates": [8.4247531, 50.0158924]}},
{"type": "Feature", "id": "qq0KHtO2Hs2cXDjhWeE6qsfODYI=", "properties": {"ref": "1562", "@spider": "dm", "shop": "chemist", "addr:street": "Gartenstra\u00dfe 102", "addr:city": "Bonn", "addr:postcode": "53225", "addr:country": "DE", "name": "dm-drogerie markt", "phone": "+4922862091980", "opening_hours": "Mo-Sa 08:00-20:00", "brand": "dm", "brand:wikidata": "Q266572", "nsi_id": "dm-64e7ae"}, "geometry": {"type": "Point", "coordinates": [7.1310169, 50.7506271]}},
{"type": "Feature", "id": "HszIuYLyBv0fvLG6xNcJ8chHKKw=", "properties": {"ref": "1563", "@spider": "dm", "shop": "chemist", "addr:street": "Sternstra\u00dfe 2b", "addr:city": "Dresden", "addr:postcode": "01139", "addr:country": "DE", "name": "dm-drogerie markt", "phone": "+493514798510", "opening_hours": "Mo-Sa 08:30-20:00", "brand": "dm", "brand:wikidata": "Q266572", "nsi_id": "dm-64e7ae"}, "geometry": {"type": "Point", "coordinates": [13.7137909, 51.0802611]}},
{"type": "Feature", "id": "Z29FazrmSQ7lUg7cUzBZRSPEncM=", "properties": {"ref": "1564", "@spider": "dm", "shop": "chemist", "addr:street": "Marienplatz 11", "addr:city": "Schwerin", "addr:postcode": "19053", "addr:country": "DE", "name": "dm-drogerie markt", "phone": "+4938559187904", "opening_hours": "Mo-Sa 09:00-19:00", "brand": "dm", "brand:wikidata": "Q266572", "nsi_id": "dm-64e7ae"}, "geometry": {"type": "Point", "coordinates": [11.4111338, 53.6286194]}},
{"type": "Feature", "id": "ug3G8OKLju7ZLvLhiuqmhUAWTTE=", "properties": {"ref": "1565", "@spider": "dm", "shop": "chemist", "addr:street": "Hamburger Stra\u00dfe 19", "addr:city": "Hamburg", "addr:postcode": "22083", "addr:country": "DE", "name": "dm-drogerie markt", "phone": "+494022692151", "opening_hours": "Mo-Sa 09:00-20:00", "brand": "dm", "brand:wikidata": "Q266572", "nsi_id": "dm-64e7ae"}, "geometry": {"type": "Point", "coordinates": [10.0289427, 53.5719145]}},
{"type": "Feature", "id": "jJzytKcihd6G_5MBFDAYfRBDXc4=", "properties": {"ref": "1566", "@spider": "dm", "shop": "chemist", "addr:street": "Rotkreuzplatz 1", "addr:city": "M\u00fcnchen", "addr:postcode": "80634", "addr:country": "DE", "name": "dm-drogerie markt", "phone": "+498912007549", "opening_hours": "Mo-Sa 08:00-20:00", "brand": "dm", "brand:wikidata": "Q266572", "nsi_id": "dm-64e7ae"}, "geometry": {"type": "Point", "coordinates": [11.5332408, 48.1528861]}},
{"type": "Feature", "id": "jEYhwpOtlMArtqzxiC0mLg7NLJ0=", "properties": {"ref": "1567", "@spider": "dm", "shop": "chemist", "addr:street": "Georg-August-Zinn-Stra\u00dfe 74", "addr:city": "Gro\u00df-Umstadt", "addr:postcode": "64823", "addr:country": "DE", "name": "dm-drogerie markt", "phone": "+4960787823219", "opening_hours": "Mo-Sa 08:30-20:00", "brand": "dm", "brand:wikidata": "Q266572", "nsi_id": "dm-64e7ae"}, "geometry": {"type": "Point", "coordinates": [8.920983, 49.8695844]}},
{"type": "Feature", "id": "gwwtigmOtP58fzEufeZ8Gd0Bz9c=", "properties": {"ref": "1569", "@spider": "dm", "shop": "chemist", "addr:street": "Heinrich-von-Stephan-Stra\u00dfe 2", "addr:city": "Bad Hersfeld", "addr:postcode": "36251", "addr:country": "DE", "name": "dm-drogerie markt", "phone": "+4966211726076", "opening_hours": "Mo-Sa 08:00-20:00", "brand": "dm", "brand:wikidata": "Q266572", "nsi_id": "dm-64e7ae"}, "geometry": {"type": "Point", "coordinates": [9.708221, 50.8642309]}},
{"type": "Feature", "id": "f_O8eUKTJNZRvNed76iqYd5uU_0=", "properties": {"ref": "1570", "@spider": "dm", "shop": "chemist", "addr:street": "G\u00fcterstra\u00dfe 1e", "addr:city": "Rheinfelden (Baden)", "addr:postcode": "79618", "addr:country": "DE", "name": "dm-drogerie markt", "phone": "+4976237418290", "opening_hours": "Mo-Sa 08:00-20:00", "brand": "dm", "brand:wikidata": "Q266572", "nsi_id": "dm-64e7ae"}, "geometry": {"type": "Point", "coordinates": [7.7818447, 47.5569418]}},
{"type": "Feature", "id": "KsbD1d9qZmzQ-jje1eAtz9vqKXc=", "properties": {"ref": "1571", "@spider": "dm", "shop": "chemist", "addr:street": "Sezanner Stra\u00dfe 5", "addr:city": "Malsch", "addr:postcode": "76316", "addr:country": "DE", "name": "dm-drogerie markt", "phone": "+497246305638", "opening_hours": "Mo-Sa 08:00-20:00", "brand": "dm", "brand:wikidata": "Q266572", "nsi_id": "dm-64e7ae"}, "geometry": {"type": "Point", "coordinates": [8.3301755, 48.8886476]}},
{"type": "Feature", "id": "rcFmOY84yK92RwWixWGgJUWbjnQ=", "properties": {"ref": "1572", "@spider": "dm", "shop": "chemist", "addr:street": "G\u00fcterstra\u00dfe 8", "addr:city": "B\u00fchl", "addr:postcode": "77815", "addr:country": "DE", "name": "dm-drogerie markt", "phone": "+4972232817769", "opening_hours": "Mo-Sa 08:00-20:00", "brand": "dm", "brand:wikidata": "Q266572", "nsi_id": "dm-64e7ae"}, "geometry": {"type": "Point", "coordinates": [8.1316918, 48.6983917]}},
{"type": "Feature", "id": "iy-z-ura4rbvlOzrBGWAInBWsRE=", "properties": {"ref": "1574", "@spider": "dm", "shop": "chemist", "addr:street": "Lotharstra\u00dfe 11-13", "addr:city": "Mainz", "addr:postcode": "55116", "addr:country": "DE", "name": "dm-drogerie markt", "phone": "+4961311430775", "opening_hours": "Mo-Sa 08:00-20:00", "brand": "dm", "brand:wikidata": "Q266572", "nsi_id": "dm-64e7ae"}, "geometry": {"type": "Point", "coordinates": [8.2668185, 50.0016397]}},
{"type": "Feature", "id": "Ac5MAd-a6lzbhGhR0pq7rO1dhKY=", "properties": {"ref": "1576", "@spider": "dm", "shop": "chemist", "addr:street": "Bliestalstra\u00dfe 112a", "addr:city": "Blieskastel", "addr:postcode": "66440", "addr:country": "DE", "name": "dm-drogerie markt", "phone": "+4968425070446", "opening_hours": "Mo-Sa 08:00-20:00", "brand": "dm", "brand:wikidata": "Q266572", "nsi_id": "dm-64e7ae"}, "geometry": {"type": "Point", "coordinates": [7.2684462, 49.2371408]}},
{"type": "Feature", "id": "rIeA3Rk4OY3ty7ofvHQ1f9KIxZE=", "properties": {"ref": "1577", "@spider": "dm", "shop": "chemist", "addr:street": "Im Ermesgraben 1i", "addr:city": "Schweich", "addr:postcode": "54338", "addr:country": "DE", "name": "dm-drogerie markt", "phone": "+4965029356611", "opening_hours": "Mo-Sa 08:00-21:00", "brand": "dm", "brand:wikidata": "Q266572", "nsi_id": "dm-64e7ae"}, "geometry": {"type": "Point", "coordinates": [6.7414814, 49.8200848]}},
{"type": "Feature", "id": "8ITV5KbpklHTq40vL03ZbwOltss=", "properties": {"ref": "1578", "@spider": "dm", "shop": "chemist", "addr:street": "Am Hauptbahnhof 5", "addr:city": "Essen", "addr:postcode": "45127", "addr:country": "DE", "name": "dm-drogerie markt", "phone": "+4920117789864", "opening_hours": "Mo-Fr 06:00-22:00; Sa 07:00-22:00; Su 09:00-22:00", "brand": "dm", "brand:wikidata": "Q266572", "nsi_id": "dm-64e7ae"}, "geometry": {"type": "Point", "coordinates": [7.0135474, 51.4516983]}},
{"type": "Feature", "id": "tojLsWoiFVKLqnXF7IvjWexQjss=", "properties": {"ref": "1579", "@spider": "dm", "shop": "chemist", "addr:street": "Pferdemarkt 32", "addr:city": "G\u00fcstrow", "addr:postcode": "18273", "addr:country": "DE", "name": "dm-drogerie markt", "phone": "+493843464285", "opening_hours": "Mo-Fr 08:00-19:00; Sa 08:00-18:00", "brand": "dm", "brand:wikidata": "Q266572", "nsi_id": "dm-64e7ae"}, "geometry": {"type": "Point", "coordinates": [12.1741232, 53.7952201]}},
{"type": "Feature", "id": "ofNNpFhxZxf6ZaQNkYgPkNp9n1I=", "properties": {"ref": "158", "@spider": "dm", "shop": "chemist", "addr:street": "Schillerstra\u00dfe 1", "addr:city": "Ettlingen", "addr:postcode": "76275", "addr:country": "DE", "name": "dm-drogerie markt", "phone": "+497243536120", "opening_hours": "Mo-Fr 08:00-20:00; Sa 08:00-16:00", "brand": "dm", "brand:wikidata": "Q266572", "nsi_id": "dm-64e7ae"}, "geometry": {"type": "Point", "coordinates": [8.4053299, 48.9418637]}},
{"type": "Feature", "id": "qNbrMQ4y7cYJy8rAcNWIOn2scfI=", "properties": {"ref": "1580", "@spider": "dm", "shop": "chemist", "addr:street": "Am Falder 20", "addr:city": "Kerpen", "addr:postcode": "50171", "addr:country": "DE", "name": "dm-drogerie markt", "phone": "+4922379799948", "opening_hours": "Mo-Sa 08:00-20:00", "brand": "dm", "brand:wikidata": "Q266572", "nsi_id": "dm-64e7ae"}, "geometry": {"type": "Point", "coordinates": [6.6904041, 50.8810702]}},
{"type": "Feature", "id": "wcexZawuB4mMl9XHHY3qHUpd02I=", "properties": {"ref": "1583", "@spider": "dm", "shop": "chemist", "addr:street": "Werner-von-Siemens-Stra\u00dfe 40", "addr:city": "Cham", "addr:postcode": "93413", "addr:country": "DE", "name": "dm-drogerie markt", "phone": "+4999717610867", "opening_hours": "Mo-Sa 08:00-20:00", "brand": "dm", "brand:wikidata": "Q266572", "nsi_id": "dm-64e7ae"}, "geometry": {"type": "Point", "coordinates": [12.6615388, 49.2028431]}},
{"type": "Feature", "id": "sj9l68rX0HM_DIq8zmcjDg_GNfU=", "properties": {"ref": "1584", "@spider": "dm", "shop": "chemist", "addr:street": "Treidlerstra\u00dfe 1", "addr:city": "Edingen-Neckarhausen", "addr:postcode": "68535", "addr:country": "DE", "name": "dm-drogerie markt", "phone": "+4962038399778", "opening_hours": "Mo-Sa 08:00-20:00", "brand": "dm", "brand:wikidata": "Q266572", "nsi_id": "dm-64e7ae"}, "geometry": {"type": "Point", "coordinates": [8.5958333, 49.4558146]}},
{"type": "Feature", "id": "UZ_dQbJF6oIEW9M6JUbtOwEuzQg=", "properties": {"ref": "1585", "@spider": "dm", "shop": "chemist", "addr:street": "Chemnitzer Stra\u00dfe 1", "addr:city": "Lugau", "addr:postcode": "09385", "addr:country": "DE", "name": "dm-drogerie markt", "phone": "+4937295541439", "opening_hours": "Mo-Fr 08:00-20:00; Sa 08:00-19:00", "brand": "dm", "brand:wikidata": "Q266572", "nsi_id": "dm-64e7ae"}, "geometry": {"type": "Point", "coordinates": [12.74847, 50.7446177]}},
{"type": "Feature", "id": "U9JpeBorwaBvf2L7suE1rqGo_MI=", "properties": {"ref": "1586", "@spider": "dm", "shop": "chemist", "addr:street": "Schweigerstra\u00dfe 9a", "addr:city": "Wolfenb\u00fcttel", "addr:postcode": "38302", "addr:country": "DE", "name": "dm-drogerie markt", "phone": "+4953319028264", "opening_hours": "Mo-Sa 08:00-20:00", "brand": "dm", "brand:wikidata": "Q266572", "nsi_id": "dm-64e7ae"}, "geometry": {"type": "Point", "coordinates": [10.572148, 52.1670993]}},
{"type": "Feature", "id": "8JH8P4M4k_yfVht6dL_wK8Ce5QY=", "properties": {"ref": "1587", "@spider": "dm", "shop": "chemist", "addr:street": "Am Alten Bahnhof 3", "addr:city": "Aldenhoven", "addr:postcode": "52457", "addr:country": "DE", "name": "dm-drogerie markt", "phone": "+492464909541", "opening_hours": "Mo-Sa 08:00-20:00", "brand": "dm", "brand:wikidata": "Q266572", "nsi_id": "dm-64e7ae"}, "geometry": {"type": "Point", "coordinates": [6.2751416, 50.8912784]}},
{"type": "Feature", "id": "y7kgfg8hS_kMaSmj1Qz0t1BPfig=", "properties": {"ref": "1589", "@spider": "dm", "shop": "chemist", "addr:street": "Industriestra\u00dfe 2", "addr:city": "Karben", "addr:postcode": "61184", "addr:country": "DE", "name": "dm-drogerie markt", "phone": "+4960399386556", "opening_hours": "Mo-Sa 08:00-20:00", "brand": "dm", "brand:wikidata": "Q266572", "nsi_id": "dm-64e7ae"}, "geometry": {"type": "Point", "coordinates": [8.7616367, 50.2321888]}},
{"type": "Feature", "id": "HsKKGyLrUZ61arH0AwzZcvUyWlI=", "properties": {"ref": "1590", "@spider": "dm", "shop": "chemist", "addr:street": "Hausener Stra\u00dfe 2", "addr:city": "Greding", "addr:postcode": "91171", "addr:country": "DE", "name": "dm-drogerie markt", "phone": "+4984636029945", "opening_hours": "Mo-Sa 08:00-20:00", "brand": "dm", "brand:wikidata": "Q266572", "nsi_id": "dm-64e7ae"}, "geometry": {"type": "Point", "coordinates": [11.3491575, 49.045061]}},
{"type": "Feature", "id": "mW8WBjnyDNVROUREIDAPa4Lf36U=", "properties": {"ref": "1591", "@spider": "dm", "shop": "chemist", "addr:street": "Marktplatz 11", "addr:city": "Laatzen", "addr:postcode": "30880", "addr:country": "DE", "name": "dm-drogerie markt", "phone": "+4951122848481", "opening_hours": "Mo-Sa 08:00-20:00", "brand": "dm", "brand:wikidata": "Q266572", "nsi_id": "dm-64e7ae"}, "geometry": {"type": "Point", "coordinates": [9.81092, 52.3076326]}},
{"type": "Feature", "id": "lTf75TFoB5FocjWANxxUt2ptcx8=", "properties": {"ref": "1592", "@spider": "dm", "shop": "chemist", "addr:street": "K\u00f6nigstra\u00dfe 205", "addr:city": "Remscheid", "addr:postcode": "42853", "addr:country": "DE", "name": "dm-drogerie markt", "phone": "+4921914607843", "opening_hours": "Mo-Sa 08:00-20:00", "brand": "dm", "brand:wikidata": "Q266572", "nsi_id": "dm-64e7ae"}, "geometry": {"type": "Point", "coordinates": [7.169089, 51.1911856]}},
{"type": "Feature", "id": "pJfIJk20A7lmF85ewTGzHHRDPDM=", "properties": {"ref": "1593", "@spider": "dm", "shop": "chemist", "addr:street": "Bahnhofstra\u00dfe 1/1", "addr:city": "Neu-Ulm", "addr:postcode": "89231", "addr:country": "DE", "name": "dm-drogerie markt", "phone": "+4973172565043", "opening_hours": "Mo-Sa 08:00-20:00", "brand": "dm", "brand:wikidata": "Q266572", "nsi_id": "dm-64e7ae"}, "geometry": {"type": "Point", "coordinates": [10.001516, 48.3922975]}},
{"type": "Feature", "id": "RxeWgm4G3WHhi1L7zvfddX0ntOM=", "properties": {"ref": "1594", "@spider": "dm", "shop": "chemist", "addr:street": "Am Silberstern 16", "addr:city": "Freudenberg", "addr:postcode": "57258", "addr:country": "DE", "name": "dm-drogerie markt", "phone": "+4927342849182", "opening_hours": "Mo-Fr 09:00-19:00; Sa 09:00-17:00", "brand": "dm", "brand:wikidata": "Q266572", "nsi_id": "dm-64e7ae"}, "geometry": {"type": "Point", "coordinates": [7.8749186, 50.8947513]}},
{"type": "Feature", "id": "5AXLi6OPGgX0B_YWU1mV0wuF5Xc=", "properties": {"ref": "1595", "@spider": "dm", "shop": "chemist", "addr:street": "Siemensring 17 d", "addr:city": "Kall", "addr:postcode": "53925", "addr:country": "DE", "name": "dm-drogerie markt", "phone": "+4924417799916", "opening_hours": "Mo-Fr 08:00-20:00; Sa 08:00-19:00", "brand": "dm", "brand:wikidata": "Q266572", "nsi_id": "dm-64e7ae"}, "geometry": {"type": "Point", "coordinates": [6.5762139, 50.5435743]}},
{"type": "Feature", "id": "rvq34kM8qP1Iw464ggSIwgB0-Oo=", "properties": {"ref": "1596", "@spider": "dm", "shop": "chemist", "addr:street": "Breisacher Stra\u00dfe 147", "addr:city": "Freiburg im Breisgau", "addr:postcode": "79110", "addr:country": "DE", "name": "dm-drogerie markt", "phone": "+4976189822156", "opening_hours": "Mo-Sa 08:00-20:00", "brand": "dm", "brand:wikidata": "Q266572", "nsi_id": "dm-64e7ae"}, "geometry": {"type": "Point", "coordinates": [7.8281317, 48.00699]}},
{"type": "Feature", "id": "yKYGvM0wB9WqPHmoAUL66WluTCQ=", "properties": {"ref": "1597", "@spider": "dm", "shop": "chemist", "addr:street": "L\u00fctzelh\u00e4user Weg 2", "addr:city": "Gelnhausen", "addr:postcode": "63571", "addr:country": "DE", "name": "dm-drogerie markt", "phone": "+4960519670254", "opening_hours": "Mo-Sa 08:00-20:00", "brand": "dm", "brand:wikidata": "Q266572", "nsi_id": "dm-64e7ae"}, "geometry": {"type": "Point", "coordinates": [9.1800841, 50.1888164]}},
{"type": "Feature", "id": "J3JbG-0oreF6ltOoiV8TU7IN618=", "properties": {"ref": "1598", "@spider": "dm", "shop": "chemist", "addr:street": "Mergenthalerstra\u00dfe 24", "addr:city": "Schwentinental", "addr:postcode": "24223", "addr:country": "DE", "name": "dm-drogerie markt", "phone": "+4943078238955", "opening_hours": "Mo-Sa 08:00-20:00", "brand": "dm", "brand:wikidata": "Q266572", "nsi_id": "dm-64e7ae"}, "geometry": {"type": "Point", "coordinates": [10.2211553, 54.288428]}},
{"type": "Feature", "id": "TXgY_qgK-OmA9I6CQP5cQLnGwXs=", "properties": {"ref": "1599", "@spider": "dm", "shop": "chemist", "addr:street": "Winterhuder Marktplatz 8", "addr:city": "Hamburg", "addr:postcode": "22299", "addr:country": "DE", "name": "dm-drogerie markt", "phone": "+494030031134", "opening_hours": "Mo-Sa 08:00-20:00", "brand": "dm", "brand:wikidata": "Q266572", "nsi_id": "dm-64e7ae"}, "geometry": {"type": "Point", "coordinates": [10.0004594, 53.5945835]}},
{"type": "Feature", "id": "XfwMVttUw-DhhCfLTlplq4f6i3g=", "properties": {"ref": "16", "@spider": "dm", "shop": "chemist", "addr:street": "Auwiesenweg 36", "addr:city": "Regen", "addr:postcode": "94209", "addr:country": "DE", "name": "dm-drogerie markt", "phone": "+499921904006", "opening_hours": "Mo-Sa 08:00-20:00", "brand": "dm", "brand:wikidata": "Q266572", "nsi_id": "dm-64e7ae"}, "geometry": {"type": "Point", "coordinates": [13.133539, 48.972216]}},
{"type": "Feature", "id": "ufTnVurOyuF9sH-sY6m0mFs67Jg=", "properties": {"ref": "160", "@spider": "dm", "shop": "chemist", "addr:street": "Schwabstra\u00dfe 93", "addr:city": "Stuttgart", "addr:postcode": "70193", "addr:country": "DE", "name": "dm-drogerie markt", "phone": "+497116203624", "opening_hours": "Mo-Sa 08:00-20:00", "brand": "dm", "brand:wikidata": "Q266572", "nsi_id": "dm-64e7ae"}, "geometry": {"type": "Point", "coordinates": [9.1556692, 48.7757336]}},
{"type": "Feature", "id": "QgIev8Q_CAb5kzIA7jXWRZCeRuo=", "properties": {"ref": "1600", "@spider": "dm", "shop": "chemist", "addr:street": "Nehrener Stra\u00dfe 4/1", "addr:city": "Gomaringen", "addr:postcode": "72810", "addr:country": "DE", "name": "dm-drogerie markt", "phone": "+4970729229175", "opening_hours": "Mo-Sa 08:00-20:00", "brand": "dm", "brand:wikidata": "Q266572", "nsi_id": "dm-64e7ae"}, "geometry": {"type": "Point", "coordinates": [9.0835158, 48.4518219]}},
{"type": "Feature", "id": "vFhDltPgL8MfMl0USRf8yyWt32Q=", "properties": {"ref": "1602", "@spider": "dm", "shop": "chemist", "addr:street": "Allee am R\u00f6thelheimpark 11", "addr:city": "Erlangen", "addr:postcode": "91052", "addr:country": "DE", "name": "dm-drogerie markt", "phone": "+4991314010046", "opening_hours": "Mo-Sa 07:30-20:00", "brand": "dm", "brand:wikidata": "Q266572", "nsi_id": "dm-64e7ae"}, "geometry": {"type": "Point", "coordinates": [11.0280976, 49.592182]}},
{"type": "Feature", "id": "zqy643CpvzxHUIVgLpovDxVpxF8=", "properties": {"ref": "1603", "@spider": "dm", "shop": "chemist", "addr:street": "Von-Brug-Stra\u00dfe 7", "addr:city": "Garmisch-Partenkirchen", "addr:postcode": "82467", "addr:country": "DE", "name": "dm-drogerie markt", "phone": "+4988217301549", "opening_hours": "Mo-Sa 08:00-20:00", "brand": "dm", "brand:wikidata": "Q266572", "nsi_id": "dm-64e7ae"}, "geometry": {"type": "Point", "coordinates": [11.0940338, 47.4953407]}},
{"type": "Feature", "id": "vY66cpgABAEnnkxJdMrXSwceYlQ=", "properties": {"ref": "1604", "@spider": "dm", "shop": "chemist", "addr:street": "Rothenburger Stra\u00dfe 8B", "addr:city": "Ansbach", "addr:postcode": "91522", "addr:country": "DE", "name": "dm-drogerie markt", "phone": "+4998148179985", "opening_hours": "Mo-Sa 08:00-20:00", "brand": "dm", "brand:wikidata": "Q266572", "nsi_id": "dm-64e7ae"}, "geometry": {"type": "Point", "coordinates": [10.5589605, 49.3113944]}},
{"type": "Feature", "id": "7qUqor2DJV2bMS8pU0_zTb1gfwo=", "properties": {"ref": "1605", "@spider": "dm", "shop": "chemist", "addr:street": "Kr\u00f6peliner Stra\u00dfe 85", "addr:city": "Rostock", "addr:postcode": "18055", "addr:country": "DE", "name": "dm-drogerie markt", "phone": "+493811285103", "opening_hours": "Mo-Sa 09:00-20:00", "brand": "dm", "brand:wikidata": "Q266572", "nsi_id": "dm-64e7ae"}, "geometry": {"type": "Point", "coordinates": [12.1374323, 54.0886249]}},
{"type": "Feature", "id": "lTQO27BnLZYBuRb2JdTJUNVo3Ls=", "properties": {"ref": "1606", "@spider": "dm", "shop": "chemist", "addr:street": "Johann-Auer-Stra\u00dfe 2", "addr:city": "Erding", "addr:postcode": "85435", "addr:country": "DE", "name": "dm-drogerie markt", "phone": "+4981222275308", "opening_hours": "Mo-Sa 08:00-20:00", "brand": "dm", "brand:wikidata": "Q266572", "nsi_id": "dm-64e7ae"}, "geometry": {"type": "Point", "coordinates": [11.8891228, 48.3059408]}},
{"type": "Feature", "id": "gyJbxfMRlrr8I6ll1IExpZZFpi8=", "properties": {"ref": "1607", "@spider": "dm", "shop": "chemist", "addr:street": "Friedrichstrasse 13-15", "addr:city": "D\u00fcsseldorf", "addr:postcode": "40217", "addr:country": "DE", "name": "dm-drogerie markt", "phone": "+4921130329597", "opening_hours": "Mo-Sa 08:00-20:30", "brand": "dm", "brand:wikidata": "Q266572", "nsi_id": "dm-64e7ae"}, "geometry": {"type": "Point", "coordinates": [6.7766136, 51.2182001]}},
{"type": "Feature", "id": "diBPmexEUawlFtkHGK2eEbUNdY8=", "properties": {"ref": "1608", "@spider": "dm", "shop": "chemist", "addr:street": "Leipziger Stra\u00dfe 41-43", "addr:city": "Frankfurt am Main", "addr:postcode": "60487", "addr:country": "DE", "name": "dm-drogerie markt", "phone": "+496924779613", "opening_hours": "Mo-Sa 08:00-21:00", "brand": "dm", "brand:wikidata": "Q266572", "nsi_id": "dm-64e7ae"}, "geometry": {"type": "Point", "coordinates": [8.6463548, 50.122246]}},
{"type": "Feature", "id": "6doonKN3wu3mCGc667ZchA9VMKo=", "properties": {"ref": "1609", "@spider": "dm", "shop": "chemist", "addr:street": "Gewerbering 20", "addr:city": "Niederkr\u00fcchten", "addr:postcode": "41372", "addr:country": "DE", "name": "dm-drogerie markt", "phone": "+4921634994037", "opening_hours": "Mo-Sa 08:00-20:00", "brand": "dm", "brand:wikidata": "Q266572", "nsi_id": "dm-64e7ae"}, "geometry": {"type": "Point", "coordinates": [6.1805497, 51.2101635]}},
{"type": "Feature", "id": "GO05s_vU_NzFLwrB2vrZ7O0BIqA=", "properties": {"ref": "161", "@spider": "dm", "shop": "chemist", "addr:street": "Benzstra\u00dfe 3", "addr:city": "Langenau", "addr:postcode": "89129", "addr:country": "DE", "name": "dm-drogerie markt", "phone": "+497345237675", "opening_hours": "Mo-Sa 08:00-20:00", "brand": "dm", "brand:wikidata": "Q266572", "nsi_id": "dm-64e7ae"}, "geometry": {"type": "Point", "coordinates": [10.1339571, 48.4997542]}},
{"type": "Feature", "id": "mmJ20boFg9NVvMtKKX4Cj20purc=", "properties": {"ref": "1610", "@spider": "dm", "shop": "chemist", "addr:street": "Poststra\u00dfe 42-44", "addr:city": "Nettetal", "addr:postcode": "41334", "addr:country": "DE", "name": "dm-drogerie markt", "phone": "+4921571289810", "opening_hours": "Mo-Sa 08:00-21:00", "brand": "dm", "brand:wikidata": "Q266572", "nsi_id": "dm-64e7ae"}, "geometry": {"type": "Point", "coordinates": [6.201041, 51.3254612]}},
{"type": "Feature", "id": "UyAOfD4Pyd8EO0u61dmX2hgwoaQ=", "properties": {"ref": "1613", "@spider": "dm", "shop": "chemist", "addr:street": "Gro\u00dfe Bergstra\u00dfe 152-162", "addr:city": "Hamburg", "addr:postcode": "22767", "addr:country": "DE", "name": "dm-drogerie markt", "phone": "+494032871903", "opening_hours": "Mo-Sa 07:00-20:00", "brand": "dm", "brand:wikidata": "Q266572", "nsi_id": "dm-64e7ae"}, "geometry": {"type": "Point", "coordinates": [9.9445948, 53.5516016]}},
{"type": "Feature", "id": "3AmHZg0r-FUN_tb6vcAQ5lSkZIY=", "properties": {"ref": "1614", "@spider": "dm", "shop": "chemist", "addr:street": "Porschestra\u00dfe 2", "addr:city": "Ilsfeld", "addr:postcode": "74360", "addr:country": "DE", "name": "dm-drogerie markt", "phone": "+497062674056", "opening_hours": "Mo-Sa 08:00-20:00", "brand": "dm", "brand:wikidata": "Q266572", "nsi_id": "dm-64e7ae"}, "geometry": {"type": "Point", "coordinates": [9.2672689, 49.0579218]}},
{"type": "Feature", "id": "KAMChYkI9qsrmXQlM-OzUBZ7NUg=", "properties": {"ref": "1615", "@spider": "dm", "shop": "chemist", "addr:street": "Rh\u00f6ndorfer Stra\u00dfe 15 a", "addr:city": "K\u00f6ln", "addr:postcode": "50939", "addr:country": "DE", "name": "dm-drogerie markt", "phone": "+4922129783146", "opening_hours": "Mo-Sa 08:00-20:00", "brand": "dm", "brand:wikidata": "Q266572", "nsi_id": "dm-64e7ae"}, "geometry": {"type": "Point", "coordinates": [6.9343466, 50.914527]}},
{"type": "Feature", "id": "CZsr6uy4bLQyA88jysz_WKNlpyE=", "properties": {"ref": "1616", "@spider": "dm", "shop": "chemist", "addr:street": "Henriette-Herz-Platz 4", "addr:city": "Berlin", "addr:postcode": "10178", "addr:country": "DE", "name": "dm-drogerie markt", "phone": "+493021230901", "opening_hours": "Mo-Fr 08:30-21:00; Sa 09:00-21:00", "brand": "dm", "brand:wikidata": "Q266572", "nsi_id": "dm-64e7ae"}, "geometry": {"type": "Point", "coordinates": [13.4035069, 52.5226063]}},
{"type": "Feature", "id": "0iSJ6JZHcrkSSRzsz8RDr8-TRjI=", "properties": {"ref": "1617", "@spider": "dm", "shop": "chemist", "addr:street": "Bamberger Stra\u00dfe 51", "addr:city": "Forchheim", "addr:postcode": "91301", "addr:country": "DE", "name": "dm-drogerie markt", "phone": "+4991919745109", "opening_hours": "Mo-Sa 08:00-20:00", "brand": "dm", "brand:wikidata": "Q266572", "nsi_id": "dm-64e7ae"}, "geometry": {"type": "Point", "coordinates": [11.0581492, 49.7256958]}},
{"type": "Feature", "id": "2t1Ni5UNnOhHK0WmFELj8zdwgL0=", "properties": {"ref": "1618", "@spider": "dm", "shop": "chemist", "addr:street": "Hammer Stra\u00dfe 28", "addr:city": "M\u00fcnster", "addr:postcode": "48153", "addr:country": "DE", "name": "dm-drogerie markt", "phone": "+4925152093849", "opening_hours": "Mo-Sa 09:00-20:00", "brand": "dm", "brand:wikidata": "Q266572", "nsi_id": "dm-64e7ae"}, "geometry": {"type": "Point", "coordinates": [7.6253444, 51.9527581]}},
{"type": "Feature", "id": "dvf0XVlWPUEJmAnf08pnivGlo3o=", "properties": {"ref": "1619", "@spider": "dm", "shop": "chemist", "addr:street": "Adersheimer Stra\u00dfe 62", "addr:city": "Wolfenb\u00fcttel", "addr:postcode": "38304", "addr:country": "DE", "name": "dm-drogerie markt", "phone": "+4953319028082", "opening_hours": "Mo-Sa 08:00-20:00", "brand": "dm", "brand:wikidata": "Q266572", "nsi_id": "dm-64e7ae"}, "geometry": {"type": "Point", "coordinates": [10.5103451, 52.1580655]}},
{"type": "Feature", "id": "NxVbsM7MD7wifv5tt6aH4jc01IE=", "properties": {"ref": "1621", "@spider": "dm", "shop": "chemist", "addr:street": "Seeweg 12", "addr:city": "Herbolzheim", "addr:postcode": "79336", "addr:country": "DE", "name": "dm-drogerie markt", "phone": "+4976439360170", "opening_hours": "Mo-Sa 08:00-20:00", "brand": "dm", "brand:wikidata": "Q266572", "nsi_id": "dm-64e7ae"}, "geometry": {"type": "Point", "coordinates": [7.7648928, 48.2251979]}},
{"type": "Feature", "id": "rwG4VPOxYbqo7S5Xmv_wEPUi3wA=", "properties": {"ref": "1622", "@spider": "dm", "shop": "chemist", "addr:street": "Kronacher Stra\u00dfe 131", "addr:city": "Naila", "addr:postcode": "95119", "addr:country": "DE", "name": "dm-drogerie markt", "phone": "+499282931398", "opening_hours": "Mo-Sa 08:00-20:00", "brand": "dm", "brand:wikidata": "Q266572", "nsi_id": "dm-64e7ae"}, "geometry": {"type": "Point", "coordinates": [11.6942778, 50.323112]}},
{"type": "Feature", "id": "duzJMIv7YeUgwQO1z2WPL7rrgBw=", "properties": {"ref": "1623", "@spider": "dm", "shop": "chemist", "addr:street": "Neue Grottkauer Stra\u00dfe 23", "addr:city": "Berlin", "addr:postcode": "12619", "addr:country": "DE", "name": "dm-drogerie markt", "phone": "+493053021849", "opening_hours": "Mo-Sa 08:00-20:00", "brand": "dm", "brand:wikidata": "Q266572", "nsi_id": "dm-64e7ae"}, "geometry": {"type": "Point", "coordinates": [13.5953827, 52.5299586]}},
{"type": "Feature", "id": "3q7Z4ATkrCn79B0eXHPB5V1IQOg=", "properties": {"ref": "1624", "@spider": "dm", "shop": "chemist", "addr:street": "Varnhagenstra\u00dfe 7a", "addr:city": "Bad Arolsen", "addr:postcode": "34454", "addr:country": "DE", "name": "dm-drogerie markt", "phone": "+4956916238650", "opening_hours": "Mo-Sa 08:00-20:00", "brand": "dm", "brand:wikidata": "Q266572", "nsi_id": "dm-64e7ae"}, "geometry": {"type": "Point", "coordinates": [9.0112749, 51.3817439]}},
{"type": "Feature", "id": "Ca12Y4BMSKlJtmaNV1sDX4J_MqU=", "properties": {"ref": "1625", "@spider": "dm", "shop": "chemist", "addr:street": "Holger-Crafoord-Stra\u00dfe 2", "addr:city": "Hochheim am Main", "addr:postcode": "65239", "addr:country": "DE", "name": "dm-drogerie markt", "phone": "+4961468379764", "opening_hours": "Mo-Sa 08:00-20:00", "brand": "dm", "brand:wikidata": "Q266572", "nsi_id": "dm-64e7ae"}, "geometry": {"type": "Point", "coordinates": [8.3658454, 50.0155817]}},
{"type": "Feature", "id": "kQGYChEPV7Wzv5JrQiNSRhvPO6s=", "properties": {"ref": "1626", "@spider": "dm", "shop": "chemist", "addr:street": "Von-Coels-Stra\u00dfe 212", "addr:city": "Aachen", "addr:postcode": "52080", "addr:country": "DE", "name": "dm-drogerie markt", "phone": "+4924118059765", "opening_hours": "Mo-Sa 09:00-20:00", "brand": "dm", "brand:wikidata": "Q266572", "nsi_id": "dm-64e7ae"}, "geometry": {"type": "Point", "coordinates": [6.161162, 50.7786804]}},
{"type": "Feature", "id": "aAn44vUCg0TS8_8BO38CKjSStqw=", "properties": {"ref": "1627", "@spider": "dm", "shop": "chemist", "addr:street": "Rudolf-Diesel-Stra\u00dfe 10", "addr:city": "Dillingen a.d.Donau", "addr:postcode": "89407", "addr:country": "DE", "name": "dm-drogerie markt", "phone": "+4990717058114", "opening_hours": "Mo-Sa 08:00-20:00", "brand": "dm", "brand:wikidata": "Q266572", "nsi_id": "dm-64e7ae"}, "geometry": {"type": "Point", "coordinates": [10.5143913, 48.5871044]}},
{"type": "Feature", "id": "EmP9UpfEcATR4CgEo50NCYI-nro=", "properties": {"ref": "1628", "@spider": "dm", "shop": "chemist", "addr:street": "Bergmannstra\u00dfe 102", "addr:city": "Berlin", "addr:postcode": "10961", "addr:country": "DE", "name": "dm-drogerie markt", "phone": "+493061076846", "opening_hours": "Mo-Sa 09:00-20:30", "brand": "dm", "brand:wikidata": "Q266572", "nsi_id": "dm-64e7ae"}, "geometry": {"type": "Point", "coordinates": [13.3895964, 52.48987]}},
{"type": "Feature", "id": "XgjnquBfa_4yvROvlswl_pLMKPI=", "properties": {"ref": "1630", "@spider": "dm", "shop": "chemist", "addr:street": "N\u00fcrnberger Stra\u00dfe 3c", "addr:city": "Bayreuth", "addr:postcode": "95448", "addr:country": "DE", "name": "dm-drogerie markt", "phone": "+4992150705660", "opening_hours": "Mo-Sa 08:00-20:00", "brand": "dm", "brand:wikidata": "Q266572", "nsi_id": "dm-64e7ae"}, "geometry": {"type": "Point", "coordinates": [11.5923239, 49.9352836]}},
{"type": "Feature", "id": "Wq18TcaAX6RnCtidwd-SnepoQoY=", "properties": {"ref": "1631", "@spider": "dm", "shop": "chemist", "addr:street": "Oskar-von-Miller-Stra\u00dfe 6", "addr:city": "Schweinfurt", "addr:postcode": "97424", "addr:country": "DE", "name": "dm-drogerie markt", "phone": "+4997214997273", "opening_hours": "Mo-Sa 08:00-20:00", "brand": "dm", "brand:wikidata": "Q266572", "nsi_id": "dm-64e7ae"}, "geometry": {"type": "Point", "coordinates": [10.2059844, 50.0416265]}},
{"type": "Feature", "id": "7wycCzYHiE32uoDwxJ43gyQe9-Y=", "properties": {"ref": "1632", "@spider": "dm", "shop": "chemist", "addr:street": "Johannes-Cleven-Stra\u00dfe 4", "addr:city": "Nettetal", "addr:postcode": "41334", "addr:country": "DE", "name": "dm-drogerie markt", "phone": "+4921531219943", "opening_hours": "Mo-Sa 09:00-20:00", "brand": "dm", "brand:wikidata": "Q266572", "nsi_id": "dm-64e7ae"}, "geometry": {"type": "Point", "coordinates": [6.2743183, 51.3051454]}},
{"type": "Feature", "id": "dQQxSt8QOFpt6W0cO_ShkYeUdBU=", "properties": {"ref": "1633", "@spider": "dm", "shop": "chemist", "addr:street": "Hutfilterstra\u00dfe 12-14", "addr:city": "Bremen", "addr:postcode": "28195", "addr:country": "DE", "name": "dm-drogerie markt", "phone": "+4942116899256", "opening_hours": "Mo-Fr 08:00-20:00; Sa 09:00-20:00", "brand": "dm", "brand:wikidata": "Q266572", "nsi_id": "dm-64e7ae"}, "geometry": {"type": "Point", "coordinates": [8.8020956, 53.0784874]}},
{"type": "Feature", "id": "zdtGY48WtRNwM4t0qgby8cGFv6o=", "properties": {"ref": "1634", "@spider": "dm", "shop": "chemist", "addr:street": "Gro\u00dfe Tonkuhle 9", "addr:city": "Rinteln", "addr:postcode": "31737", "addr:country": "DE", "name": "dm-drogerie markt", "phone": "+4957519210578", "opening_hours": "Mo-Sa 08:00-20:00", "brand": "dm", "brand:wikidata": "Q266572", "nsi_id": "dm-64e7ae"}, "geometry": {"type": "Point", "coordinates": [9.081192, 52.198101]}},
{"type": "Feature", "id": "MpNSgAcbU-OdfMWepaUztYGDnYY=", "properties": {"ref": "1636", "@spider": "dm", "shop": "chemist", "addr:street": "Oppenheimer Stra\u00dfe 44", "addr:city": "Nieder-Olm", "addr:postcode": "55268", "addr:country": "DE", "name": "dm-drogerie markt", "phone": "+4961367608937", "opening_hours": "Mo-Sa 08:00-21:00", "brand": "dm", "brand:wikidata": "Q266572", "nsi_id": "dm-64e7ae"}, "geometry": {"type": "Point", "coordinates": [8.2024914, 49.9035373]}},
{"type": "Feature", "id": "j8Hgfk9iL_cejwZkq2vu_mREYrs=", "properties": {"ref": "1637", "@spider": "dm", "shop": "chemist", "addr:street": "Argonnenstra\u00dfe 9/4", "addr:city": "Weingarten", "addr:postcode": "88250", "addr:country": "DE", "name": "dm-drogerie markt", "phone": "+497515069570", "opening_hours": "Mo-Sa 08:00-20:00", "brand": "dm", "brand:wikidata": "Q266572", "nsi_id": "dm-64e7ae"}, "geometry": {"type": "Point", "coordinates": [9.6380676, 47.8141143]}},
{"type": "Feature", "id": "VtJvOK3-3t03pZC4egcdFZUsypw=", "properties": {"ref": "1638", "@spider": "dm", "shop": "chemist", "addr:street": "N\u00f6rdlicher Stadtgraben 6", "addr:city": "Aalen", "addr:postcode": "73430", "addr:country": "DE", "name": "dm-drogerie markt", "phone": "+4973613600724", "opening_hours": "Mo-Sa 08:00-20:00", "brand": "dm", "brand:wikidata": "Q266572", "nsi_id": "dm-64e7ae"}, "geometry": {"type": "Point", "coordinates": [10.093874, 48.840409]}},
{"type": "Feature", "id": "ZuYbioKDsUhfp0nF5S0vFrRUnag=", "properties": {"ref": "1639", "@spider": "dm", "shop": "chemist", "addr:street": "Marburger Stra\u00dfe 16-18", "addr:city": "Kreuztal", "addr:postcode": "57223", "addr:country": "DE", "name": "dm-drogerie markt", "phone": "+4927325531947", "opening_hours": "Mo-Fr 08:00-19:00; Sa 08:00-18:00", "brand": "dm", "brand:wikidata": "Q266572", "nsi_id": "dm-64e7ae"}, "geometry": {"type": "Point", "coordinates": [7.9924738, 50.9605279]}},
{"type": "Feature", "id": "jzg1NVr01Gxw7FYhTLEuvhLsvYk=", "properties": {"ref": "164", "@spider": "dm", "shop": "chemist", "addr:street": "Kanzleistra\u00dfe 11", "addr:city": "Konstanz", "addr:postcode": "78462", "addr:country": "DE", "name": "dm-drogerie markt", "phone": "+497531914413", "opening_hours": "Mo-Sa 08:30-20:00", "brand": "dm", "brand:wikidata": "Q266572", "nsi_id": "dm-64e7ae"}, "geometry": {"type": "Point", "coordinates": [9.173967, 47.66039]}},
{"type": "Feature", "id": "JCXRpFzsOHedQw8eyMyCP_imzwo=", "properties": {"ref": "1640", "@spider": "dm", "shop": "chemist", "addr:street": "Unter\u00f6wisheimer Stra\u00dfe 19", "addr:city": "Ubstadt-Weiher", "addr:postcode": "76698", "addr:country": "DE", "name": "dm-drogerie markt", "phone": "+4972513679321", "opening_hours": "Mo-Sa 08:00-20:00", "brand": "dm", "brand:wikidata": "Q266572", "nsi_id": "dm-64e7ae"}, "geometry": {"type": "Point", "coordinates": [8.6301686, 49.1556297]}},
{"type": "Feature", "id": "az-ZZVNxy63_vW5vPRnHhyinCHI=", "properties": {"ref": "1641", "@spider": "dm", "shop": "chemist", "addr:street": "W\u00fcrzburger Stra\u00dfe 54", "addr:city": "Gem\u00fcnden a. Main", "addr:postcode": "97737", "addr:country": "DE", "name": "dm-drogerie markt", "phone": "+499351602527", "opening_hours": "Mo-Sa 08:00-20:00", "brand": "dm", "brand:wikidata": "Q266572", "nsi_id": "dm-64e7ae"}, "geometry": {"type": "Point", "coordinates": [9.6763899, 50.0609985]}},
{"type": "Feature", "id": "NT1TeMopLYHbpNksjPSmGW5mNo8=", "properties": {"ref": "1642", "@spider": "dm", "shop": "chemist", "addr:street": "Bramscher Stra\u00dfe 159", "addr:city": "Osnabr\u00fcck", "addr:postcode": "49088", "addr:country": "DE", "name": "dm-drogerie markt", "phone": "+495414042750", "opening_hours": "Mo-Fr 08:00-20:00; Sa 09:00-20:00", "brand": "dm", "brand:wikidata": "Q266572", "nsi_id": "dm-64e7ae"}, "geometry": {"type": "Point", "coordinates": [8.0377987, 52.292242]}},
{"type": "Feature", "id": "Oum7yH82UNxojI343mu3uXEmBzI=", "properties": {"ref": "1643", "@spider": "dm", "shop": "chemist", "addr:street": "Dorfplatz 4", "addr:city": "N\u00fcmbrecht", "addr:postcode": "51588", "addr:country": "DE", "name": "dm-drogerie markt", "phone": "+4922939099415", "opening_hours": "Mo-Fr 08:00-20:00; Sa 08:00-18:00", "brand": "dm", "brand:wikidata": "Q266572", "nsi_id": "dm-64e7ae"}, "geometry": {"type": "Point", "coordinates": [7.5406785, 50.9032787]}},
{"type": "Feature", "id": "IBztyjJWq-P_cdVM876t8rnAtxI=", "properties": {"ref": "1645", "@spider": "dm", "shop": "chemist", "addr:street": "Eberst\u00e4dter Stra\u00dfe 94d", "addr:city": "Pfungstadt", "addr:postcode": "64319", "addr:country": "DE", "name": "dm-drogerie markt", "phone": "+4961579866131", "opening_hours": "Mo-Sa 08:00-20:00", "brand": "dm", "brand:wikidata": "Q266572", "nsi_id": "dm-64e7ae"}, "geometry": {"type": "Point", "coordinates": [8.6049899, 49.8053223]}},
{"type": "Feature", "id": "CJadyGYgD9iONsRQmQnM1LfNt-w=", "properties": {"ref": "1646", "@spider": "dm", "shop": "chemist", "addr:street": "Dieselstra\u00dfe 35", "addr:city": "Eching", "addr:postcode": "85386", "addr:country": "DE", "name": "dm-drogerie markt", "phone": "+4981656095086", "opening_hours": "Mo-Sa 07:30-20:00", "brand": "dm", "brand:wikidata": "Q266572", "nsi_id": "dm-64e7ae"}, "geometry": {"type": "Point", "coordinates": [11.6467598, 48.3112199]}},
{"type": "Feature", "id": "FZNoGu13qywEUYFaE6j9EqyRlTA=", "properties": {"ref": "1647", "@spider": "dm", "shop": "chemist", "addr:street": "Maisacher Stra\u00dfe 122", "addr:city": "F\u00fcrstenfeldbruck", "addr:postcode": "82256", "addr:country": "DE", "name": "dm-drogerie markt", "phone": "+4981415359469", "opening_hours": "Mo-Sa 07:00-20:00", "brand": "dm", "brand:wikidata": "Q266572", "nsi_id": "dm-64e7ae"}, "geometry": {"type": "Point", "coordinates": [11.257793, 48.1939038]}},
{"type": "Feature", "id": "tmuch3SLusPF9C1a0FUxWKie1_4=", "properties": {"ref": "1648", "@spider": "dm", "shop": "chemist", "addr:street": "Wettersteinring 5", "addr:city": "Dachau", "addr:postcode": "85221", "addr:country": "DE", "name": "dm-drogerie markt", "phone": "+4981312722134", "opening_hours": "Mo-Sa 07:30-20:00", "brand": "dm", "brand:wikidata": "Q266572", "nsi_id": "dm-64e7ae"}, "geometry": {"type": "Point", "coordinates": [11.4487297, 48.2444774]}},
{"type": "Feature", "id": "TG5zJRDTnBHufbtf1CJaEnr7D4w=", "properties": {"ref": "1649", "@spider": "dm", "shop": "chemist", "addr:street": "Balanstra\u00dfe 188", "addr:city": "M\u00fcnchen", "addr:postcode": "81549", "addr:country": "DE", "name": "dm-drogerie markt", "phone": "+498960062265", "opening_hours": "Mo-Sa 07:00-20:00", "brand": "dm", "brand:wikidata": "Q266572", "nsi_id": "dm-64e7ae"}, "geometry": {"type": "Point", "coordinates": [11.6029434, 48.1054719]}},
{"type": "Feature", "id": "hL7k7xe59qRuH_sUXOL_PRPouAk=", "properties": {"ref": "1650", "@spider": "dm", "shop": "chemist", "addr:street": "Falkenseer Chaussee 241", "addr:city": "Berlin", "addr:postcode": "13583", "addr:country": "DE", "name": "dm-drogerie markt", "phone": "+493036995030", "opening_hours": "Mo-Sa 08:00-20:00", "brand": "dm", "brand:wikidata": "Q266572", "nsi_id": "dm-64e7ae"}, "geometry": {"type": "Point", "coordinates": [13.1785335, 52.548489]}},
{"type": "Feature", "id": "HBYn5pQcyG_Y3QLCX-Dj6Hw-5dQ=", "properties": {"ref": "1651", "@spider": "dm", "shop": "chemist", "addr:street": "Lichtenfelser Stra\u00dfe 2a", "addr:city": "N\u00fcrnberg", "addr:postcode": "90427", "addr:country": "DE", "name": "dm-drogerie markt", "phone": "+4991130709554", "opening_hours": "Mo-Sa 08:00-20:00", "brand": "dm", "brand:wikidata": "Q266572", "nsi_id": "dm-64e7ae"}, "geometry": {"type": "Point", "coordinates": [11.0318211, 49.5180872]}},
{"type": "Feature", "id": "6VhR94RKfCIMDcBneRp0emvk9YI=", "properties": {"ref": "1652", "@spider": "dm", "shop": "chemist", "addr:street": "M\u00fcnchner Freiheit 7", "addr:city": "M\u00fcnchen", "addr:postcode": "80802", "addr:country": "DE", "name": "dm-drogerie markt", "phone": "+498933029787", "opening_hours": "Mo-Sa 08:00-20:00", "brand": "dm", "brand:wikidata": "Q266572", "nsi_id": "dm-64e7ae"}, "geometry": {"type": "Point", "coordinates": [11.58668, 48.1620923]}},
{"type": "Feature", "id": "jrLCYdwU33qHReD0j918XYB58xM=", "properties": {"ref": "1654", "@spider": "dm", "shop": "chemist", "addr:street": "Klinger 8", "addr:city": "M\u00f6mbris", "addr:postcode": "63776", "addr:country": "DE", "name": "dm-drogerie markt", "phone": "+4960299992991", "opening_hours": "Mo-Sa 07:00-20:00", "brand": "dm", "brand:wikidata": "Q266572", "nsi_id": "dm-64e7ae"}, "geometry": {"type": "Point", "coordinates": [9.1581855, 50.0577056]}},
{"type": "Feature", "id": "T6QrVFT0WyWNCIV6Re5Y0WeSLv8=", "properties": {"ref": "1655", "@spider": "dm", "shop": "chemist", "addr:street": "Merkurstra\u00dfe 38", "addr:city": "Kaiserslautern", "addr:postcode": "67663", "addr:country": "DE", "name": "dm-drogerie markt", "phone": "+4963135790564", "opening_hours": "Mo-Sa 08:00-20:00", "brand": "dm", "brand:wikidata": "Q266572", "nsi_id": "dm-64e7ae"}, "geometry": {"type": "Point", "coordinates": [7.7176288, 49.4424428]}},
{"type": "Feature", "id": "_b1C41Ds1k2jRPhXk8aGIFhuyuA=", "properties": {"ref": "1656", "@spider": "dm", "shop": "chemist", "addr:street": "G\u00fcterstra\u00dfe 1", "addr:city": "Wiesloch", "addr:postcode": "69168", "addr:country": "DE", "name": "dm-drogerie markt", "phone": "+4962223879119", "opening_hours": "Mo-Sa 08:00-20:00", "brand": "dm", "brand:wikidata": "Q266572", "nsi_id": "dm-64e7ae"}, "geometry": {"type": "Point", "coordinates": [8.6970384, 49.2915478]}},
{"type": "Feature", "id": "cF8etzpAIzu6APlUfhg819K4POU=", "properties": {"ref": "1658", "@spider": "dm", "shop": "chemist", "addr:street": "Handwerkstra\u00dfe 1", "addr:city": "Rostock", "addr:postcode": "18069", "addr:country": "DE", "name": "dm-drogerie markt", "phone": "+493811215956", "opening_hours": "Mo-Sa 08:00-20:00", "brand": "dm", "brand:wikidata": "Q266572", "nsi_id": "dm-64e7ae"}, "geometry": {"type": "Point", "coordinates": [12.0736668, 54.1246016]}},
{"type": "Feature", "id": "fkCOUhbtlaRN2Ez1fMrKez3Bp0c=", "properties": {"ref": "1659", "@spider": "dm", "shop": "chemist", "addr:street": "Detmolder Stra\u00dfe 550-560", "addr:city": "Bielefeld", "addr:postcode": "33699", "addr:country": "DE", "name": "dm-drogerie markt", "phone": "+4952192369253", "opening_hours": "Mo-Sa 08:00-20:00", "brand": "dm", "brand:wikidata": "Q266572", "nsi_id": "dm-64e7ae"}, "geometry": {"type": "Point", "coordinates": [8.6038276, 51.9936641]}},
{"type": "Feature", "id": "CJz9H-_70gInBKxwJ7DJs0kCXeY=", "properties": {"ref": "1660", "@spider": "dm", "shop": "chemist", "addr:street": "Bahnhofstra\u00dfe 94", "addr:city": "Geislingen an der Steige", "addr:postcode": "73312", "addr:country": "DE", "name": "dm-drogerie markt", "phone": "+4973313059862", "opening_hours": "Mo-Sa 08:00-20:00", "brand": "dm", "brand:wikidata": "Q266572", "nsi_id": "dm-64e7ae"}, "geometry": {"type": "Point", "coordinates": [9.8354066, 48.6234689]}},
{"type": "Feature", "id": "fIOHCsqfHRACJ6Ajv67Ep06KYj0=", "properties": {"ref": "1662", "@spider": "dm", "shop": "chemist", "addr:street": "Rautenstrauchstra\u00dfe 55", "addr:city": "Hamm", "addr:postcode": "59075", "addr:country": "DE", "name": "dm-drogerie markt", "phone": "+4923813041643", "opening_hours": "Mo-Sa 08:30-20:00", "brand": "dm", "brand:wikidata": "Q266572", "nsi_id": "dm-64e7ae"}, "geometry": {"type": "Point", "coordinates": [7.759459, 51.694523]}},
{"type": "Feature", "id": "VJNAJOzlXC1gyH8WTMYWKnmextA=", "properties": {"ref": "1663", "@spider": "dm", "shop": "chemist", "addr:street": "Planckstra\u00dfe 12", "addr:city": "Freudenstadt", "addr:postcode": "72250", "addr:country": "DE", "name": "dm-drogerie markt", "phone": "+4974418638392", "opening_hours": "Mo-Sa 08:00-20:00", "brand": "dm", "brand:wikidata": "Q266572", "nsi_id": "dm-64e7ae"}, "geometry": {"type": "Point", "coordinates": [8.4380415, 48.4644853]}},
{"type": "Feature", "id": "X65Z3KYvp-QDxhOOJfaZM1PZeKQ=", "properties": {"ref": "1664", "@spider": "dm", "shop": "chemist", "addr:street": "Lattenkamp 1", "addr:city": "Schleswig", "addr:postcode": "24837", "addr:country": "DE", "name": "dm-drogerie markt", "phone": "+494621290252", "opening_hours": "Mo-Sa 08:00-20:00", "brand": "dm", "brand:wikidata": "Q266572", "nsi_id": "dm-64e7ae"}, "geometry": {"type": "Point", "coordinates": [9.527891, 54.5305863]}},
{"type": "Feature", "id": "VEKR-jvtsrZ8WoZMMxiM7qRhTXA=", "properties": {"ref": "1666", "@spider": "dm", "shop": "chemist", "addr:street": "Altdorfer Stra\u00dfe 26", "addr:city": "Holzgerlingen", "addr:postcode": "71088", "addr:country": "DE", "name": "dm-drogerie markt", "phone": "+4970316310785", "opening_hours": "Mo-Sa 08:00-20:00", "brand": "dm", "brand:wikidata": "Q266572", "nsi_id": "dm-64e7ae"}, "geometry": {"type": "Point", "coordinates": [9.0067256, 48.6362663]}},
{"type": "Feature", "id": "dCRMEl26sqmphEATHDsfVbKPIrw=", "properties": {"ref": "1671", "@spider": "dm", "shop": "chemist", "addr:street": "Achener Weg 1", "addr:city": "Isny im Allg\u00e4u", "addr:postcode": "88316", "addr:country": "DE", "name": "dm-drogerie markt", "phone": "+497562913571", "opening_hours": "Mo-Sa 08:00-20:00", "brand": "dm", "brand:wikidata": "Q266572", "nsi_id": "dm-64e7ae"}, "geometry": {"type": "Point", "coordinates": [10.0432593, 47.6977194]}},
{"type": "Feature", "id": "iUPx5Iw9z5-1qwgB83o-Loo0M2Y=", "properties": {"ref": "1673", "@spider": "dm", "shop": "chemist", "addr:street": "Elsa-Brandstr\u00f6m-Stra\u00dfe 3", "addr:city": "Hemer", "addr:postcode": "58675", "addr:country": "DE", "name": "dm-drogerie markt", "phone": "+4923725039970", "opening_hours": "Mo-Sa 08:30-19:00", "brand": "dm", "brand:wikidata": "Q266572", "nsi_id": "dm-64e7ae"}, "geometry": {"type": "Point", "coordinates": [7.7678042, 51.3839152]}},
{"type": "Feature", "id": "EoWBY7TzczGw-XnT4Ksm4tudUio=", "properties": {"ref": "1674", "@spider": "dm", "shop": "chemist", "addr:street": "Ka\u00dfstra\u00dfe 42", "addr:city": "Emmerich", "addr:postcode": "46446", "addr:country": "DE", "name": "dm-drogerie markt", "phone": "+4928225370765", "opening_hours": "Mo-Fr 09:00-19:00; Sa 09:00-18:00", "brand": "dm", "brand:wikidata": "Q266572", "nsi_id": "dm-64e7ae"}, "geometry": {"type": "Point", "coordinates": [6.244778, 51.831052]}},
{"type": "Feature", "id": "NYYfMfTbglTwn6l9fhcoQKJnGvc=", "properties": {"ref": "1677", "@spider": "dm", "shop": "chemist", "addr:street": "Rietstra\u00dfe 40", "addr:city": "Villingen-Schwenningen", "addr:postcode": "78050", "addr:country": "DE", "name": "dm-drogerie markt", "phone": "+4977212061598", "opening_hours": "Mo-Sa 08:00-19:00", "brand": "dm", "brand:wikidata": "Q266572", "nsi_id": "dm-64e7ae"}, "geometry": {"type": "Point", "coordinates": [8.4560582, 48.0599695]}},
{"type": "Feature", "id": "oTaTe1Z3mTa11Ee3oifiLHdpELM=", "properties": {"ref": "1678", "@spider": "dm", "shop": "chemist", "addr:street": "Wormser Landstra\u00dfe 192", "addr:city": "Speyer", "addr:postcode": "67346", "addr:country": "DE", "name": "dm-drogerie markt", "phone": "+4962326042807", "opening_hours": "Mo-Sa 08:00-21:00", "brand": "dm", "brand:wikidata": "Q266572", "nsi_id": "dm-64e7ae"}, "geometry": {"type": "Point", "coordinates": [8.4291145, 49.3380946]}},
{"type": "Feature", "id": "z2uuY-MfnRA8uhBXB0_8jL6wnhw=", "properties": {"ref": "1680", "@spider": "dm", "shop": "chemist", "addr:street": "Haigerlocher Stra\u00dfe 24", "addr:city": "Hechingen", "addr:postcode": "72379", "addr:country": "DE", "name": "dm-drogerie markt", "phone": "+4974716201100", "opening_hours": "Mo-Sa 08:00-20:00", "brand": "dm", "brand:wikidata": "Q266572", "nsi_id": "dm-64e7ae"}, "geometry": {"type": "Point", "coordinates": [8.9626969, 48.3597646]}},
{"type": "Feature", "id": "qw4y5u_WmGyKKkZ5kpkvuW4B81E=", "properties": {"ref": "1681", "@spider": "dm", "shop": "chemist", "addr:street": "Kramerstra\u00dfe 34", "addr:city": "Memmingen", "addr:postcode": "87700", "addr:country": "DE", "name": "dm-drogerie markt", "phone": "+4983314908337", "opening_hours": "Mo-Sa 08:30-19:00", "brand": "dm", "brand:wikidata": "Q266572", "nsi_id": "dm-64e7ae"}, "geometry": {"type": "Point", "coordinates": [10.1820891, 47.9840152]}},
{"type": "Feature", "id": "qiZsVkTbjubGbNmvSgK6GDcd9qY=", "properties": {"ref": "1683", "@spider": "dm", "shop": "chemist", "addr:street": "Odenwaldring 70", "addr:city": "Offenbach am Main", "addr:postcode": "63069", "addr:country": "DE", "name": "dm-drogerie markt", "phone": "+496983007111", "opening_hours": "Mo-Sa 08:00-20:00", "brand": "dm", "brand:wikidata": "Q266572", "nsi_id": "dm-64e7ae"}, "geometry": {"type": "Point", "coordinates": [8.7597202, 50.0875621]}},
{"type": "Feature", "id": "YCKpHimO4frARHP3NHhIcTAjDOY=", "properties": {"ref": "1684", "@spider": "dm", "shop": "chemist", "addr:street": "Friedrichstra\u00dfe 100", "addr:city": "Berlin", "addr:postcode": "10117", "addr:country": "DE", "name": "dm-drogerie markt", "phone": "+493020216659", "opening_hours": "Mo-Fr 07:00-22:00; Sa 09:00-22:00", "brand": "dm", "brand:wikidata": "Q266572", "nsi_id": "dm-64e7ae"}, "geometry": {"type": "Point", "coordinates": [13.3883786, 52.5208313]}},
{"type": "Feature", "id": "2gbEI_vmVRao_lnxGjrQDB2qeMk=", "properties": {"ref": "1685", "@spider": "dm", "shop": "chemist", "addr:street": "Bahnhofstra\u00dfe 25", "addr:city": "Berlin", "addr:postcode": "12555", "addr:country": "DE", "name": "dm-drogerie markt", "phone": "+493064328952", "opening_hours": "Mo-Sa 09:00-20:00", "brand": "dm", "brand:wikidata": "Q266572", "nsi_id": "dm-64e7ae"}, "geometry": {"type": "Point", "coordinates": [13.5790353, 52.4579193]}},
{"type": "Feature", "id": "lR6w6_wyameL4JLuAAXBW6OnKeo=", "properties": {"ref": "1687", "@spider": "dm", "shop": "chemist", "addr:street": "Industriestra\u00dfe 23/1", "addr:city": "Satteldorf", "addr:postcode": "74589", "addr:country": "DE", "name": "dm-drogerie markt", "phone": "+4979519645867", "opening_hours": "Mo-Sa 08:00-20:00", "brand": "dm", "brand:wikidata": "Q266572", "nsi_id": "dm-64e7ae"}, "geometry": {"type": "Point", "coordinates": [10.0731268, 49.1808088]}},
{"type": "Feature", "id": "yWfLj_gTb0U4QjY-AP-oQe8B3iE=", "properties": {"ref": "1688", "@spider": "dm", "shop": "chemist", "addr:street": "Trierer Stra\u00dfe 43", "addr:city": "Perl", "addr:postcode": "66706", "addr:country": "DE", "name": "dm-drogerie markt", "phone": "+4968675610565", "opening_hours": "Mo-Sa 07:00-20:00", "brand": "dm", "brand:wikidata": "Q266572", "nsi_id": "dm-64e7ae"}, "geometry": {"type": "Point", "coordinates": [6.3851988, 49.4755317]}},
{"type": "Feature", "id": "umS6zHtLba5e-08Mp3qbgKCX3Ok=", "properties": {"ref": "169", "@spider": "dm", "shop": "chemist", "addr:street": "Auf den Heilberg 11", "addr:city": "Durmersheim", "addr:postcode": "76448", "addr:country": "DE", "name": "dm-drogerie markt", "phone": "+497245911737", "opening_hours": "Mo-Sa 08:00-20:00", "brand": "dm", "brand:wikidata": "Q266572", "nsi_id": "dm-64e7ae"}, "geometry": {"type": "Point", "coordinates": [8.2815164, 48.9456538]}},
{"type": "Feature", "id": "DmOGs3PQOT8QBVx78oYpaIv2MzA=", "properties": {"ref": "1690", "@spider": "dm", "shop": "chemist", "addr:street": "Pleurtuit-Stra\u00dfe 5", "addr:city": "Ransbach-Baumbach", "addr:postcode": "56235", "addr:country": "DE", "name": "dm-drogerie markt", "phone": "+4926239247343", "opening_hours": "Mo-Sa 08:00-20:00", "brand": "dm", "brand:wikidata": "Q266572", "nsi_id": "dm-64e7ae"}, "geometry": {"type": "Point", "coordinates": [7.7228607, 50.4634515]}},
{"type": "Feature", "id": "NPaX7aZvLL38HXv0xmTu8Z2ygQ8=", "properties": {"ref": "1692", "@spider": "dm", "shop": "chemist", "addr:street": "An der Ost-West-Br\u00fccke 2", "addr:city": "Elmshorn", "addr:postcode": "25335", "addr:country": "DE", "name": "dm-drogerie markt", "phone": "+4941212623455", "opening_hours": "Mo-Sa 08:00-20:00", "brand": "dm", "brand:wikidata": "Q266572", "nsi_id": "dm-64e7ae"}, "geometry": {"type": "Point", "coordinates": [9.6587641, 53.7610284]}},
{"type": "Feature", "id": "ufdz5h8ueMvgEJCBy017YjCMhOQ=", "properties": {"ref": "1693", "@spider": "dm", "shop": "chemist", "addr:street": "Stummplatz 1", "addr:city": "Neunkirchen", "addr:postcode": "66538", "addr:country": "DE", "name": "dm-drogerie markt", "phone": "+4968219315254", "opening_hours": "Mo-Sa 09:00-20:00", "brand": "dm", "brand:wikidata": "Q266572", "nsi_id": "dm-64e7ae"}, "geometry": {"type": "Point", "coordinates": [7.1731205, 49.3461292]}},
{"type": "Feature", "id": "XHUOqt-KMD_xuZ-ASVl1rSH60NM=", "properties": {"ref": "1696", "@spider": "dm", "shop": "chemist", "addr:street": "Holtenauer Stra\u00dfe 122", "addr:city": "Kiel", "addr:postcode": "24105", "addr:country": "DE", "name": "dm-drogerie markt", "phone": "+494312395134", "opening_hours": "Mo-Fr 08:00-20:00; Sa 08:00-19:00", "brand": "dm", "brand:wikidata": "Q266572", "nsi_id": "dm-64e7ae"}, "geometry": {"type": "Point", "coordinates": [10.1337879, 54.336928]}},
{"type": "Feature", "id": "aEl4YXfdiFTaaZKVLDmzbL8izTQ=", "properties": {"ref": "1697", "@spider": "dm", "shop": "chemist", "addr:street": "R\u00f6merstra\u00dfe 86", "addr:city": "Kehl", "addr:postcode": "77694", "addr:country": "DE", "name": "dm-drogerie markt", "phone": "+4978549899954", "opening_hours": "Mo-Sa 08:00-20:00", "brand": "dm", "brand:wikidata": "Q266572", "nsi_id": "dm-64e7ae"}, "geometry": {"type": "Point", "coordinates": [7.8194519, 48.5128017]}},
{"type": "Feature", "id": "T5n8MJ30NUkrgIPbF74hGiFlOow=", "properties": {"ref": "1698", "@spider": "dm", "shop": "chemist", "addr:street": "Industriestra\u00dfe 2", "addr:city": "Waldkirch", "addr:postcode": "79183", "addr:country": "DE", "name": "dm-drogerie markt", "phone": "+4976814747771", "opening_hours": "Mo-Sa 08:00-20:00", "brand": "dm", "brand:wikidata": "Q266572", "nsi_id": "dm-64e7ae"}, "geometry": {"type": "Point", "coordinates": [7.9452819, 48.0876086]}},
{"type": "Feature", "id": "0yZ6Bn8Bz1fE1HJ-M1FfsIWEHSQ=", "properties": {"ref": "1699", "@spider": "dm", "shop": "chemist", "addr:street": "Blumenstra\u00dfe 1", "addr:city": "Kehl", "addr:postcode": "77694", "addr:country": "DE", "name": "dm-drogerie markt", "phone": "+4978518866586", "opening_hours": "Mo-Sa 08:00-20:00", "brand": "dm", "brand:wikidata": "Q266572", "nsi_id": "dm-64e7ae"}, "geometry": {"type": "Point", "coordinates": [7.8114942, 48.5759565]}},
{"type": "Feature", "id": "qVpH-vCSbx2ZjWaU6vZvzfZFckk=", "properties": {"ref": "1700", "@spider": "dm", "shop": "chemist", "addr:street": "Grimsehlstra\u00dfe 40a", "addr:city": "Einbeck", "addr:postcode": "37574", "addr:country": "DE", "name": "dm-drogerie markt", "phone": "+4955613130288", "opening_hours": "Mo-Sa 08:00-20:00", "brand": "dm", "brand:wikidata": "Q266572", "nsi_id": "dm-64e7ae"}, "geometry": {"type": "Point", "coordinates": [9.8784279, 51.8143463]}},
{"type": "Feature", "id": "RVjgzJSxtah7miK6iRz8MX5UwzU=", "properties": {"ref": "1701", "@spider": "dm", "shop": "chemist", "addr:street": "Breslauer Stra\u00dfe 2/4", "addr:city": "Neuss", "addr:postcode": "41460", "addr:country": "DE", "name": "dm-drogerie markt", "phone": "+4921311511734", "opening_hours": "Mo-Sa 09:00-20:00", "brand": "dm", "brand:wikidata": "Q266572", "nsi_id": "dm-64e7ae"}, "geometry": {"type": "Point", "coordinates": [6.7189197, 51.2015908]}},
{"type": "Feature", "id": "0vRl4pM1rQo5Unym7u-wKDUuBmA=", "properties": {"ref": "1702", "@spider": "dm", "shop": "chemist", "addr:street": "Sch\u00f6nhauser Stra\u00dfe 60-62", "addr:city": "K\u00f6ln", "addr:postcode": "50968", "addr:country": "DE", "name": "dm-drogerie markt", "phone": "+4922193729143", "opening_hours": "Mo-Sa 08:00-20:00", "brand": "dm", "brand:wikidata": "Q266572", "nsi_id": "dm-64e7ae"}, "geometry": {"type": "Point", "coordinates": [6.9632523, 50.9113379]}},
{"type": "Feature", "id": "il7jS1G19HpJZz5K6oaCQGd1RlQ=", "properties": {"ref": "1705", "@spider": "dm", "shop": "chemist", "addr:street": "Frankfurter Stra\u00dfe 220", "addr:city": "Kassel", "addr:postcode": "34134", "addr:country": "DE", "name": "dm-drogerie markt", "phone": "+4956147590013", "opening_hours": "Mo-Sa 08:00-20:00", "brand": "dm", "brand:wikidata": "Q266572", "nsi_id": "dm-64e7ae"}, "geometry": {"type": "Point", "coordinates": [9.4716074, 51.289393]}},
{"type": "Feature", "id": "8sGmJ93EiKcy0drRWUHFRVJmHgU=", "properties": {"ref": "1707", "@spider": "dm", "shop": "chemist", "addr:street": "Am Markt 20", "addr:city": "Hanau", "addr:postcode": "63450", "addr:country": "DE", "name": "dm-drogerie markt", "phone": "+4961814288704", "opening_hours": "Mo-Fr 08:30-20:00; Sa 08:00-20:00", "brand": "dm", "brand:wikidata": "Q266572", "nsi_id": "dm-64e7ae"}, "geometry": {"type": "Point", "coordinates": [8.9162989, 50.1332695]}},
{"type": "Feature", "id": "jG9wqbvgHAjNRGhl9KVIqFoNZkA=", "properties": {"ref": "1710", "@spider": "dm", "shop": "chemist", "addr:street": "Wilmsstra\u00dfe 7", "addr:city": "Dallgow-D\u00f6beritz", "addr:postcode": "14624", "addr:country": "DE", "name": "dm-drogerie markt", "phone": "+4933222121983", "opening_hours": "Mo-Sa 08:30-20:00", "brand": "dm", "brand:wikidata": "Q266572", "nsi_id": "dm-64e7ae"}, "geometry": {"type": "Point", "coordinates": [13.0603154, 52.5355864]}},
{"type": "Feature", "id": "g19e6ejMDXLAw7II1Yz7IxPijoE=", "properties": {"ref": "1711", "@spider": "dm", "shop": "chemist", "addr:street": "Frankfurter Stra\u00dfe 71", "addr:city": "Fulda", "addr:postcode": "36043", "addr:country": "DE", "name": "dm-drogerie markt", "phone": "+4966194250574", "opening_hours": "Mo-Sa 08:00-19:00", "brand": "dm", "brand:wikidata": "Q266572", "nsi_id": "dm-64e7ae"}, "geometry": {"type": "Point", "coordinates": [9.6765889, 50.5367087]}},
{"type": "Feature", "id": "mCFFLGLVpsUpScJhNN2JwsQl4YI=", "properties": {"ref": "1712", "@spider": "dm", "shop": "chemist", "addr:street": "Theodor-Fontane-Stra\u00dfe 14", "addr:city": "Aschheim", "addr:postcode": "85609", "addr:country": "DE", "name": "dm-drogerie markt", "phone": "+498990019665", "opening_hours": "Mo-Sa 08:00-20:00", "brand": "dm", "brand:wikidata": "Q266572", "nsi_id": "dm-64e7ae"}, "geometry": {"type": "Point", "coordinates": [11.7298108, 48.1629896]}},
{"type": "Feature", "id": "ug2T_FEIVwaIh5U1FbQq8lFJ7Wk=", "properties": {"ref": "1713", "@spider": "dm", "shop": "chemist", "addr:street": "Hansestra\u00dfe 35", "addr:city": "Bentwisch", "addr:postcode": "18182", "addr:country": "DE", "name": "dm-drogerie markt", "phone": "+4938163729716", "opening_hours": "Mo-Sa 08:00-20:00", "brand": "dm", "brand:wikidata": "Q266572", "nsi_id": "dm-64e7ae"}, "geometry": {"type": "Point", "coordinates": [12.1892298, 54.11444]}},
{"type": "Feature", "id": "8MyXoPY0qWdC2gNGtqZmlbOxMy8=", "properties": {"ref": "1715", "@spider": "dm", "shop": "chemist", "addr:street": "Wiescher Weg 97", "addr:city": "M\u00fclheim an der Ruhr", "addr:postcode": "45472", "addr:country": "DE", "name": "dm-drogerie markt", "phone": "+4920830159921", "opening_hours": "Mo-Sa 08:00-20:00", "brand": "dm", "brand:wikidata": "Q266572", "nsi_id": "dm-64e7ae"}, "geometry": {"type": "Point", "coordinates": [6.9197594, 51.4357612]}},
{"type": "Feature", "id": "RRJ1pMI0lZTNwEWurLcsmioXyZg=", "properties": {"ref": "1717", "@spider": "dm", "shop": "chemist", "addr:street": "Quierschieder Weg 3e", "addr:city": "Sulzbach/Saar", "addr:postcode": "66280", "addr:country": "DE", "name": "dm-drogerie markt", "phone": "+4968975010340", "opening_hours": "Mo-Sa 08:00-20:00", "brand": "dm", "brand:wikidata": "Q266572", "nsi_id": "dm-64e7ae"}, "geometry": {"type": "Point", "coordinates": [7.0573065, 49.3017848]}},
{"type": "Feature", "id": "wq8y6T4iRkPckCrjL18H-CU-bLg=", "properties": {"ref": "1718", "@spider": "dm", "shop": "chemist", "addr:street": "Gro\u00dfe Stra\u00dfe 90", "addr:city": "Vechta", "addr:postcode": "49377", "addr:country": "DE", "name": "dm-drogerie markt", "phone": "+4944418538461", "opening_hours": "Mo-Fr 08:00-19:30; Sa 08:00-19:00", "brand": "dm", "brand:wikidata": "Q266572", "nsi_id": "dm-64e7ae"}, "geometry": {"type": "Point", "coordinates": [8.2889827, 52.7301035]}},
{"type": "Feature", "id": "x715KfSRyBYEpcR3AQiu_NEfvi0=", "properties": {"ref": "1719", "@spider": "dm", "shop": "chemist", "addr:street": "Fuldastra\u00dfe 1-5", "addr:city": "Baunatal", "addr:postcode": "34225", "addr:country": "DE", "name": "dm-drogerie markt", "phone": "+4956659690141", "opening_hours": "Mo-Sa 09:00-20:00", "brand": "dm", "brand:wikidata": "Q266572", "nsi_id": "dm-64e7ae"}, "geometry": {"type": "Point", "coordinates": [9.4277016, 51.2278077]}},
{"type": "Feature", "id": "zO5kO6EM5tLmd5t3NBtgf9vrmGs=", "properties": {"ref": "1720", "@spider": "dm", "shop": "chemist", "addr:street": "Am Rauner Graben 21", "addr:city": "Nidda", "addr:postcode": "63667", "addr:country": "DE", "name": "dm-drogerie markt", "phone": "+4960439865067", "opening_hours": "Mo-Sa 08:00-20:00", "brand": "dm", "brand:wikidata": "Q266572", "nsi_id": "dm-64e7ae"}, "geometry": {"type": "Point", "coordinates": [9.0069316, 50.4092885]}},