{"type":"FeatureCollection","features":[{"type": "Feature", "id": "TlhwgLMfZzYnQyXZbirzl4MkJXo=", "properties": {"ref": "2031", "@spider": "first_cash", "addr:full": "2911 Spenard Road", "addr:city": "Anchorage", "addr:state": "AK", "addr:postcode": "99503", "addr:country": "US", "name": "fcp2031", "phone": "9075611630", "brand": "Cash America"}, "geometry": {"type": "Point", "coordinates": [-149.9049517, 61.1935721]}},
{"type": "Feature", "id": "YOA9jUHijnpXPAJRPna58Wsncpc=", "properties": {"ref": "2036", "@spider": "first_cash", "addr:full": "1000 E 76Th Ave", "addr:city": "Anchorage", "addr:state": "AK", "addr:postcode": "99518", "addr:country": "US", "name": "fcp2036", "phone": "9076460861", "brand": "Cash America"}, "geometry": {"type": "Point", "coordinates": [-149.8657695, 61.1458201]}},
{"type": "Feature", "id": "UvRgmobW_c4P5PJ33F4dHReTl1w=", "properties": {"ref": "2035", "@spider": "first_cash", "addr:full": "229 W Fireweed Lane", "addr:city": "Anchorage", "addr:state": "AK", "addr:postcode": "99503", "addr:country": "US", "name": "fcp2035", "phone": "9072723511", "brand": "Cash America"}, "geometry": {"type": "Point", "coordinates": [-149.8860894, 61.1986008]}},
{"type": "Feature", "id": "Sz4v0hcmwJklxfQU50vRZKP_PJU=", "properties": {"ref": "2034", "@spider": "first_cash", "addr:full": "1413 Gambell Street", "addr:city": "Anchorage", "addr:state": "AK", "addr:postcode": "99501", "addr:country": "US", "name": "fcp2034", "phone": "9072771229", "brand": "Cash America"}, "geometry": {"type": "Point", "coordinates": [-149.870501, 61.2082847]}},
{"type": "Feature", "id": "FgwAVMkBsQiOjuJNV6_B5uNpw20=", "properties": {"ref": "2033", "@spider": "first_cash", "addr:full": "3920 Mountain View Drive", "addr:city": "Anchorage", "addr:state": "AK", "addr:postcode": "99508", "addr:country": "US", "name": "fcp2033", "phone": "9072767296", "brand": "Cash America"}, "geometry": {"type": "Point", "coordinates": [-149.8071246, 61.2238885]}},
{"type": "Feature", "id": "0auJpPO5PjqabNX-Px3vxt2q9jY=", "properties": {"ref": "2032", "@spider": "first_cash", "addr:full": "150 Muldoon Road", "addr:city": "Anchorage", "addr:state": "AK", "addr:postcode": "99504", "addr:country": "US", "name": "fcp2032", "phone": "9073383297", "brand": "Cash America"}, "geometry": {"type": "Point", "coordinates": [-149.7344149, 61.2231563]}},
{"type": "Feature", "id": "IlE7hz1tbnMsTBmKf5okZ_IgJYs=", "properties": {"ref": "2976", "@spider": "first_cash", "addr:full": "4006 Guide Meridian", "addr:city": "Bellingham", "addr:state": "WA", "addr:postcode": "98226", "addr:country": "US", "name": "fcp2976", "phone": "3606472171", "brand": "Cash America"}, "geometry": {"type": "Point", "coordinates": [-122.486, 48.78978]}},
{"type": "Feature", "id": "Bv2fhSzdwwP7GvF1LsawRqn0GYw=", "properties": {"ref": "2986", "@spider": "first_cash", "addr:full": "414 East College Way", "addr:city": "Mount Vernon", "addr:state": "WA", "addr:postcode": "98273", "addr:country": "US", "name": "fcp2986", "phone": "3604246269", "brand": "Cash America"}, "geometry": {"type": "Point", "coordinates": [-122.3341, 48.43518]}},
{"type": "Feature", "id": "Mpt8epVmlWzjjrPspukYiiFZHGI=", "properties": {"ref": "2977", "@spider": "first_cash", "addr:full": "4201 Wheaton Way", "addr:city": "Bremerton", "addr:state": "WA", "addr:postcode": "98310", "addr:country": "US", "name": "fcp2977", "phone": "3603772429", "brand": "Cash America"}, "geometry": {"type": "Point", "coordinates": [-122.6296, 47.60322]}},
{"type": "Feature", "id": "td2pQeurnJwtp_bsG14kadcmSRE=", "properties": {"ref": "2985", "@spider": "first_cash", "addr:full": "1098 State Street", "addr:city": "Marysville", "addr:state": "WA", "addr:postcode": "98270", "addr:country": "US", "name": "fcp2985", "phone": "3606581080", "brand": "Cash America"}, "geometry": {"type": "Point", "coordinates": [-122.1764, 48.06051]}},
{"type": "Feature", "id": "J43F09UOyI6ItHPrMjtQqwwtXMY=", "properties": {"ref": "2983", "@spider": "first_cash", "addr:full": "1905 Broadway", "addr:city": "Everett", "addr:state": "WA", "addr:postcode": "98201", "addr:country": "US", "name": "fcp2983", "phone": "4252596600", "brand": "Cash America"}, "geometry": {"type": "Point", "coordinates": [-122.2009, 47.99206]}},
{"type": "Feature", "id": "3zqcn9ZrGmEBqHn0Pg2wwx_LgSc=", "properties": {"ref": "2963", "@spider": "first_cash", "addr:full": "20305 Aurora Avenue N", "addr:city": "Shoreline", "addr:state": "WA", "addr:postcode": "98133", "addr:country": "US", "name": "fcp2963", "phone": "2065429000", "brand": "Cash America"}, "geometry": {"type": "Point", "coordinates": [-122.3465, 47.7767]}},
{"type": "Feature", "id": "yJt3h0pAhjBaomC0nD7a-UzYtjg=", "properties": {"ref": "2982", "@spider": "first_cash", "addr:full": "12025 Highway 99, Suite A", "addr:city": "Everett", "addr:state": "WA", "addr:postcode": "98203", "addr:country": "US", "name": "fcp2982", "phone": "4253477741", "brand": "Cash America"}, "geometry": {"type": "Point", "coordinates": [-122.2591, 47.88872]}},
{"type": "Feature", "id": "u6cQj6-1aeiEDSA2TZgfK8uCSlc=", "properties": {"ref": "2981", "@spider": "first_cash", "addr:full": "7107 Evergreen Way", "addr:city": "Everett", "addr:state": "WA", "addr:postcode": "98203", "addr:country": "US", "name": "fcp2981", "phone": "4253556900", "brand": "Cash America"}, "geometry": {"type": "Point", "coordinates": [-122.2191, 47.93378]}},
{"type": "Feature", "id": "O2Z2c30M5aTQYl3OLBijiC2yz9M=", "properties": {"ref": "2965", "@spider": "first_cash", "addr:full": "17010 Aurora Avenue N", "addr:city": "Shoreline", "addr:state": "WA", "addr:postcode": "98133", "addr:country": "US", "name": "fcp2965", "phone": "2065425576", "brand": "Cash America"}, "geometry": {"type": "Point", "coordinates": [-122.3452, 47.75263]}},
{"type": "Feature", "id": "MVDalRsWeZB--3f54A23TCGkiSk=", "properties": {"ref": "2987", "@spider": "first_cash", "addr:full": "3652 Pacific Ave Se", "addr:city": "Olympia", "addr:state": "WA", "addr:postcode": "98501", "addr:country": "US", "name": "fcp2987", "phone": "3604381888", "brand": "Cash America"}, "geometry": {"type": "Point", "coordinates": [-122.8427, 47.04171]}},
{"type": "Feature", "id": "0dSfK5hrwTq50onXWbfY5o9ZdoU=", "properties": {"ref": "2984", "@spider": "first_cash", "addr:full": "7016 Northeast Bothell Way,", "addr:city": "Kenmore", "addr:state": "WA", "addr:postcode": "98028", "addr:country": "US", "name": "fcp2984", "phone": "4252052200", "brand": "Cash America"}, "geometry": {"type": "Point", "coordinates": [-122.2623, 47.75841]}},
{"type": "Feature", "id": "BIJwYnN-jDul-Uj7ghEfrpLoj-g=", "properties": {"ref": "2970", "@spider": "first_cash", "addr:full": "10421 16Th Avenue", "addr:city": "Seattle", "addr:state": "WA", "addr:postcode": "98146", "addr:country": "US", "name": "fcp2970", "phone": "2062140824", "brand": "Cash America"}, "geometry": {"type": "Point", "coordinates": [-122.3556, 47.50933]}},
{"type": "Feature", "id": "rALVM3avOvwC65gY2yWxYxyKy5E=", "properties": {"ref": "2967", "@spider": "first_cash", "addr:full": "2825 Rainier Avenue S", "addr:city": "Seattle", "addr:state": "WA", "addr:postcode": "98144", "addr:country": "US", "name": "fcp2967", "phone": "2068292084", "brand": "Cash America"}, "geometry": {"type": "Point", "coordinates": [-122.2979, 47.57769]}},
{"type": "Feature", "id": "XcKuHdXZjuzO56wvmgMPJlcGa1Y=", "properties": {"ref": "2971", "@spider": "first_cash", "addr:full": "6408 6Th Avenue", "addr:city": "Tacoma", "addr:state": "WA", "addr:postcode": "98406", "addr:country": "US", "name": "fcp2971", "phone": "2534601255", "brand": "Cash America"}, "geometry": {"type": "Point", "coordinates": [-122.5234, 47.25506]}},
{"type": "Feature", "id": "s8srMCTNRI1ipE0Sa3m82ui_PFo=", "properties": {"ref": "2969", "@spider": "first_cash", "addr:full": "5718 Martin Luther King Jr. Way S", "addr:city": "Seattle", "addr:state": "WA", "addr:postcode": "98118", "addr:country": "US", "name": "fcp2969", "phone": "2067219400", "brand": "Cash America"}, "geometry": {"type": "Point", "coordinates": [-122.2872, 47.55045]}},
{"type": "Feature", "id": "RO-fL1HdHZgCKbcyVAm9fHRnzkE=", "properties": {"ref": "2978", "@spider": "first_cash", "addr:full": "15421 1St Avenue S", "addr:city": "Burien", "addr:state": "WA", "addr:postcode": "98148", "addr:country": "US", "name": "fcp2978", "phone": "2062431696", "brand": "Cash America"}, "geometry": {"type": "Point", "coordinates": [-122.3344, 47.46447]}},
{"type": "Feature", "id": "_agepzV4uVWZIssyy0KcZQmgft0=", "properties": {"ref": "2972", "@spider": "first_cash", "addr:full": "7241 S Tacoma Way", "addr:city": "Tacoma", "addr:state": "WA", "addr:postcode": "98409", "addr:country": "US", "name": "fcp2972", "phone": "2534728880", "brand": "Cash America"}, "geometry": {"type": "Point", "coordinates": [-122.4827, 47.19037]}},
{"type": "Feature", "id": "MqW6vCMbIXEV-4h7dfibD1gI_Dw=", "properties": {"ref": "2989", "@spider": "first_cash", "addr:full": "15226 Bel-Red Road", "addr:city": "Redmond", "addr:state": "WA", "addr:postcode": "98052", "addr:country": "US", "name": "fcp2989", "phone": "4254553562", "brand": "Cash America"}, "geometry": {"type": "Point", "coordinates": [-122.1369, 47.62838]}},
{"type": "Feature", "id": "mVcANmUVfY9ex8tTQEJc3mFK_bs=", "properties": {"ref": "2979", "@spider": "first_cash", "addr:full": "23201 Pacific Highway South", "addr:city": "Kent", "addr:state": "WA", "addr:postcode": "98032", "addr:country": "US", "name": "fcp2979", "phone": "2068247296", "brand": "Cash America"}, "geometry": {"type": "Point", "coordinates": [-122.2956, 47.39355]}},
{"type": "Feature", "id": "oSB0Md4MbRY1gtSeU8tT_SR4CUk=", "properties": {"ref": "2990", "@spider": "first_cash", "addr:full": "415 Rainier Avenue N", "addr:city": "Renton", "addr:state": "WA", "addr:postcode": "98057", "addr:country": "US", "name": "fcp2990", "phone": "2067722151", "brand": "Cash America"}, "geometry": {"type": "Point", "coordinates": [-122.2186, 47.48898]}},
{"type": "Feature", "id": "08cFj0AjyLfefD9BeEh5wFAlres=", "properties": {"ref": "2962", "@spider": "first_cash", "addr:full": "225 Sunset Boulevard N", "addr:city": "Renton", "addr:state": "WA", "addr:postcode": "98057", "addr:country": "US", "name": "fcp2962", "phone": "4259178117", "brand": "Cash America"}, "geometry": {"type": "Point", "coordinates": [-122.1965, 47.48569]}},
{"type": "Feature", "id": "-DCjIrlJbCRzIcYXyPghXb6jC-I=", "properties": {"ref": "2973", "@spider": "first_cash", "addr:full": "8844 Pacific Avenue, Ste A", "addr:city": "Tacoma", "addr:state": "WA", "addr:postcode": "98444", "addr:country": "US", "name": "fcp2973", "phone": "2535370081", "brand": "Cash America"}, "geometry": {"type": "Point", "coordinates": [-122.4343, 47.17536]}},
{"type": "Feature", "id": "Mgv7O-T5ej7ap9JZcZRr7ASZlfQ=", "properties": {"ref": "2980", "@spider": "first_cash", "addr:full": "33012 Pacific Highway S", "addr:city": "Federal Way", "addr:state": "WA", "addr:postcode": "98003", "addr:country": "US", "name": "fcp2980", "phone": "2538388929", "brand": "Cash America"}, "geometry": {"type": "Point", "coordinates": [-122.3126, 47.3055]}},
{"type": "Feature", "id": "TZSVU-T_4BGGnwknrBQ3MxUhCLk=", "properties": {"ref": "2993", "@spider": "first_cash", "addr:full": "17626 108Th Ave Se", "addr:city": "Renton", "addr:state": "WA", "addr:postcode": "98055", "addr:country": "US", "name": "fcp2993", "phone": "4252357410", "brand": "Cash America"}, "geometry": {"type": "Point", "coordinates": [-122.196, 47.44423]}},
{"type": "Feature", "id": "5GB3Vp-N5VoqJ_I4hYxF4mnROmA=", "properties": {"ref": "2974", "@spider": "first_cash", "addr:full": "15027 Pacific Ave S", "addr:city": "Tacoma", "addr:state": "WA", "addr:postcode": "98444", "addr:country": "US", "name": "fcp2974", "phone": "2532843761", "brand": "Cash America"}, "geometry": {"type": "Point", "coordinates": [-122.4343, 47.12028]}},
{"type": "Feature", "id": "phboJR-tEMrk9-U0jK9qbtUWstQ=", "properties": {"ref": "2992", "@spider": "first_cash", "addr:full": "2705 Auburn Way N, Suite 101", "addr:city": "Auburn", "addr:state": "WA", "addr:postcode": "98002", "addr:country": "US", "name": "fcp2992", "phone": "2532888030", "brand": "Cash America"}, "geometry": {"type": "Point", "coordinates": [-122.2223, 47.33115]}},
{"type": "Feature", "id": "Yd3VywODLDgYtTf0YlMHwqdjW4U=", "properties": {"ref": "2961", "@spider": "first_cash", "addr:full": "2236 Auburn Way N", "addr:city": "Auburn", "addr:state": "WA", "addr:postcode": "98002", "addr:country": "US", "name": "fcp2961", "phone": "2539315186", "brand": "Cash America"}, "geometry": {"type": "Point", "coordinates": [-122.221, 47.3273]}},
{"type": "Feature", "id": "ena5B-xxqiuFbCWZqKSlEyWTS6c=", "properties": {"ref": "2991", "@spider": "first_cash", "addr:full": "2341 Auburn Way S", "addr:city": "Auburn", "addr:state": "WA", "addr:postcode": "98002", "addr:country": "US", "name": "fcp2991", "phone": "2537356288", "brand": "Cash America"}, "geometry": {"type": "Point", "coordinates": [-122.1974, 47.28891]}},
{"type": "Feature", "id": "mYXYcbuQpgTG_uClWsWd5cea_kk=", "properties": {"ref": "2988", "@spider": "first_cash", "addr:full": "12117 Meridian E", "addr:city": "Puyallup", "addr:state": "WA", "addr:postcode": "98373", "addr:country": "US", "name": "fcp2988", "phone": "2532860100", "brand": "Cash America"}, "geometry": {"type": "Point", "coordinates": [-122.2924, 47.1464]}},
{"type": "Feature", "id": "0Z2mz_ymNbMrUHiG1DZAB-UUY7U=", "properties": {"ref": "2975", "@spider": "first_cash", "addr:full": "1324 S 1St Street", "addr:city": "Yakima", "addr:state": "WA", "addr:postcode": "98901", "addr:country": "US", "name": "fcp2975", "phone": "5094693300", "brand": "Cash America"}, "geometry": {"type": "Point", "coordinates": [-120.4973, 46.58566]}},
{"type": "Feature", "id": "hnytWYU6uYhRxbaiY2hkLCh5FwY=", "properties": {"ref": "2027", "@spider": "first_cash", "addr:full": "1980 Selmi Drive", "addr:city": "Reno", "addr:state": "NV", "addr:postcode": "89512", "addr:country": "US", "name": "fcp2027", "phone": "7753242188", "brand": "Cash America"}, "geometry": {"type": "Point", "coordinates": [-119.7925965, 39.5578999]}},
{"type": "Feature", "id": "17SoBd_pP-9X59PY53cx2XGBx1I=", "properties": {"ref": "2025", "@spider": "first_cash", "addr:full": "190 N Center Street", "addr:city": "Reno", "addr:state": "NV", "addr:postcode": "89501", "addr:country": "US", "name": "fcp2025", "phone": "7753232352", "brand": "Cash America"}, "geometry": {"type": "Point", "coordinates": [-119.8117041, 39.5270515]}},
{"type": "Feature", "id": "X9QzGsANGFpcX9tlnsH39rXbgc8=", "properties": {"ref": "2028", "@spider": "first_cash", "addr:full": "641 S Rock Boulevard", "addr:city": "Sparks", "addr:state": "NV", "addr:postcode": "89431", "addr:country": "US", "name": "fcp2028", "phone": "7753314044", "brand": "Cash America"}, "geometry": {"type": "Point", "coordinates": [-119.7670096, 39.5281802]}},
{"type": "Feature", "id": "uSPw4F6wkEKUWutLCCipYlQN8Sw=", "properties": {"ref": "2026", "@spider": "first_cash", "addr:full": "3816 Us Highway 50 E", "addr:city": "Carson City", "addr:state": "NV", "addr:postcode": "89706", "addr:country": "US", "name": "fcp2026", "phone": "7758838896", "brand": "Cash America"}, "geometry": {"type": "Point", "coordinates": [-119.7251733, 39.1805732]}},
{"type": "Feature", "id": "iBsa7gKGgtYAOrOKntN0Cit5GvA=", "properties": {"ref": "2655", "@spider": "first_cash", "addr:full": "1156 W Riverdale Road, Suite 6", "addr:city": "Riverdale", "addr:state": "UT", "addr:postcode": "84405", "addr:country": "US", "name": "fcp2655", "phone": "8013994142", "brand": "Cash America"}, "geometry": {"type": "Point", "coordinates": [-112.0082, 41.17643]}},
{"type": "Feature", "id": "PP_EKfXBhuZt08m8BKtDBd6igNM=", "properties": {"ref": "2654", "@spider": "first_cash", "addr:full": "7189 West 3500 South", "addr:city": "West Valley City", "addr:state": "UT", "addr:postcode": "84128", "addr:country": "US", "name": "fcp2654", "phone": "8012520377", "brand": "Cash America"}, "geometry": {"type": "Point", "coordinates": [-112.0627, 40.69621]}},
{"type": "Feature", "id": "kzB_mNNxuLnCaXAhO3QmrFEv9gE=", "properties": {"ref": "2653", "@spider": "first_cash", "addr:full": "4253 W 3500 S", "addr:city": "West Valley City", "addr:state": "UT", "addr:postcode": "84120", "addr:country": "US", "name": "fcp2653", "phone": "8019668182", "brand": "Cash America"}, "geometry": {"type": "Point", "coordinates": [-111.9927, 40.69614]}},
{"type": "Feature", "id": "4_xDc7mjIXmRJJwarbUz4aoXvBc=", "properties": {"ref": "2651", "@spider": "first_cash", "addr:full": "789 S State Street", "addr:city": "Salt Lake City", "addr:state": "UT", "addr:postcode": "84111", "addr:country": "US", "name": "fcp2651", "phone": "8013223841", "brand": "Cash America"}, "geometry": {"type": "Point", "coordinates": [-111.8876, 40.75234]}},
{"type": "Feature", "id": "bMhLDqL2XN0KZ-LDCD0BUMWVWU8=", "properties": {"ref": "2657", "@spider": "first_cash", "addr:full": "1633 West 7800 South,", "addr:city": "West Jordan City", "addr:state": "UT", "addr:postcode": "84088", "addr:country": "US", "name": "fcp2657", "phone": "8015661116", "brand": "Cash America"}, "geometry": {"type": "Point", "coordinates": [-111.9378, 40.60929]}},
{"type": "Feature", "id": "F5XcJubQ84hj3hieL_W1f1v5OeU=", "properties": {"ref": "2652", "@spider": "first_cash", "addr:full": "6665 S State Street", "addr:city": "Murray", "addr:state": "UT", "addr:postcode": "84107", "addr:country": "US", "name": "fcp2652", "phone": "8012620900", "brand": "Cash America"}, "geometry": {"type": "Point", "coordinates": [-111.8894, 40.62867]}},
{"type": "Feature", "id": "-meKFQLJxY_wQpzUBNep8zALJPI=", "properties": {"ref": "2016", "@spider": "first_cash", "addr:full": "671 S Nevada Highway 160", "addr:city": "Pahrump", "addr:state": "NV", "addr:postcode": "89048", "addr:country": "US", "name": "fcp2016", "phone": "7757511803", "brand": "Cash America"}, "geometry": {"type": "Point", "coordinates": [-115.9862007, 36.2104604]}},
{"type": "Feature", "id": "duw_EAqO9y9f7HRuKbybnPHjhx8=", "properties": {"ref": "2022", "@spider": "first_cash", "addr:full": "7095 N Durango Drive", "addr:city": "Las Vegas", "addr:state": "NV", "addr:postcode": "89149", "addr:country": "US", "name": "fcp2022", "phone": "7027771011", "brand": "Cash America"}, "geometry": {"type": "Point", "coordinates": [-115.2883424, 36.2898357]}},
{"type": "Feature", "id": "k9n6HxJ9VcaUkTpPkMQVYSqtq6A=", "properties": {"ref": "2017", "@spider": "first_cash", "addr:full": "4111 N Rancho Drive", "addr:city": "Las Vegas", "addr:state": "NV", "addr:postcode": "89130", "addr:country": "US", "name": "fcp2017", "phone": "7024381543", "brand": "Cash America"}, "geometry": {"type": "Point", "coordinates": [-115.2287922, 36.2345755]}},
{"type": "Feature", "id": "dIrnDLaiOLKxeYdmk_coWgHxyWg=", "properties": {"ref": "2004", "@spider": "first_cash", "addr:full": "3104 N Rainbow Blvd", "addr:city": "Las Vegas", "addr:state": "NV", "addr:postcode": "89108", "addr:country": "US", "name": "fcp2004", "phone": "7026554498", "brand": "Cash America"}, "geometry": {"type": "Point", "coordinates": [-115.2418694, 36.2159084]}},
{"type": "Feature", "id": "zJNnNN38fQIXi40_PUTIOhsdito=", "properties": {"ref": "2003", "@spider": "first_cash", "addr:full": "7585 W Washington Avenue", "addr:city": "Las Vegas", "addr:state": "NV", "addr:postcode": "89128", "addr:country": "US", "name": "fcp2003", "phone": "7028046590", "brand": "Cash America"}, "geometry": {"type": "Point", "coordinates": [-115.2584298, 36.1811268]}},
{"type": "Feature", "id": "7QLoQ6oPeBRBOB0qH4UrhfgFm0I=", "properties": {"ref": "2013", "@spider": "first_cash", "addr:full": "5910 W Lake Mead Boulevard", "addr:city": "Las Vegas", "addr:state": "NV", "addr:postcode": "89108", "addr:country": "US", "name": "fcp2013", "phone": "7024382123", "brand": "Cash America"}, "geometry": {"type": "Point", "coordinates": [-115.2224012, 36.196054]}},
{"type": "Feature", "id": "mAVkha1iXRAPVIoxw4EYp19jWnM=", "properties": {"ref": "2005", "@spider": "first_cash", "addr:full": "2020 W Craig Road, Suite 200", "addr:city": "North Las Vegas", "addr:state": "NV", "addr:postcode": "89032", "addr:country": "US", "name": "fcp2005", "phone": "7026380323", "brand": "Cash America"}, "geometry": {"type": "Point", "coordinates": [-115.1718824, 36.2407075]}},
{"type": "Feature", "id": "lOgsCRPR2poRsOawkNTFIG-nu6Q=", "properties": {"ref": "2018", "@spider": "first_cash", "addr:full": "1150 S Rainbow Blvd.", "addr:city": "Las Vegas", "addr:state": "NV", "addr:postcode": "89146", "addr:country": "US", "name": "fcp2018", "phone": "7023184900", "brand": "Cash America"}, "geometry": {"type": "Point", "coordinates": [-115.2430252, 36.1573873]}},
{"type": "Feature", "id": "YKmo9vy0I8ddXUh43mbkwY9n42Q=", "properties": {"ref": "2023", "@spider": "first_cash", "addr:full": "6424 Losee Road, Suite 135", "addr:city": "North Las Vegas", "addr:state": "NV", "addr:postcode": "89086", "addr:country": "US", "name": "fcp2023", "phone": "7028735823", "brand": "Cash America"}, "geometry": {"type": "Point", "coordinates": [-115.1157308, 36.2766633]}},
{"type": "Feature", "id": "SnYek0mFHPuLTZex-5vdHTy0lJ0=", "properties": {"ref": "2024", "@spider": "first_cash", "addr:full": "307 S. Decatur Blvd", "addr:city": "Las Vegas", "addr:state": "NV", "addr:postcode": "89107", "addr:country": "US", "name": "fcp2024", "phone": "7022161180", "brand": "Cash America"}, "geometry": {"type": "Point", "coordinates": [-115.2055433, 36.1693978]}},
{"type": "Feature", "id": "9ys3RCBX_ML2AJgqAbgAt9-vX5k=", "properties": {"ref": "2007", "@spider": "first_cash", "addr:full": "2645 S Decatur Boulevard", "addr:city": "Las Vegas", "addr:state": "NV", "addr:postcode": "89102", "addr:country": "US", "name": "fcp2007", "phone": "7028714464", "brand": "Cash America"}, "geometry": {"type": "Point", "coordinates": [-115.2086, 36.142158]}},
{"type": "Feature", "id": "uUvcfxTCjp8gfr5qO9i3Og8Lcso=", "properties": {"ref": "2015", "@spider": "first_cash", "addr:full": "1611 Las Vegas Boulevard North", "addr:city": "North Las Vegas", "addr:state": "NV", "addr:postcode": "89030", "addr:country": "US", "name": "fcp2015", "phone": "7026421133", "brand": "Cash America"}, "geometry": {"type": "Point", "coordinates": [-115.1345353, 36.1889939]}},
{"type": "Feature", "id": "D6LjPRi6wUZuwVaaCLsFKdJppCY=", "properties": {"ref": "2012", "@spider": "first_cash", "addr:full": "3270 S Valley View Boulevard", "addr:city": "Las Vegas", "addr:state": "NV", "addr:postcode": "89102", "addr:country": "US", "name": "fcp2012", "phone": "7023822486", "brand": "Cash America"}, "geometry": {"type": "Point", "coordinates": [-115.1893791, 36.1305998]}},
{"type": "Feature", "id": "mPfHTNcUTZ8hI8X7uaMEWHLwXJ8=", "properties": {"ref": "2008", "@spider": "first_cash", "addr:full": "4635 W Flamingo Road", "addr:city": "Las Vegas", "addr:state": "NV", "addr:postcode": "89103", "addr:country": "US", "name": "fcp2008", "phone": "7022527296", "brand": "Cash America"}, "geometry": {"type": "Point", "coordinates": [-115.2047096, 36.1149555]}},
{"type": "Feature", "id": "3srElJ7nPyK1pyxhF8T_98S7Blw=", "properties": {"ref": "2020", "@spider": "first_cash", "addr:full": "3252 Las Vegas Boulevard N", "addr:city": "Las Vegas", "addr:state": "NV", "addr:postcode": "89115", "addr:country": "US", "name": "fcp2020", "phone": "7026439851", "brand": "Cash America"}, "geometry": {"type": "Point", "coordinates": [-115.0935354, 36.2160799]}},
{"type": "Feature", "id": "ZCK9wWnO5bjEObY2Q9wLVAKCw04=", "properties": {"ref": "2001", "@spider": "first_cash", "addr:full": "1700 S Main Street", "addr:city": "Las Vegas", "addr:state": "NV", "addr:postcode": "89104", "addr:country": "US", "name": "fcp2001", "phone": "7027922900", "brand": "Cash America"}, "geometry": {"type": "Point", "coordinates": [-115.1545007, 36.151013]}},
{"type": "Feature", "id": "RShW1I2kDOzijCAHtktvNiuJZKU=", "properties": {"ref": "2021", "@spider": "first_cash", "addr:full": "3021 Business Lane", "addr:city": "Las Vegas", "addr:state": "NV", "addr:postcode": "89103", "addr:country": "US", "name": "fcp2021", "phone": "7027396197", "brand": "Cash America"}, "geometry": {"type": "Point", "coordinates": [-115.1815515, 36.1091641]}},
{"type": "Feature", "id": "si0DoQf-R5y96PdNzc1kCgJynr4=", "properties": {"ref": "2006", "@spider": "first_cash", "addr:full": "2300 E Charleston Boulevard", "addr:city": "Las Vegas", "addr:state": "NV", "addr:postcode": "89104", "addr:country": "US", "name": "fcp2006", "phone": "7024773040", "brand": "Cash America"}, "geometry": {"type": "Point", "coordinates": [-115.1169315, 36.1584157]}},
{"type": "Feature", "id": "A4JFz-Oi0BCYMswGlGtVvteWF6Q=", "properties": {"ref": "2009", "@spider": "first_cash", "addr:full": "1040 E Flamingo Rd Ste F", "addr:city": "Las Vegas", "addr:state": "NV", "addr:postcode": "89119", "addr:country": "US", "name": "fcp2009", "phone": "7027923300", "brand": "Cash America"}, "geometry": {"type": "Point", "coordinates": [-115.14178, 36.115118]}},
{"type": "Feature", "id": "hdRpaA9FU_J-Ahow-iiQAZi-P_w=", "properties": {"ref": "2014", "@spider": "first_cash", "addr:full": "300 N Nellis Boulevard", "addr:city": "Las Vegas", "addr:state": "NV", "addr:postcode": "89110", "addr:country": "US", "name": "fcp2014", "phone": "7024382200", "brand": "Cash America"}, "geometry": {"type": "Point", "coordinates": [-115.0615657, 36.1642818]}},
{"type": "Feature", "id": "orKuEute92hpiOGBGsn-3PHX67I=", "properties": {"ref": "2002", "@spider": "first_cash", "addr:full": "5695 S Boulder Highway", "addr:city": "Las Vegas", "addr:state": "NV", "addr:postcode": "89122", "addr:country": "US", "name": "fcp2002", "phone": "7028982200", "brand": "Cash America"}, "geometry": {"type": "Point", "coordinates": [-115.0479429, 36.0992634]}},
{"type": "Feature", "id": "c56msLiZprw0pbT2pLl-bNlRTV4=", "properties": {"ref": "2011", "@spider": "first_cash", "addr:full": "2646 W Horizon Ridge Parkway, Suite A2", "addr:city": "Henderson", "addr:state": "NV", "addr:postcode": "89052", "addr:country": "US", "name": "fcp2011", "phone": "7025665626", "brand": "Cash America"}, "geometry": {"type": "Point", "coordinates": [-115.103829, 36.0020043]}},
{"type": "Feature", "id": "R9SM_cP8o3g4fxIK-pmpMZXzan4=", "properties": {"ref": "2010", "@spider": "first_cash", "addr:full": "1100 W Sunset Road", "addr:city": "Henderson", "addr:state": "NV", "addr:postcode": "89014", "addr:country": "US", "name": "fcp2010", "phone": "7024352091", "brand": "Cash America"}, "geometry": {"type": "Point", "coordinates": [-115.0359414, 36.0658125]}},
{"type": "Feature", "id": "JWosk0zXhIWqJoFovu7cVJINwck=", "properties": {"ref": "747", "@spider": "first_cash", "addr:full": "Av. Independencia #4901 Loc 1", "addr:city": "Tijuana", "addr:state": "Baja California", "addr:postcode": "22110", "addr:country": "US", "name": "fcp747", "phone": "(664) 680-4531", "brand": "First Cash Pawn"}, "geometry": {"type": "Point", "coordinates": [-117.0724597, 32.5313146]}},
{"type": "Feature", "id": "3Cr4DqCaTW1hQL-mvcclS5e1Ez4=", "properties": {"ref": "759", "@spider": "first_cash", "addr:full": "Calle 2Da. Benito Juarez #7710", "addr:city": "Tijuana", "addr:state": "Baja California", "addr:postcode": "22000", "addr:country": "US", "name": "fcp759", "phone": "(664) 638-1470", "brand": "First Cash Pawn"}, "geometry": {"type": "Point", "coordinates": [-117.043253, 32.5348697]}},
{"type": "Feature", "id": "uVi4Tgx5UHMz8-He4JKzFBE_lZQ=", "properties": {"ref": "1360", "@spider": "first_cash", "addr:full": "Blvd. Salvartierra #3701", "addr:city": "Tijuana", "addr:state": "Baja California", "addr:postcode": "22606", "addr:country": "US", "name": "fcp1360", "phone": "(664) 906-8621", "brand": "First Cash Pawn"}, "geometry": {"type": "Point", "coordinates": [-117.085345, 32.490847]}},
{"type": "Feature", "id": "31CPvUoFP2JWDQCk8YW7PrKtY_Y=", "properties": {"ref": "862", "@spider": "first_cash", "addr:full": "Calle Tomas Urbina #6084", "addr:city": "Tijuana", "addr:state": "Baja California", "addr:postcode": "22615", "addr:country": "US", "name": "fcp862", "phone": "(664) 975-3740", "brand": "First Cash Pawn"}, "geometry": {"type": "Point", "coordinates": [-117.0569746, 32.511647]}},
{"type": "Feature", "id": "r2xD9MWvM_ESrr-j5VPuMv2Bvxc=", "properties": {"ref": "754", "@spider": "first_cash", "addr:full": "Canon Jonson #1825 3", "addr:city": "Tijuana", "addr:state": "Baja California", "addr:postcode": "22000", "addr:country": "US", "name": "fcp754", "phone": "(664) 638-2060", "brand": "First Cash Pawn"}, "geometry": {"type": "Point", "coordinates": [-117.0375381, 32.5248379]}},
{"type": "Feature", "id": "52LOPiQCOfQoKH-WPLraIaKbNmY=", "properties": {"ref": "1439", "@spider": "first_cash", "addr:full": "Lote De Terreno #2, De La Manz", "addr:city": "Tijuana", "addr:state": "Baja California", "addr:postcode": "22207", "addr:country": "US", "name": "fcp1439", "phone": "(664) 636-4091", "brand": "First Cash Pawn"}, "geometry": {"type": "Point", "coordinates": [-117.0659566, 32.4837964]}},
{"type": "Feature", "id": "MzcP_JuXThr29AJS9PpOE5xRkr0=", "properties": {"ref": "1167", "@spider": "first_cash", "addr:full": "Blvd. Cuauhtemoc #127", "addr:city": "Tijuana", "addr:state": "Baja California", "addr:postcode": "22400", "addr:country": "US", "name": "fcp1167", "phone": "(664) 979-2210", "brand": "First Cash Pawn"}, "geometry": {"type": "Point", "coordinates": [-117.0113266, 32.5311413]}},
{"type": "Feature", "id": "1a2hMUDGvuP1qXXcjjwl6wejyjE=", "properties": {"ref": "1143", "@spider": "first_cash", "addr:full": "Blvd. Cuauhtemoc #12601", "addr:city": "Tijuana", "addr:state": "Baja California", "addr:postcode": "22404", "addr:country": "US", "name": "fcp1143", "phone": "(664) 683-2576", "brand": "First Cash Pawn"}, "geometry": {"type": "Point", "coordinates": [-116.9975324, 32.5408692]}},
{"type": "Feature", "id": "L-D2WQ-xP6puerg2kOekvZKy6bM=", "properties": {"ref": "893", "@spider": "first_cash", "addr:full": "Blvd. Agua Azul #7200, La5 C", "addr:city": "Tijuana", "addr:state": "Baja California", "addr:postcode": "22604", "addr:country": "US", "name": "fcp893", "phone": "(664) 700-1323", "brand": "First Cash Pawn"}, "geometry": {"type": "Point", "coordinates": [-117.0524089, 32.4834104]}},
{"type": "Feature", "id": "8ayVT53LfromQvBwJlDLYiclHOc=", "properties": {"ref": "791", "@spider": "first_cash", "addr:full": "Blvd. Fundadores #5022", "addr:city": "Tijuana", "addr:state": "Baja California", "addr:postcode": "22180", "addr:country": "US", "name": "fcp791", "phone": "(664) 676-9388", "brand": "First Cash Pawn"}, "geometry": {"type": "Point", "coordinates": [-117.0357764, 32.4827888]}},
{"type": "Feature", "id": "TI-4Gr0g-NnAFV3lOgqcl5q6das=", "properties": {"ref": "917", "@spider": "first_cash", "addr:full": "Cir. Tomas Aquino #12822", "addr:city": "Tijuana", "addr:state": "Baja California", "addr:postcode": "22414", "addr:country": "US", "name": "fcp917", "phone": "(664) 624-0387", "brand": "First Cash Pawn"}, "geometry": {"type": "Point", "coordinates": [-116.9792264, 32.5292803]}},
{"type": "Feature", "id": "nu9cApNqf6NJFM1MLoOYzVE4dfM=", "properties": {"ref": "767", "@spider": "first_cash", "addr:full": "Av. De Los Angeles #506", "addr:city": "Tijuana", "addr:state": "Baja California", "addr:postcode": "22415", "addr:country": "US", "name": "fcp767", "phone": "(664) 973-1756", "brand": "First Cash Pawn"}, "geometry": {"type": "Point", "coordinates": [-116.9863413, 32.5205721]}},
{"type": "Feature", "id": "ApKzX2VptJwQfMFeaTM2N84DupI=", "properties": {"ref": "1043", "@spider": "first_cash", "addr:full": "Blvd. Gustavo Diaz Ordaz #1372", "addr:city": "Tijuana", "addr:state": "Baja California", "addr:postcode": "22105", "addr:country": "US", "name": "fcp1043", "phone": "(664) 622-0223", "brand": "First Cash Pawn"}, "geometry": {"type": "Point", "coordinates": [-116.9782869, 32.5058879]}},
{"type": "Feature", "id": "TaZqJOZl-mpza0FJTgz1BOQVzp0=", "properties": {"ref": "855", "@spider": "first_cash", "addr:full": "Av. Bellas Artes #356", "addr:city": "Tijuana", "addr:state": "Baja California", "addr:postcode": "22430", "addr:country": "US", "name": "fcp855", "phone": "(664) 623-3557", "brand": "First Cash Pawn"}, "geometry": {"type": "Point", "coordinates": [-116.9317234, 32.5442148]}},
{"type": "Feature", "id": "hgoqgSt12YscRMjCpsDUP_xomKE=", "properties": {"ref": "756", "@spider": "first_cash", "addr:full": "Santa Fe #10201", "addr:city": "Tijuana", "addr:state": "Baja California", "addr:postcode": "22660", "addr:country": "US", "name": "fcp756", "phone": "(664) 974-3960", "brand": "First Cash Pawn"}, "geometry": {"type": "Point", "coordinates": [-117.0351722, 32.4427722]}},
{"type": "Feature", "id": "zfsLwez_lOAxLSRvph9jZ-FcUpk=", "properties": {"ref": "366", "@spider": "first_cash", "addr:full": "516 E. Yellowstone Hwy", "addr:city": "Casper", "addr:state": "WY", "addr:postcode": "82601", "addr:country": "US", "name": "fcp366", "phone": "3072355626", "brand": "First Cash Pawn"}, "geometry": {"type": "Point", "coordinates": [-106.319, 42.84931]}},
{"type": "Feature", "id": "iWOEl42D9wxp08VnKgfQt87DLwo=", "properties": {"ref": "751", "@spider": "first_cash", "addr:full": "Blvd. Industrial Fraccion #182", "addr:city": "Tijuana", "addr:state": "Baja California", "addr:postcode": "22105", "addr:country": "US", "name": "fcp751", "phone": "(664) 979-0087", "brand": "First Cash Pawn"}, "geometry": {"type": "Point", "coordinates": [-116.9327124, 32.535322]}},
{"type": "Feature", "id": "vIh6aKabEXmf_Fn0VexSOV-5SBg=", "properties": {"ref": "1169", "@spider": "first_cash", "addr:full": "Libramiento Oriente #7501", "addr:city": "Tijuana", "addr:state": "Baja California", "addr:postcode": "22643", "addr:country": "US", "name": "fcp1169", "phone": "(664) 621-4594", "brand": "First Cash Pawn"}, "geometry": {"type": "Point", "coordinates": [-116.9935826, 32.477547]}},
{"type": "Feature", "id": "zQ0thfCcRG2gZQFlCRYzYO1SWbY=", "properties": {"ref": "746", "@spider": "first_cash", "addr:full": "Blvd. Diaz Ordaz #500-1", "addr:city": "Tijuana", "addr:state": "Baja California", "addr:postcode": "22105", "addr:country": "US", "name": "fcp746", "phone": "(664) 656-0010", "brand": "First Cash Pawn"}, "geometry": {"type": "Point", "coordinates": [-116.9642442, 32.4974546]}},
{"type": "Feature", "id": "i97JyrnlGprVUWs-MGVOOd6KUZw=", "properties": {"ref": "4357", "@spider": "first_cash", "addr:full": "Calz. Padre Hidalgo #10180 Loc", "addr:city": "Tijuana", "addr:state": "Baja California", "addr:postcode": "22645", "addr:country": "US", "name": "fcp4357", "phone": "(664) 700-3459", "brand": "First Cash Pawn"}, "geometry": {"type": "Point", "coordinates": [-117.0142174, 32.4441101]}},
{"type": "Feature", "id": "u1eHoBjwgB3g2agDEc67n63WY7E=", "properties": {"ref": "860", "@spider": "first_cash", "addr:full": "Av. Hidalgo #260, Loc 6", "addr:city": "Tijuana", "addr:state": "Baja California", "addr:postcode": "22640", "addr:country": "US", "name": "fcp860", "phone": "(664) 636-5409", "brand": "First Cash Pawn"}, "geometry": {"type": "Point", "coordinates": [-117.0096877, 32.4455649]}},
{"type": "Feature", "id": "ReilVZeJRrnd1xNJ2-8LZMf4T_8=", "properties": {"ref": "1192", "@spider": "first_cash", "addr:full": "Av. Mazatlan, Esq. Av. Murua M", "addr:city": "Tijuana", "addr:state": "Baja California", "addr:postcode": "22455", "addr:country": "US", "name": "fcp1192", "phone": "(664) 624-6654", "brand": "First Cash Pawn"}, "geometry": {"type": "Point", "coordinates": [-116.9268242, 32.5205955]}},
{"type": "Feature", "id": "5D-HK077qOXvqizeEgRygbYIT9A=", "properties": {"ref": "1367", "@spider": "first_cash", "addr:full": "Lotes 8 Y 9, Manz. 618", "addr:city": "Tijuana", "addr:state": "Baja California", "addr:postcode": "22600", "addr:country": "US", "name": "fcp1367", "phone": "(664) 736-2041", "brand": "First Cash Pawn"}, "geometry": {"type": "Point", "coordinates": [-116.969645, 32.477939]}},
{"type": "Feature", "id": "mNIf3b0oKygv4PZdHrW5BkIo_tE=", "properties": {"ref": "1081", "@spider": "first_cash", "addr:full": "Carretera Libre Tijuana Ensena", "addr:city": "Playas De Rosarito", "addr:state": "Baja California", "addr:postcode": "22705", "addr:country": "US", "name": "fcp1081", "phone": "(661) 100-0260", "brand": "First Cash Pawn"}, "geometry": {"type": "Point", "coordinates": [-117.0518112, 32.4008691]}},
{"type": "Feature", "id": "2PXytTtJu5J0nvcQ_YldbZ0s6LU=", "properties": {"ref": "795", "@spider": "first_cash", "addr:full": "Av. Ejidatarios #1621 - 1 Loc", "addr:city": "Tijuana", "addr:state": "Baja California", "addr:postcode": "22444", "addr:country": "US", "name": "fcp795", "phone": "(664) 645-5650", "brand": "First Cash Pawn"}, "geometry": {"type": "Point", "coordinates": [-116.9018193, 32.5376609]}},
{"type": "Feature", "id": "7UxhDXV9jdNJ_Vjny6ud6GXQZUY=", "properties": {"ref": "774", "@spider": "first_cash", "addr:full": "Rodolfo Sanchez Taboada #9616", "addr:city": "Tijuana", "addr:state": "Baja California", "addr:postcode": "22185", "addr:country": "US", "name": "fcp774", "phone": "(664) 660-6660", "brand": "First Cash Pawn"}, "geometry": {"type": "Point", "coordinates": [-116.9732557, 32.4568297]}},
{"type": "Feature", "id": "_MiyC8R_w4ONdso68vrQ4HlRcvc=", "properties": {"ref": "877", "@spider": "first_cash", "addr:full": "Blvd. Gustavo Diaz Ordaz #1728", "addr:city": "Tijuana", "addr:state": "Baja California", "addr:postcode": "22127", "addr:country": "US", "name": "fcp877", "phone": "(664) 629-0868", "brand": "First Cash Pawn"}, "geometry": {"type": "Point", "coordinates": [-116.9409751, 32.4844249]}},
{"type": "Feature", "id": "DbKD2_e_uT5T1ogNbETKbXG6niw=", "properties": {"ref": "1154", "@spider": "first_cash", "addr:full": "Blvd. Insurgentes #8202", "addr:city": "Tijuana", "addr:state": "Baja California", "addr:postcode": "22210", "addr:country": "US", "name": "fcp1154", "phone": "(664) 625-1672", "brand": "First Cash Pawn"}, "geometry": {"type": "Point", "coordinates": [-116.9301777, 32.4937131]}},
{"type": "Feature", "id": "1VXtg6mWtn-BW0T9sgPsAUYyPF8=", "properties": {"ref": "818", "@spider": "first_cash", "addr:full": "Blvd. Articulo 27, Lote 11, Ma", "addr:city": "Playas De Rosarito", "addr:state": "Baja California", "addr:postcode": "22710", "addr:country": "US", "name": "fcp818", "phone": "(661) 613-7727", "brand": "First Cash Pawn"}, "geometry": {"type": "Point", "coordinates": [-117.0553239, 32.3658544]}},
{"type": "Feature", "id": "qi9F52E_ssdjMTyIO0CCL1tEyHE=", "properties": {"ref": "1180", "@spider": "first_cash", "addr:full": "Calzada Guaycura #20080", "addr:city": "Tijuana", "addr:state": "Baja California", "addr:postcode": "22207", "addr:country": "US", "name": "fcp1180", "phone": "(664) 629-5421", "brand": "First Cash Pawn"}, "geometry": {"type": "Point", "coordinates": [-116.8925895, 32.513513]}},
{"type": "Feature", "id": "QU2sYWytBOvIEC_eitHLDFXVE8E=", "properties": {"ref": "1245", "@spider": "first_cash", "addr:full": "Cochimies #18480, Int. 821 - B", "addr:city": "Tijuana", "addr:state": "Baja California", "addr:postcode": "22216", "addr:country": "US", "name": "fcp1245", "phone": "(664) 625-0795", "brand": "First Cash Pawn"}, "geometry": {"type": "Point", "coordinates": [-116.9180355, 32.4886735]}},
{"type": "Feature", "id": "5Nf1nRM-1rXjQ79KJk29qaVZ23c=", "properties": {"ref": "763", "@spider": "first_cash", "addr:full": "Lote C-1, #303, Manzana 71", "addr:city": "Tijuana", "addr:state": "Baja California", "addr:postcode": "22465", "addr:country": "US", "name": "fcp763", "phone": "(664) 102-5868", "brand": "First Cash Pawn"}, "geometry": {"type": "Point", "coordinates": [-116.89298, 32.5015652]}},
{"type": "Feature", "id": "BI6Sq9Chzt0caUVMco6gUBjeezc=", "properties": {"ref": "365", "@spider": "first_cash", "addr:full": "326 West 27Th Street", "addr:city": "Scottsbluff", "addr:state": "NE", "addr:postcode": "69361", "addr:country": "US", "name": "fcp365", "phone": "3086357972", "brand": "First Cash Pawn"}, "geometry": {"type": "Point", "coordinates": [-103.6682, 41.87359]}},
{"type": "Feature", "id": "8cXpLcNP3jAmkCRcutdW5EVKYSM=", "properties": {"ref": "360", "@spider": "first_cash", "addr:full": "746 N College Ave", "addr:city": "Fort Collins", "addr:state": "CO", "addr:postcode": "80524", "addr:country": "US", "name": "fcp360", "phone": "9704844923", "brand": "First Cash Pawn"}, "geometry": {"type": "Point", "coordinates": [-105.0762, 40.59759]}},
{"type": "Feature", "id": "wwyGmqVaV_wlt26QqyzwAqXTXJ8=", "properties": {"ref": "368", "@spider": "first_cash", "addr:full": "111 W Monroe Dr.", "addr:city": "Fort Collins", "addr:state": "CO", "addr:postcode": "80525", "addr:country": "US", "name": "fcp368", "phone": "9702047800", "brand": "First Cash Pawn"}, "geometry": {"type": "Point", "coordinates": [-105.0783, 40.53968]}},
{"type": "Feature", "id": "2omR3JIdIddcnZhxV2_KwxspB6w=", "properties": {"ref": "363", "@spider": "first_cash", "addr:full": "1411 N Cleveland Ave", "addr:city": "Loveland", "addr:state": "CO", "addr:postcode": "80538", "addr:country": "US", "name": "fcp363", "phone": "9706677185", "brand": "First Cash Pawn"}, "geometry": {"type": "Point", "coordinates": [-105.0749, 40.40765]}},
{"type": "Feature", "id": "1nyBYsxoPUV_zHMS6YDPAsEd7jA=", "properties": {"ref": "371", "@spider": "first_cash", "addr:full": "704 Main St.", "addr:city": "Longmont", "addr:state": "CO", "addr:postcode": "80501", "addr:country": "US", "name": "fcp371", "phone": "3037765979", "brand": "First Cash Pawn"}, "geometry": {"type": "Point", "coordinates": [-105.1021, 40.17099]}},
{"type": "Feature", "id": "P7IE_n5ZFF1X0z-_fe8nlbFHeZM=", "properties": {"ref": "405", "@spider": "first_cash", "addr:full": "6650 W. 120Th St, Suite A-12", "addr:city": "Broomfield", "addr:state": "CO", "addr:postcode": "80020", "addr:country": "US", "name": "fcp405", "phone": "3034076410", "brand": "Fast Cash"}, "geometry": {"type": "Point", "coordinates": [-105.0709, 39.913]}},
{"type": "Feature", "id": "BCRvgxASoEf0FSf6JyvPWgzY8xA=", "properties": {"ref": "372", "@spider": "first_cash", "addr:full": "333 E Bridge St", "addr:city": "Brighton", "addr:state": "CO", "addr:postcode": "80601", "addr:country": "US", "name": "fcp372", "phone": "3036549959", "brand": "First Cash Pawn"}, "geometry": {"type": "Point", "coordinates": [-104.8185, 39.98709]}},
{"type": "Feature", "id": "ZCnGIJKmlAotP5eG1f5T99VzkgQ=", "properties": {"ref": "404", "@spider": "first_cash", "addr:full": "1515-B E. Bridge St.", "addr:city": "Brighton", "addr:state": "CO", "addr:postcode": "80601", "addr:country": "US", "name": "fcp404", "phone": "7202633153", "brand": "First Cash Pawn"}, "geometry": {"type": "Point", "coordinates": [-104.8033, 39.98777]}},
{"type": "Feature", "id": "APyvfcCFlzHrxxu7dw6L-kJGVxo=", "properties": {"ref": "400", "@spider": "first_cash", "addr:full": "9120 Federal Blvd.", "addr:city": "Federal Heights", "addr:state": "CO", "addr:postcode": "80260", "addr:country": "US", "name": "fcp400", "phone": "3036579283", "brand": "First Cash Pawn"}, "geometry": {"type": "Point", "coordinates": [-105.0246, 39.86198]}},
{"type": "Feature", "id": "VXlpncEMxGvRAuKuJSIpFO8vF4Y=", "properties": {"ref": "392", "@spider": "first_cash", "addr:full": "1155 W. 84Th Ave", "addr:city": "Federal Heights", "addr:state": "CO", "addr:postcode": "80260", "addr:country": "US", "name": "fcp392", "phone": "3034271188", "brand": "First Cash Pawn"}, "geometry": {"type": "Point", "coordinates": [-105.0006, 39.84929]}},
{"type": "Feature", "id": "CFQiUZlkhj579F7syl5LVaAAZUc=", "properties": {"ref": "401", "@spider": "first_cash", "addr:full": "2400 E 88Th Ave Unit P", "addr:city": "Thornton", "addr:state": "CO", "addr:postcode": "80229", "addr:country": "US", "name": "fcp401", "phone": "3032873030", "brand": "Fast Cash"}, "geometry": {"type": "Point", "coordinates": [-104.9576, 39.85574]}},
{"type": "Feature", "id": "ZD6Otn321KTIx5xB6-9FJsyUKz8=", "properties": {"ref": "394", "@spider": "first_cash", "addr:full": "2551 Sheridan Blvd.", "addr:city": "Edgewater", "addr:state": "CO", "addr:postcode": "80214", "addr:country": "US", "name": "fcp394", "phone": "3032327254", "brand": "First Cash Pawn"}, "geometry": {"type": "Point", "coordinates": [-105.0537, 39.75386]}},
{"type": "Feature", "id": "DhQ-YVvQ6zpTAMgh6d4Cy6EUIfw=", "properties": {"ref": "397", "@spider": "first_cash", "addr:full": "7024 W. Colfax Ave", "addr:city": "Lakewood", "addr:state": "CO", "addr:postcode": "80214", "addr:country": "US", "name": "fcp397", "phone": "3032321332", "brand": "First Cash Pawn"}, "geometry": {"type": "Point", "coordinates": [-105.0752, 39.74007]}},
{"type": "Feature", "id": "5Mwfs7K5Izw7y74e9LiMX5AKHXo=", "properties": {"ref": "402", "@spider": "first_cash", "addr:full": "6225 E 71St Pl Unit B", "addr:city": "Commerce City", "addr:state": "CO", "addr:postcode": "80022", "addr:country": "US", "name": "fcp402", "phone": "7202354330", "brand": "Fast Cash"}, "geometry": {"type": "Point", "coordinates": [-104.9156, 39.82665]}},
{"type": "Feature", "id": "Ugpcun1B7ROc-9HOOmH6Kumuu0U=", "properties": {"ref": "395", "@spider": "first_cash", "addr:full": "1023 Federal Blvd", "addr:city": "Denver", "addr:state": "CO", "addr:postcode": "80204", "addr:country": "US", "name": "fcp395", "phone": "3038932353", "brand": "First Cash Pawn"}, "geometry": {"type": "Point", "coordinates": [-105.0254, 39.73342]}},
{"type": "Feature", "id": "qJNoRqpEayXxpGSWIgAMnAl1XHg=", "properties": {"ref": "391", "@spider": "first_cash", "addr:full": "1101 S. Sheridan Blvd", "addr:city": "Lakewood", "addr:state": "CO", "addr:postcode": "80232", "addr:country": "US", "name": "fcp391", "phone": "3039222206", "brand": "First Cash Pawn"}, "geometry": {"type": "Point", "coordinates": [-105.0541, 39.69641]}},
{"type": "Feature", "id": "nKBAQZ2GunhPzbCmsPPgG1JkClg=", "properties": {"ref": "406", "@spider": "first_cash", "addr:full": "4611 Peoria St. Unit D-2", "addr:city": "Denver", "addr:state": "CO", "addr:postcode": "80239", "addr:country": "US", "name": "fcp406", "phone": "3032537944", "brand": "Fast Cash"}, "geometry": {"type": "Point", "coordinates": [-104.8483, 39.77995]}},
{"type": "Feature", "id": "MMyX6uAODBBJkh5ItvRkSRehIK4=", "properties": {"ref": "393", "@spider": "first_cash", "addr:full": "10001 E. Colfax Ave", "addr:city": "Aurora", "addr:state": "CO", "addr:postcode": "80010", "addr:country": "US", "name": "fcp393", "phone": "3033408075", "brand": "Fast Cash"}, "geometry": {"type": "Point", "coordinates": [-104.8715, 39.74037]}},
{"type": "Feature", "id": "xcsjEnWF6A75gsnQXwC7-qasukc=", "properties": {"ref": "403", "@spider": "first_cash", "addr:full": "4155 S. Broadway", "addr:city": "Englewood", "addr:state": "CO", "addr:postcode": "80113", "addr:country": "US", "name": "fcp403", "phone": "3037620036", "brand": "Fast Cash"}, "geometry": {"type": "Point", "coordinates": [-104.9881, 39.64146]}},
{"type": "Feature", "id": "Rl9sRed8NVNbg98lp7efqlekxh8=", "properties": {"ref": "399", "@spider": "first_cash", "addr:full": "7595 E. Iliff Ave", "addr:city": "Denver", "addr:state": "CO", "addr:postcode": "80231", "addr:country": "US", "name": "fcp399", "phone": "3036956644", "brand": "Fast Cash"}, "geometry": {"type": "Point", "coordinates": [-104.9001, 39.67516]}},
{"type": "Feature", "id": "9rRA9EU7t0hbLE0srgP9gucb_7s=", "properties": {"ref": "398", "@spider": "first_cash", "addr:full": "2648 S. Parker Rd.", "addr:city": "Aurora", "addr:state": "CO", "addr:postcode": "80014", "addr:country": "US", "name": "fcp398", "phone": "3033377518", "brand": "Fast Cash"}, "geometry": {"type": "Point", "coordinates": [-104.8619, 39.66848]}},
{"type": "Feature", "id": "eRx_a7FZMjAbvteKDjGZrJU7hyQ=", "properties": {"ref": "332", "@spider": "first_cash", "addr:full": "3255 E Platte Ave Ste D", "addr:city": "Colorado Springs", "addr:state": "CO", "addr:postcode": "80909", "addr:country": "US", "name": "fcp332", "phone": "7195780657", "brand": "First Cash"}, "geometry": {"type": "Point", "coordinates": [-104.7691, 38.83908]}},
{"type": "Feature", "id": "Asa2BxMnXcAgkmPgADn542XiPcY=", "properties": {"ref": "1438", "@spider": "first_cash", "addr:full": "Blvd. Cucapah, #21791", "addr:city": "Tijuana", "addr:state": "Baja California", "addr:postcode": "22476", "addr:country": "US", "name": "fcp1438", "phone": "(664) 103-5417", "brand": "First Cash Pawn"}, "geometry": {"type": "Point", "coordinates": [-116.8794569, 32.5134652]}},
{"type": "Feature", "id": "zOKS0TSgBS48Rtqjq7H9Pymv-EM=", "properties": {"ref": "333", "@spider": "first_cash", "addr:full": "1889-1891 S. Academy Blvd.", "addr:city": "Colorado Springs", "addr:state": "CO", "addr:postcode": "80916", "addr:country": "US", "name": "fcp333", "phone": "7193922300", "brand": "First Cash Pawn"}, "geometry": {"type": "Point", "coordinates": [-104.757, 38.80529]}},
{"type": "Feature", "id": "0ryqbd5en3bbhNSmmoh_SpGUQWQ=", "properties": {"ref": "362", "@spider": "first_cash", "addr:full": "348 Main St.", "addr:city": "Security", "addr:state": "CO", "addr:postcode": "80911", "addr:country": "US", "name": "fcp362", "phone": "7193908706", "brand": "Mister Money"}, "geometry": {"type": "Point", "coordinates": [-104.7409, 38.7542]}},
{"type": "Feature", "id": "7m7GR6hEgBQBgWHj4oGtMpw_gKs=", "properties": {"ref": "2933", "@spider": "first_cash", "addr:full": "2916 E Route 66", "addr:city": "Flagstaff", "addr:state": "AZ", "addr:postcode": "86004", "addr:country": "US", "name": "fcp2933", "phone": "9285270881", "brand": "Cash America"}, "geometry": {"type": "Point", "coordinates": [-111.6069, 35.21002]}},
{"type": "Feature", "id": "kqBmNbVpcd9b0-dNyTxA4_soBsg=", "properties": {"ref": "2934", "@spider": "first_cash", "addr:full": "2500 S Woodlands Village Blvd, Ste 14", "addr:city": "Flagstaff", "addr:state": "AZ", "addr:postcode": "86001", "addr:country": "US", "name": "fcp2934", "phone": "9282261112", "brand": "Cash America"}, "geometry": {"type": "Point", "coordinates": [-111.668, 35.17782]}},
{"type": "Feature", "id": "-SPZoO07Z9kV50M1jKcWRFJ55f0=", "properties": {"ref": "369", "@spider": "first_cash", "addr:full": "1006 Bonforte Rd.", "addr:city": "Pueblo", "addr:state": "CO", "addr:postcode": "81001", "addr:country": "US", "name": "fcp369", "phone": "7192537676", "brand": "Mister Money"}, "geometry": {"type": "Point", "coordinates": [-104.5964, 38.28759]}},
{"type": "Feature", "id": "mJs3Rp79f2KTtzuNjSgTBPkCBN4=", "properties": {"ref": "335", "@spider": "first_cash", "addr:full": "3850 West Northern Avenue", "addr:city": "Pueblo", "addr:state": "CO", "addr:postcode": "81005", "addr:country": "US", "name": "fcp335", "phone": "7195640031", "brand": "First Cash Pawn"}, "geometry": {"type": "Point", "coordinates": [-104.6604, 38.23616]}},
{"type": "Feature", "id": "aOq4fvNnmc2e3a-ABHi8WHxJkyE=", "properties": {"ref": "3398", "@spider": "first_cash", "addr:full": "Blvd. Alfredo Bonfil 804", "addr:city": "Playas De Rosarito", "addr:state": "Baja California", "addr:postcode": "22707", "addr:country": "US", "name": "fcp3398", "brand": "First Cash Pawn"}, "geometry": {"type": "Point", "coordinates": [-117.048327, 32.346166]}},
{"type": "Feature", "id": "Nvpcw5XsXAGUeAxxxDKW-UnnAcQ=", "properties": {"ref": "1217", "@spider": "first_cash", "addr:full": "13 De La Manzana 59", "addr:city": "Tijuana", "addr:state": "Baja California", "addr:postcode": "22207", "addr:country": "US", "name": "fcp1217", "phone": "(664) 979-8523", "brand": "First Cash Pawn"}, "geometry": {"type": "Point", "coordinates": [-116.969833, 32.421111]}},
{"type": "Feature", "id": "GbSKqoA7q9Ua36PVjs3RajsHyAE=", "properties": {"ref": "1436", "@spider": "first_cash", "addr:full": "Roberto De La Madrid, #12917", "addr:city": "Tijuana", "addr:state": "Baja California", "addr:postcode": "22170", "addr:country": "US", "name": "fcp1436", "phone": "(664) 645-2331", "brand": "First Cash Pawn"}, "geometry": {"type": "Point", "coordinates": [-116.953667, 32.431833]}},
{"type": "Feature", "id": "Ah-gciN-NbIxmzBmu9-y387BULA=", "properties": {"ref": "1374", "@spider": "first_cash", "addr:full": "Blvd. Garcia S/N, Lote 1-B2, M", "addr:city": "Tijuana", "addr:state": "Baja California", "addr:postcode": "22165", "addr:country": "US", "name": "fcp1374", "phone": "(664) 188-8258", "brand": "First Cash Pawn"}, "geometry": {"type": "Point", "coordinates": [-116.9409028, 32.3866077]}},
{"type": "Feature", "id": "EfvD7lMuH6MEZZMiuZxl-FUqbBs=", "properties": {"ref": "1437", "@spider": "first_cash", "addr:full": "Bosques Templados, #15001", "addr:city": "Tijuana", "addr:state": "Baja California", "addr:postcode": "22163", "addr:country": "US", "name": "fcp1437", "phone": "(664) 448-9267", "brand": "First Cash Pawn"}, "geometry": {"type": "Point", "coordinates": [-116.9391588, 32.3864761]}},
{"type": "Feature", "id": "dTTcJqVNXDnVk-1mN2ZarfmCeCg=", "properties": {"ref": "3388", "@spider": "first_cash", "addr:full": "Carrizo Esquina Con La Encanta", "addr:city": "Tijuana", "addr:state": "Baja California", "addr:postcode": "22125", "addr:country": "US", "name": "fcp3388", "phone": "6646458005", "brand": "First Cash Pawn"}, "geometry": {"type": "Point", "coordinates": [-116.928102, 32.445952]}},
{"type": "Feature", "id": "ba2w7TfEUka4DCeTvrufGUilco4=", "properties": {"ref": "758", "@spider": "first_cash", "addr:full": "Prol. Blvd. Diaz Ordaz #1550 -", "addr:city": "Tijuana", "addr:state": "Baja California", "addr:postcode": "22126", "addr:country": "US", "name": "fcp758", "phone": "(664) 969-8439", "brand": "First Cash Pawn"}, "geometry": {"type": "Point", "coordinates": [-116.928077, 32.4629642]}},
{"type": "Feature", "id": "ZoKj2ylDKOmgu2jI4MIykpPIpl8=", "properties": {"ref": "926", "@spider": "first_cash", "addr:full": "Blvd. Insurgentes #8902, Loc 1", "addr:city": "Tijuana", "addr:state": "Baja California", "addr:postcode": "22237", "addr:country": "US", "name": "fcp926", "phone": "(664) 625-8763", "brand": "First Cash Pawn"}, "geometry": {"type": "Point", "coordinates": [-116.8929604, 32.4586903]}},
{"type": "Feature", "id": "EBW93qh_XssaHuulTl4kGuXNr54=", "properties": {"ref": "761", "@spider": "first_cash", "addr:full": "Camino Palenque #22100 Loc # 2", "addr:city": "Tijuana", "addr:state": "Baja California", "addr:postcode": "22234", "addr:country": "US", "name": "fcp761", "phone": "(664) 972-4570", "brand": "First Cash Pawn"}, "geometry": {"type": "Point", "coordinates": [-116.8808059, 32.4811094]}},
{"type": "Feature", "id": "QPkT3VlWxUA6IlJQndXaDoAgYSA=", "properties": {"ref": "786", "@spider": "first_cash", "addr:full": "Sandia #9642", "addr:city": "Tijuana", "addr:state": "Baja California", "addr:postcode": "22237", "addr:country": "US", "name": "fcp786", "phone": "(664) 102-1672", "brand": "First Cash Pawn"}, "geometry": {"type": "Point", "coordinates": [-116.8662152, 32.4711437]}},
{"type": "Feature", "id": "OfhvVG4D6uWNRaZInaxC-dwhDzE=", "properties": {"ref": "745", "@spider": "first_cash", "addr:full": "Blvd. Cucapah And Calle Zarago", "addr:city": "Tijuana", "addr:state": "Baja California", "addr:postcode": "22000", "addr:country": "US", "name": "fcp745", "phone": "(664) 103-4954", "brand": "First Cash Pawn"}, "geometry": {"type": "Point", "coordinates": [-116.8689394, 32.5137163]}},
{"type": "Feature", "id": "forgB0kfXvF6tbaOs-9yuOmSJkM=", "properties": {"ref": "4355", "@spider": "first_cash", "addr:full": "Av. Aranjuez #22749", "addr:city": "Tijuana", "addr:state": "Baja California", "addr:postcode": "22250", "addr:country": "US", "name": "fcp4355", "phone": "(664) 972-5555", "brand": "First Cash Pawn"}, "geometry": {"type": "Point", "coordinates": [-116.8655812, 32.5044201]}},
{"type": "Feature", "id": "qx2RdMCInqfPLEAZu82OqH-4wpc=", "properties": {"ref": "1440", "@spider": "first_cash", "addr:full": "Perimetral #9717", "addr:city": "Tijuana", "addr:state": "Baja California", "addr:postcode": "22237", "addr:country": "US", "name": "fcp1440", "phone": "(664) 102-1614", "brand": "First Cash Pawn"}, "geometry": {"type": "Point", "coordinates": [-116.859977, 32.4737062]}},
{"type": "Feature", "id": "ie7BZSTP9cptTrfneMH3Oi6st_o=", "properties": {"ref": "922", "@spider": "first_cash", "addr:full": "Corredor Tijuana Rosarito #261", "addr:city": "Tijuana", "addr:state": "Baja California", "addr:postcode": "22236", "addr:country": "US", "name": "fcp922", "phone": "(664) 211-8717", "brand": "First Cash Pawn"}, "geometry": {"type": "Point", "coordinates": [-116.8507267, 32.494047]}},
{"type": "Feature", "id": "DYFlVduAVTfp8EfkZB-W_Qy4Wbo=", "properties": {"ref": "3303", "@spider": "first_cash", "addr:full": "Av. Melchor Ocampo #23212-1B", "addr:city": "Tijuana", "addr:state": "Baja California", "addr:postcode": "22204", "addr:country": "US", "name": "fcp3303", "phone": "(664) 974-9546", "brand": "First Cash Pawn"}, "geometry": {"type": "Point", "coordinates": [-116.8528849, 32.5125879]}},
{"type": "Feature", "id": "mcRnY2-Mz5XH6rY-aPbHsq9tB7I=", "properties": {"ref": "1182", "@spider": "first_cash", "addr:full": "Av. De Las Fuentes #22622", "addr:city": "Tijuana", "addr:state": "Baja California", "addr:postcode": "22245", "addr:country": "US", "name": "fcp1182", "phone": "(664) 650-0579", "brand": "First Cash Pawn"}, "geometry": {"type": "Point", "coordinates": [-116.8473715, 32.4690844]}},
{"type": "Feature", "id": "G9rHZbG4wgZ_pO-KF5oe8NLf0m0=", "properties": {"ref": "1381", "@spider": "first_cash", "addr:full": "Carretera Tijuana - Tecate #22", "addr:city": "Tijuana", "addr:state": "Baja California", "addr:postcode": "22720", "addr:country": "US", "name": "fcp1381", "phone": "(664) 903-2909", "brand": "First Cash Pawn"}, "geometry": {"type": "Point", "coordinates": [-116.7887459, 32.4711336]}},
{"type": "Feature", "id": "emEWQhS0Y68rmlA5gmsYT0tbGgg=", "properties": {"ref": "1173", "@spider": "first_cash", "addr:full": "Paseo Del Campo #6202", "addr:city": "Tijuana", "addr:state": "Baja California", "addr:postcode": "22254", "addr:country": "US", "name": "fcp1173", "phone": "(664) 524-5520", "brand": "First Cash Pawn"}, "geometry": {"type": "Point", "coordinates": [-116.7361773, 32.5133404]}},
{"type": "Feature", "id": "_Y78Pn43sKt50n5mbZ-V84Cr354=", "properties": {"ref": "797", "@spider": "first_cash", "addr:full": "Av. Juarez #1450", "addr:city": "Ensenada", "addr:state": "Baja California", "addr:postcode": "22800", "addr:country": "US", "name": "fcp797", "phone": "(646) 120-5915", "brand": "First Cash Pawn"}, "geometry": {"type": "Point", "coordinates": [-116.614242, 31.8633729]}},
{"type": "Feature", "id": "fUEJPBBUKQxqCfC3CC7aZARtJb0=", "properties": {"ref": "1293", "@spider": "first_cash", "addr:full": "Reforma #362, Loc 1 - 4", "addr:city": "Ensenada", "addr:state": "Baja California", "addr:postcode": "22890", "addr:country": "US", "name": "fcp1293", "phone": "(646) 173-9741", "brand": "First Cash Pawn"}, "geometry": {"type": "Point", "coordinates": [-116.6027915, 31.8405874]}},
{"type": "Feature", "id": "-JW-Tr3ssPiygYo7LN648cei1kw=", "properties": {"ref": "794", "@spider": "first_cash", "addr:full": "Carretera Transpeninsular #197", "addr:city": "Ensenada", "addr:state": "Baja California", "addr:postcode": "22785", "addr:country": "US", "name": "fcp794", "phone": "(646) 182-1158", "brand": "First Cash Pawn"}, "geometry": {"type": "Point", "coordinates": [-116.5910666, 31.7825918]}},
{"type": "Feature", "id": "S9Mnu86mKCbS9s3CkVyNre1NuCI=", "properties": {"ref": "1077", "@spider": "first_cash", "addr:full": "Gonzalez Ocampo #1568", "addr:city": "Ensenada", "addr:state": "Baja California", "addr:postcode": "22790", "addr:country": "US", "name": "fcp1077", "phone": "(646) 154-1483", "brand": "First Cash Pawn"}, "geometry": {"type": "Point", "coordinates": [-116.5716351, 31.7170693]}},
{"type": "Feature", "id": "c5s1z1KwzOdD59Rht7hacHTM0yI=", "properties": {"ref": "796", "@spider": "first_cash", "addr:full": "Av. Cortez #2252", "addr:city": "Ensenada", "addr:state": "Baja California", "addr:postcode": "22880", "addr:country": "US", "name": "fcp796", "phone": "(646) 176-8303", "brand": "First Cash Pawn"}, "geometry": {"type": "Point", "coordinates": [-116.5822779, 31.8636969]}},
{"type": "Feature", "id": "dHaPoZWni_ca067OHJoDcFZ2Gy4=", "properties": {"ref": "799", "@spider": "first_cash", "addr:full": "Blvd. Reforma Carreteta Transp", "addr:city": "Ensenada", "addr:state": "Baja California", "addr:postcode": "22785", "addr:country": "US", "name": "fcp799", "phone": "(646) 173-3172", "brand": "First Cash Pawn"}, "geometry": {"type": "Point", "coordinates": [-116.5821469, 31.8637216]}},
{"type": "Feature", "id": "oYS-Lu_OiI6Ts05wd-k71kGVCXM=", "properties": {"ref": "798", "@spider": "first_cash", "addr:full": "Calle E #500", "addr:city": "Ensenada", "addr:state": "Baja California", "addr:postcode": "22810", "addr:country": "US", "name": "fcp798", "phone": "(646) 156-4121", "brand": "First Cash Pawn"}, "geometry": {"type": "Point", "coordinates": [-116.583733, 31.896796]}},
{"type": "Feature", "id": "KpX7w_dmsFQDGp39ZtsqcH8qqUA=", "properties": {"ref": "1083", "@spider": "first_cash", "addr:full": "Laguna De Hanson, Lt. 1 Mz. 2", "addr:city": "Ensenada", "addr:state": "Baja California", "addr:postcode": "22812", "addr:country": "US", "name": "fcp1083", "phone": "(646) 174-8197", "brand": "First Cash Pawn"}, "geometry": {"type": "Point", "coordinates": [-116.5774083, 31.8805461]}},
{"type": "Feature", "id": "L8V-y-b2kdzCeF7p7UPrA494Y2k=", "properties": {"ref": "1296", "@spider": "first_cash", "addr:full": "Av. Kiwas #45 Esq. Con Cucapah", "addr:city": "Ensenada", "addr:state": "Baja California", "addr:postcode": "22895", "addr:country": "US", "name": "fcp1296", "phone": "(646) 977-2451", "brand": "First Cash Pawn"}, "geometry": {"type": "Point", "coordinates": [-116.576211, 31.898749]}},
{"type": "Feature", "id": "2uNAr8JOCK0cVH0M-9kVJWNroWQ=", "properties": {"ref": "4356", "@spider": "first_cash", "addr:full": "Av. Nuevo Leon #79 Esq.Dr. Art", "addr:city": "Tecate", "addr:state": "Baja California", "addr:postcode": "21400", "addr:country": "US", "name": "fcp4356", "phone": "(665) 655-7249", "brand": "First Cash Pawn"}, "geometry": {"type": "Point", "coordinates": [-116.633593, 32.566815]}},
{"type": "Feature", "id": "1Q1QHs9cth00D2v8_j4jmaBrbdk=", "properties": {"ref": "834", "@spider": "first_cash", "addr:full": "Huetamo #20", "addr:city": "Tecate", "addr:state": "Baja California", "addr:postcode": "21400", "addr:country": "US", "name": "fcp834", "phone": "(665) 654-0966", "brand": "First Cash Pawn"}, "geometry": {"type": "Point", "coordinates": [-116.6319768, 32.5664967]}},
{"type": "Feature", "id": "RDjUhDbtR_SPFb9IjuVo5jjtRu0=", "properties": {"ref": "752", "@spider": "first_cash", "addr:full": "Av. Juarez #700", "addr:city": "Tecate", "addr:state": "Baja California", "addr:postcode": "21400", "addr:country": "US", "name": "fcp752", "phone": "(665) 521-3740", "brand": "First Cash Pawn"}, "geometry": {"type": "Point", "coordinates": [-116.6316261, 32.5731563]}},
{"type": "Feature", "id": "QNDJSf_g3Bz-DrzmZqkW4peUiDc=", "properties": {"ref": "1416", "@spider": "first_cash", "addr:full": "Antigua Carretera A Tecate S/N", "addr:city": "Tecate", "addr:state": "Baja California", "addr:postcode": "21470", "addr:country": "US", "name": "fcp1416", "phone": "(665) 655-1275", "brand": "First Cash Pawn"}, "geometry": {"type": "Point", "coordinates": [-116.582726, 32.565102]}},
{"type": "Feature", "id": "dofY7N7ivk226s2E1LvgdrJJDfg=", "properties": {"ref": "1052", "@spider": "first_cash", "addr:full": "Calz. Lic. Manuel Gomez Morin", "addr:city": "Mexicali", "addr:state": "Baja California", "addr:postcode": "21137", "addr:country": "US", "name": "fcp1052", "phone": "(686) 591-2583", "brand": "First Cash Pawn"}, "geometry": {"type": "Point", "coordinates": [-115.533667, 32.648028]}},
{"type": "Feature", "id": "tggHRQdT1bKUMKdYDSNtmuma-YY=", "properties": {"ref": "760", "@spider": "first_cash", "addr:full": "Av. Tierra Blanca #2700, Loc 2", "addr:city": "Mexicali", "addr:state": "Baja California", "addr:postcode": "21137", "addr:country": "US", "name": "fcp760", "phone": "(686) 552-0200", "brand": "First Cash Pawn"}, "geometry": {"type": "Point", "coordinates": [-115.5191156, 32.6444157]}},
{"type": "Feature", "id": "0fraN3s3FI9tVVLpqh77-OXVmsE=", "properties": {"ref": "1047", "@spider": "first_cash", "addr:full": "Hector Teran Teran #1826, Mz.", "addr:city": "Mexicali", "addr:state": "Baja California", "addr:postcode": "21600", "addr:country": "US", "name": "fcp1047", "phone": "(686) 839-8587", "brand": "First Cash Pawn"}, "geometry": {"type": "Point", "coordinates": [-115.5060692, 32.6126995]}},
{"type": "Feature", "id": "8aSA-RO_OuThjftg0W4QZQRIk2I=", "properties": {"ref": "1246", "@spider": "first_cash", "addr:full": "Calzada Lazaro Cardenas #1961", "addr:city": "Mexicali", "addr:state": "Baja California", "addr:postcode": "21220", "addr:country": "US", "name": "fcp1246", "phone": "(686) 556-7350", "brand": "First Cash Pawn"}, "geometry": {"type": "Point", "coordinates": [-115.5075219, 32.6236263]}},
{"type": "Feature", "id": "IABlh00VG1GgDvjV4sbR61KKmIo=", "properties": {"ref": "1251", "@spider": "first_cash", "addr:full": "Calzada Lic. Manuel Gomez Mori", "addr:city": "Mexicali", "addr:state": "Baja California", "addr:postcode": "21327", "addr:country": "US", "name": "fcp1251", "phone": "(686) 839-5520", "brand": "First Cash Pawn"}, "geometry": {"type": "Point", "coordinates": [-115.4978747, 32.5953242]}},
{"type": "Feature", "id": "sRcWTkBY33yaEa6EHLy4nOJMfo0=", "properties": {"ref": "1082", "@spider": "first_cash", "addr:full": "Av. Michoacan #1798", "addr:city": "Mexicali", "addr:state": "Baja California", "addr:postcode": "21120", "addr:country": "US", "name": "fcp1082", "phone": "(686) 553-8162", "brand": "First Cash Pawn"}, "geometry": {"type": "Point", "coordinates": [-115.5041679, 32.6561894]}},
{"type": "Feature", "id": "xzwIc6ZuNIgAiTozpZwlQUFFDKY=", "properties": {"ref": "784", "@spider": "first_cash", "addr:full": "Calzada Anahuac #273", "addr:city": "Mexicali", "addr:state": "Baja California", "addr:postcode": "21380", "addr:country": "US", "name": "fcp784", "phone": "(686) 837-7209", "brand": "First Cash Pawn"}, "geometry": {"type": "Point", "coordinates": [-115.4786669, 32.6062572]}},
{"type": "Feature", "id": "HEeJbAC7OuhtQd8zRb8iW33rGLY=", "properties": {"ref": "1046", "@spider": "first_cash", "addr:full": "Calz. Anahuac & Montalvo #2246", "addr:city": "Mexicali", "addr:state": "Baja California", "addr:postcode": "21379", "addr:country": "US", "name": "fcp1046", "phone": "(686) 837-7148", "brand": "First Cash Pawn"}, "geometry": {"type": "Point", "coordinates": [-115.4727543, 32.5846126]}},
{"type": "Feature", "id": "qBGxy7DGBmEJd5WE8_aB8LrDT8o=", "properties": {"ref": "1198", "@spider": "first_cash", "addr:full": "Calzada Lazaro Cardenas #1087", "addr:city": "Mexicali", "addr:state": "Baja California", "addr:postcode": "21330", "addr:country": "US", "name": "fcp1198", "phone": "(686) 838-7734", "brand": "First Cash Pawn"}, "geometry": {"type": "Point", "coordinates": [-115.4730066, 32.623914]}},
{"type": "Feature", "id": "ffAXV0LZe49BQFfiWSZ_MfwZZAo=", "properties": {"ref": "773", "@spider": "first_cash", "addr:full": "Av. Lopez Mateos #950 Loc A -", "addr:city": "Mexicali", "addr:state": "Baja California", "addr:postcode": "21000", "addr:country": "US", "name": "fcp773", "phone": "(686) 557-3127", "brand": "First Cash Pawn"}, "geometry": {"type": "Point", "coordinates": [-115.4724825, 32.6487276]}},
{"type": "Feature", "id": "dpyWqdhvfQRjOxOCTkHxMvBW2Sg=", "properties": {"ref": "1145", "@spider": "first_cash", "addr:full": "Lt. 1 Fracc. Oeste, Porcion Es", "addr:city": "Mexicali", "addr:state": "Baja California", "addr:postcode": "21387", "addr:country": "US", "name": "fcp1145", "phone": "(686) 580-6174", "brand": "First Cash Pawn"}, "geometry": {"type": "Point", "coordinates": [-115.4348094, 32.585589]}},
{"type": "Feature", "id": "vJiBUhsF2SGGJOdjuFCJ_u8NOBM=", "properties": {"ref": "1260", "@spider": "first_cash", "addr:full": "Av. Del Cabildo #1101", "addr:city": "Mexicali", "addr:state": "Baja California", "addr:postcode": "21370", "addr:country": "US", "name": "fcp1260", "phone": "(686) 582-2146", "brand": "First Cash Pawn"}, "geometry": {"type": "Point", "coordinates": [-115.426529, 32.614328]}},
{"type": "Feature", "id": "fpFL3FJ0luFLqg-fTMMVlpUX6Eg=", "properties": {"ref": "1373", "@spider": "first_cash", "addr:full": "Calz. Cuauht\u00e9moc #1001", "addr:city": "Mexicali", "addr:state": "Baja California", "addr:postcode": "21240", "addr:country": "US", "name": "fcp1373", "phone": "(686) 567-4112", "brand": "First Cash Pawn"}, "geometry": {"type": "Point", "coordinates": [-115.430808, 32.6585191]}},
{"type": "Feature", "id": "17gPYteogmck3sBQfPrNgrmx8hs=", "properties": {"ref": "755", "@spider": "first_cash", "addr:full": "Blvd. Lazaro Cardenas #1776", "addr:city": "Mexicali", "addr:state": "Baja California", "addr:postcode": "21280", "addr:country": "US", "name": "fcp755", "phone": "(686) 568-8550", "brand": "First Cash Pawn"}, "geometry": {"type": "Point", "coordinates": [-115.4101533, 32.6248828]}},
{"type": "Feature", "id": "2iAqPOL37r23-mqTWpT4qc6EbKk=", "properties": {"ref": "1267", "@spider": "first_cash", "addr:full": "Av. Lazaro Cardenas S/N", "addr:city": "Mexicali", "addr:state": "Baja California", "addr:postcode": "21600", "addr:country": "US", "name": "fcp1267", "phone": "(686) 844-2474", "brand": "First Cash Pawn"}, "geometry": {"type": "Point", "coordinates": [-115.4100807, 32.6248767]}},
{"type": "Feature", "id": "lKDpcWW2gV3utAV2EKXmw23yGNE=", "properties": {"ref": "1255", "@spider": "first_cash", "addr:full": "Calzada Gral. Lazaro Cardenas", "addr:city": "Mexicali", "addr:state": "Baja California", "addr:postcode": "21395", "addr:country": "US", "name": "fcp1255", "phone": "(686) 561-2153", "brand": "First Cash Pawn"}, "geometry": {"type": "Point", "coordinates": [-115.3847287, 32.6093758]}},
{"type": "Feature", "id": "Ri71fssP7twTKQX_IOvE3zOgAH0=", "properties": {"ref": "782", "@spider": "first_cash", "addr:full": "Av. Rubelita #1100", "addr:city": "Mexicali", "addr:state": "Baja California", "addr:postcode": "21970", "addr:country": "US", "name": "fcp782", "phone": "(686) 839-9068", "brand": "First Cash Pawn"}, "geometry": {"type": "Point", "coordinates": [-115.3658612, 32.5796112]}},
{"type": "Feature", "id": "G_m5UwSE1Jz-pGkWPtlHeWngQSM=", "properties": {"ref": "1162", "@spider": "first_cash", "addr:full": "Calle Galeana #4511, Lts 4 & 5", "addr:city": "Mexicali", "addr:state": "Baja California", "addr:postcode": "21395", "addr:country": "US", "name": "fcp1162", "phone": "(686) 839-4270", "brand": "First Cash Pawn"}, "geometry": {"type": "Point", "coordinates": [-115.355941, 32.583618]}},
{"type": "Feature", "id": "clc3KLnPfmF2s-8BXqPtfsWZllc=", "properties": {"ref": "1193", "@spider": "first_cash", "addr:full": "Calz. Heroicapuebla S/N", "addr:city": "Mexicali", "addr:state": "Baja California", "addr:postcode": "21260", "addr:country": "US", "name": "fcp1193", "phone": "(686) 592-5107", "brand": "First Cash Pawn"}, "geometry": {"type": "Point", "coordinates": [-115.337935, 32.563202]}},
{"type": "Feature", "id": "f_ijMCsrgxzJ1UbIwdrVqND6dOA=", "properties": {"ref": "1372", "@spider": "first_cash", "addr:full": "Calle 3Ra #98 Fraccion Norte D", "addr:city": "Mexicali", "addr:state": "Baja California", "addr:postcode": "21720", "addr:country": "US", "name": "fcp1372", "phone": "(658) 516-4790", "brand": "First Cash Pawn"}, "geometry": {"type": "Point", "coordinates": [-115.104483, 32.284211]}},
{"type": "Feature", "id": "kvm6_nTjq1kc6BlZBshFdFFzxF0=", "properties": {"ref": "762", "@spider": "first_cash", "addr:full": "Av. Zaragoza Y Calle Sexta #50", "addr:city": "San Luis R\u00edo Colorado", "addr:state": "Sonora", "addr:postcode": "83449", "addr:country": "US", "name": "fcp762", "phone": "(653) 536-9205", "brand": "First Cash Pawn"}, "geometry": {"type": "Point", "coordinates": [-114.778666, 32.4756858]}},
{"type": "Feature", "id": "A34tYFQW-UrrHSPHVRG95yFQsM0=", "properties": {"ref": "1244", "@spider": "first_cash", "addr:full": "Av. Oaxaca B Y Calle 26 #2510", "addr:city": "San Luis R\u00edo Colorado", "addr:state": "Sonora", "addr:postcode": "83447", "addr:country": "US", "name": "fcp1244", "phone": "(653) 536-7406", "brand": "First Cash Pawn"}, "geometry": {"type": "Point", "coordinates": [-114.7601254, 32.4483352]}},
{"type": "Feature", "id": "cDqsuC99z1ctdpaodUcgxkR_cdM=", "properties": {"ref": "2395", "@spider": "first_cash", "addr:full": "150 S Kennedy Drive Ste 6", "addr:city": "Carpentersville", "addr:state": "IL", "addr:postcode": "60110", "addr:country": "US", "name": "fcp2395", "phone": "2242934052", "brand": "Cash America"}, "geometry": {"type": "Point", "coordinates": [-88.25996, 42.11649]}},
{"type": "Feature", "id": "ZS9LxWiEt7lM4fWoFkcICdbRArE=", "properties": {"ref": "2386", "@spider": "first_cash", "addr:full": "1629 Irving Park Road", "addr:city": "Hanover Park", "addr:state": "IL", "addr:postcode": "60133", "addr:country": "US", "name": "fcp2386", "phone": "6308230490", "brand": "Cash America"}, "geometry": {"type": "Point", "coordinates": [-88.14599, 42.00534]}},
{"type": "Feature", "id": "kiYB2WJQUTltEwSexz2muwbxScs=", "properties": {"ref": "2937", "@spider": "first_cash", "addr:full": "2895 S 4Th Avenue", "addr:city": "Yuma", "addr:state": "AZ", "addr:postcode": "85364", "addr:country": "US", "name": "fcp2937", "phone": "9283172801", "brand": "Cash America"}, "geometry": {"type": "Point", "coordinates": [-114.624, 32.6752]}},
{"type": "Feature", "id": "49qEZUuUcZJ5XBvnoZ23BFXHUSw=", "properties": {"ref": "2932", "@spider": "first_cash", "addr:full": "6720 W Olive Avenue, Suite 2", "addr:city": "Peoria", "addr:state": "AZ", "addr:postcode": "85345", "addr:country": "US", "name": "fcp2932", "phone": "6237763378", "brand": "Cash America"}, "geometry": {"type": "Point", "coordinates": [-112.2034, 33.56771]}},
{"type": "Feature", "id": "Mb86KUnCVjSjb9xXhvJQ99rcuXA=", "properties": {"ref": "2907", "@spider": "first_cash", "addr:full": "4234 W Northern Avenue", "addr:city": "Phoenix", "addr:state": "AZ", "addr:postcode": "85051", "addr:country": "US", "name": "fcp2907", "phone": "6239345411", "brand": "Cash America"}, "geometry": {"type": "Point", "coordinates": [-112.151, 33.55356]}},
{"type": "Feature", "id": "jOdn6X8cFOk7A0p5amzh7gcYot8=", "properties": {"ref": "2904", "@spider": "first_cash", "addr:full": "9316 N Central Avenue", "addr:city": "Phoenix", "addr:state": "AZ", "addr:postcode": "85020", "addr:country": "US", "name": "fcp2904", "phone": "6029979661", "brand": "Cash America"}, "geometry": {"type": "Point", "coordinates": [-112.0741, 33.57081]}},
{"type": "Feature", "id": "Z5PQsbJiUW47lTsU2SlVHV8oJjY=", "properties": {"ref": "2903", "@spider": "first_cash", "addr:full": "2701 W Glendale Avenue, Suite 3", "addr:city": "Phoenix", "addr:state": "AZ", "addr:postcode": "85051", "addr:country": "US", "name": "fcp2903", "phone": "6022420005", "brand": "Cash America"}, "geometry": {"type": "Point", "coordinates": [-112.1175, 33.53827]}},
{"type": "Feature", "id": "6aAzdbOiPAmvrIXwlVR2OZuJhm8=", "properties": {"ref": "2909", "@spider": "first_cash", "addr:full": "5830 W Camelback Road", "addr:city": "Glendale", "addr:state": "AZ", "addr:postcode": "85301", "addr:country": "US", "name": "fcp2909", "phone": "6239349555", "brand": "Cash America"}, "geometry": {"type": "Point", "coordinates": [-112.1848, 33.5108]}},
{"type": "Feature", "id": "Wnd5xNJC4HuZwvjcgAYJoggDGlc=", "properties": {"ref": "2921", "@spider": "first_cash", "addr:full": "6540 W Indian School Rd", "addr:city": "Phoenix", "addr:state": "AZ", "addr:postcode": "85033", "addr:country": "US", "name": "fcp2921", "phone": "6238468188", "brand": "Cash America"}, "geometry": {"type": "Point", "coordinates": [-112.202, 33.49521]}},
{"type": "Feature", "id": "LZHxcUvG4TsFpwAL9520-9Ef984=", "properties": {"ref": "2923", "@spider": "first_cash", "addr:full": "3850 W Indian School Rd", "addr:city": "Phoenix", "addr:state": "AZ", "addr:postcode": "85019", "addr:country": "US", "name": "fcp2923", "phone": "6024249000", "brand": "Cash America"}, "geometry": {"type": "Point", "coordinates": [-112.1426, 33.49551]}},
{"type": "Feature", "id": "crMEHRWdzqFDvZ-LNAXJItRcP6I=", "properties": {"ref": "2915", "@spider": "first_cash", "addr:full": "3460 Nw Grand Avenue", "addr:city": "Phoenix", "addr:state": "AZ", "addr:postcode": "85017", "addr:country": "US", "name": "fcp2915", "phone": "6022309443", "brand": "Cash America"}, "geometry": {"type": "Point", "coordinates": [-112.1335, 33.49467]}},
{"type": "Feature", "id": "G5rypOVGTCAkrSg4A4qsfMhBD-o=", "properties": {"ref": "3325", "@spider": "first_cash", "addr:full": "Blvd. Eusebio Kino Esq. Blvd A", "addr:city": "Sonoita", "addr:state": "Sonora", "addr:postcode": "83570", "addr:country": "US", "name": "fcp3325", "phone": "(651) 512-5311", "brand": "First Cash Pawn"}, "geometry": {"type": "Point", "coordinates": [-112.848205, 31.863453]}},
{"type": "Feature", "id": "xIaYyjpvSZP3rjQjqlgVxOVNAkE=", "properties": {"ref": "2922", "@spider": "first_cash", "addr:full": "4301 W Mcdowell", "addr:city": "Phoenix", "addr:state": "AZ", "addr:postcode": "85035", "addr:country": "US", "name": "fcp2922", "phone": "6024550001", "brand": "Cash America"}, "geometry": {"type": "Point", "coordinates": [-112.1523, 33.46568]}},
{"type": "Feature", "id": "LOmVFsv1OsM0LS4xHwduNVJHzGs=", "properties": {"ref": "2919", "@spider": "first_cash", "addr:full": "1075 N 51St Ave, Suite 106", "addr:city": "Phoenix", "addr:state": "AZ", "addr:postcode": "85043", "addr:country": "US", "name": "fcp2919", "phone": "6024249100", "brand": "Cash America"}, "geometry": {"type": "Point", "coordinates": [-112.1683, 33.45952]}},
{"type": "Feature", "id": "yXhwA_tplRwDzA4RTF06fxWYICU=", "properties": {"ref": "2925", "@spider": "first_cash", "addr:full": "300 W Mcdowell Rd", "addr:city": "Phoenix", "addr:state": "AZ", "addr:postcode": "85003", "addr:country": "US", "name": "fcp2925", "phone": "6022581111", "brand": "Cash America"}, "geometry": {"type": "Point", "coordinates": [-112.0785, 33.46598]}},
{"type": "Feature", "id": "Yje_4gwmXkhTsB-zEvs3NdQq4ak=", "properties": {"ref": "2906", "@spider": "first_cash", "addr:full": "2930 N 24Th Street, Suite 100", "addr:city": "Phoenix", "addr:state": "AZ", "addr:postcode": "85016", "addr:country": "US", "name": "fcp2906", "phone": "6029547961", "brand": "Cash America"}, "geometry": {"type": "Point", "coordinates": [-112.0309, 33.48152]}},
{"type": "Feature", "id": "09YGMCT9g7lA2BEgwmZqhXchA5o=", "properties": {"ref": "2910", "@spider": "first_cash", "addr:full": "4620 E Mcdowell Road", "addr:city": "Phoenix", "addr:state": "AZ", "addr:postcode": "85008", "addr:country": "US", "name": "fcp2910", "phone": "6022252947", "brand": "Cash America"}, "geometry": {"type": "Point", "coordinates": [-111.9814, 33.46592]}},
{"type": "Feature", "id": "6V9n6eNeTcJmBhXTFoSxCP4q-tM=", "properties": {"ref": "2920", "@spider": "first_cash", "addr:full": "3501 S Central Ave", "addr:city": "Phoenix", "addr:state": "AZ", "addr:postcode": "85040", "addr:country": "US", "name": "fcp2920", "phone": "6022763500", "brand": "Cash America"}, "geometry": {"type": "Point", "coordinates": [-112.0729, 33.41465]}},
{"type": "Feature", "id": "aCfE26iYcdlf4bz6wMLf-pyQB_Y=", "properties": {"ref": "2902", "@spider": "first_cash", "addr:full": "1302 N Scottsdale Road", "addr:city": "Scottsdale", "addr:state": "AZ", "addr:postcode": "85257", "addr:country": "US", "name": "fcp2902", "phone": "4808891090", "brand": "Cash America"}, "geometry": {"type": "Point", "coordinates": [-111.9267, 33.46231]}},
{"type": "Feature", "id": "VaMpti4-C7iedbmZ-1VWZZebdyY=", "properties": {"ref": "2930", "@spider": "first_cash", "addr:full": "2707 W Southern Avenue, Suite 101", "addr:city": "Tempe", "addr:state": "AZ", "addr:postcode": "85282", "addr:country": "US", "name": "fcp2930", "phone": "6024388468", "brand": "Cash America"}, "geometry": {"type": "Point", "coordinates": [-111.9766, 33.39223]}},
{"type": "Feature", "id": "tVzIn2u76xH8cHrS2y969H23MvM=", "properties": {"ref": "2911", "@spider": "first_cash", "addr:full": "740 E Main Street", "addr:city": "Mesa", "addr:state": "AZ", "addr:postcode": "85203", "addr:country": "US", "name": "fcp2911", "phone": "4806688227", "brand": "Cash America"}, "geometry": {"type": "Point", "coordinates": [-111.8146, 33.4155]}},
{"type": "Feature", "id": "CGHao62ldiee7PrfyUqSbNpIfe4=", "properties": {"ref": "2914", "@spider": "first_cash", "addr:full": "2860 E Main Street, Suite 108", "addr:city": "Mesa", "addr:state": "AZ", "addr:postcode": "85213", "addr:country": "US", "name": "fcp2914", "phone": "4803253228", "brand": "Cash America"}, "geometry": {"type": "Point", "coordinates": [-111.7693, 33.41713]}},
{"type": "Feature", "id": "5w2zoPjvSqoD9SCuhm1M0E2VZPo=", "properties": {"ref": "2912", "@spider": "first_cash", "addr:full": "303 E Southern Avenue, Suite 109", "addr:city": "Mesa", "addr:state": "AZ", "addr:postcode": "85210", "addr:country": "US", "name": "fcp2912", "phone": "4808337055", "brand": "Cash America"}, "geometry": {"type": "Point", "coordinates": [-111.8249, 33.39246]}},
{"type": "Feature", "id": "9j72UAE4hiku8bS2PRhtVbNfBcg=", "properties": {"ref": "2908", "@spider": "first_cash", "addr:full": "1098 N Arizona Avenue", "addr:city": "Chandler", "addr:state": "AZ", "addr:postcode": "85225", "addr:country": "US", "name": "fcp2908", "phone": "4807865449", "brand": "Cash America"}, "geometry": {"type": "Point", "coordinates": [-111.842, 33.32252]}},
{"type": "Feature", "id": "593FPQyyUOA9FGmlpuwWtTXJEjc=", "properties": {"ref": "2939", "@spider": "first_cash", "addr:full": "3650 N First Avenue, Suite 100", "addr:city": "Tucson", "addr:state": "AZ", "addr:postcode": "85719", "addr:country": "US", "name": "fcp2939", "phone": "5208880001", "brand": "Cash America"}, "geometry": {"type": "Point", "coordinates": [-110.9605, 32.27296]}},
{"type": "Feature", "id": "p0aUbgLH_7VBdnKDivLAWLQ81zY=", "properties": {"ref": "2935", "@spider": "first_cash", "addr:full": "4055 E Speedway Boulevard", "addr:city": "Tucson", "addr:state": "AZ", "addr:postcode": "85712", "addr:country": "US", "name": "fcp2935", "phone": "5203233344", "brand": "Cash America"}, "geometry": {"type": "Point", "coordinates": [-110.9056, 32.23679]}},
{"type": "Feature", "id": "lXZPAQOjd8JozT3gPEhfQEx_Ai8=", "properties": {"ref": "2938", "@spider": "first_cash", "addr:full": "7070 E 22Nd Street", "addr:city": "Tucson", "addr:state": "AZ", "addr:postcode": "85710", "addr:country": "US", "name": "fcp2938", "phone": "5207477296", "brand": "Cash America"}, "geometry": {"type": "Point", "coordinates": [-110.8418, 32.20471]}},
{"type": "Feature", "id": "6XORrU7de4OW_raUF6sT3aaLQLQ=", "properties": {"ref": "2936", "@spider": "first_cash", "addr:full": "1635 W Valencia Rd", "addr:city": "Tucson", "addr:state": "AZ", "addr:postcode": "85746", "addr:country": "US", "name": "fcp2936", "phone": "5207410041", "brand": "Cash America"}, "geometry": {"type": "Point", "coordinates": [-110.9997, 32.13217]}},
{"type": "Feature", "id": "P3nCAEzMiLoaBzQFQiHe3hQmkAM=", "properties": {"ref": "1104", "@spider": "first_cash", "addr:full": "Av. Ruiz Cortines #427 - B", "addr:city": "Heroica Nogales", "addr:state": "Sonora", "addr:postcode": "84030", "addr:country": "US", "name": "fcp1104", "phone": "(631) 312-1182", "brand": "First Cash Pawn"}, "geometry": {"type": "Point", "coordinates": [-110.945145, 31.323896]}},
{"type": "Feature", "id": "s-YxRyEI7_8XbOImH6_CaOtg-LM=", "properties": {"ref": "1106", "@spider": "first_cash", "addr:full": "Av. Alvaro Obregon & Calle 5 D", "addr:city": "Heroica Nogales", "addr:state": "Sonora", "addr:postcode": "84000", "addr:country": "US", "name": "fcp1106", "phone": "(631) 313-8906", "brand": "First Cash Pawn"}, "geometry": {"type": "Point", "coordinates": [-110.9464858, 31.3165746]}},
{"type": "Feature", "id": "-mr9I7oTb5plx5mKiGLrxTuz3c4=", "properties": {"ref": "1465", "@spider": "first_cash", "addr:full": "Av.G 3, Esq. Calle 5Ta", "addr:city": "Heroica Caborca", "addr:state": "Sonora", "addr:postcode": "83600", "addr:country": "US", "name": "fcp1465", "phone": "(637) 372-0250", "brand": "First Cash Pawn"}, "geometry": {"type": "Point", "coordinates": [-112.15264, 30.712047]}},
{"type": "Feature", "id": "JSbP4s0NAyvK_8dy9BnQ7vXJM_A=", "properties": {"ref": "1116", "@spider": "first_cash", "addr:full": "Av. Los Maestros #14 B", "addr:city": "Heroica Nogales", "addr:state": "Sonora", "addr:postcode": "84085", "addr:country": "US", "name": "fcp1116", "phone": "(631) 314-5439", "brand": "First Cash Pawn"}, "geometry": {"type": "Point", "coordinates": [-110.9568494, 31.29365]}},
{"type": "Feature", "id": "UdQUh8ouM0Ag0icCstP53MLSOC0=", "properties": {"ref": "1115", "@spider": "first_cash", "addr:full": "Blvd. De Los Alamos #217", "addr:city": "Heroica Nogales", "addr:state": "Sonora", "addr:postcode": "84085", "addr:country": "US", "name": "fcp1115", "phone": "(631) 352-1261", "brand": "First Cash Pawn"}, "geometry": {"type": "Point", "coordinates": [-110.930313, 31.296554]}},
{"type": "Feature", "id": "z-4OnRibx6MOVUN6o4SOhAcVOwA=", "properties": {"ref": "1113", "@spider": "first_cash", "addr:full": "Av. De Los Nogales #259", "addr:city": "Heroica Nogales", "addr:state": "Sonora", "addr:postcode": "84090", "addr:country": "US", "name": "fcp1113", "phone": "(631) 209-5506", "brand": "First Cash Pawn"}, "geometry": {"type": "Point", "coordinates": [-110.929239, 31.27473]}},
{"type": "Feature", "id": "Lx1dbkXV5GIu9j5byhOLNhzTVgk=", "properties": {"ref": "3442", "@spider": "first_cash", "addr:full": "Av. General Anaya Y Av. Ferroc", "addr:city": "Santa Ana", "addr:state": "Sonora", "addr:postcode": "84600", "addr:country": "US", "name": "fcp3442", "phone": "6416881025", "brand": "First Cash Pawn"}, "geometry": {"type": "Point", "coordinates": [-111.116278, 30.54653]}},
{"type": "Feature", "id": "Nuh1amdE8QGhQHcvRSAKRDEpeQI=", "properties": {"ref": "3324", "@spider": "first_cash", "addr:full": "Av. Ninos Heores No.400 Y Call", "addr:city": "Magdalena De Kino", "addr:state": "Sonora", "addr:postcode": "84160", "addr:country": "US", "name": "fcp3324", "phone": "(632) 688-2221", "brand": "First Cash Pawn"}, "geometry": {"type": "Point", "coordinates": [-110.961682, 30.631346]}},
{"type": "Feature", "id": "sIo4n7fq2fWDJH1Bmkxh6aeZBVI=", "properties": {"ref": "3434", "@spider": "first_cash", "addr:full": "Av. Campos Mineros #15", "addr:city": "Heroica Ciudad De Cananea", "addr:state": "Sonora", "addr:postcode": "84620", "addr:country": "US", "name": "fcp3434", "phone": "645-688-0207", "brand": "First Cash Pawn"}, "geometry": {"type": "Point", "coordinates": [-110.290504, 30.988824]}},
{"type": "Feature", "id": "z65NoThFkxpjzD66iLDcFqvgT30=", "properties": {"ref": "1110", "@spider": "first_cash", "addr:full": "Blvd. Progreso Esq. Calle De L", "addr:city": "Hermosillo", "addr:state": "Sonora", "addr:postcode": "83290", "addr:country": "US", "name": "fcp1110", "phone": "(662) 135-4554", "brand": "First Cash Pawn"}, "geometry": {"type": "Point", "coordinates": [-111.0115662, 29.1433855]}},
{"type": "Feature", "id": "kfqEAxa7DfCsCGCgIVkvJlRXDBQ=", "properties": {"ref": "1128", "@spider": "first_cash", "addr:full": "Av. Campo Verde S/N", "addr:city": "Hermosillo", "addr:state": "Sonora", "addr:postcode": "83116", "addr:country": "US", "name": "fcp1128", "phone": "(662) 264-7659", "brand": "First Cash Pawn"}, "geometry": {"type": "Point", "coordinates": [-110.993271, 29.144201]}},
{"type": "Feature", "id": "y_A4WwbL5pJI0_rdeedUh-2Dv_4=", "properties": {"ref": "1103", "@spider": "first_cash", "addr:full": "Solidaridad #728", "addr:city": "Hermosillo", "addr:state": "Sonora", "addr:postcode": "83000", "addr:country": "US", "name": "fcp1103", "phone": "(662) 264-4655", "brand": "First Cash Pawn"}, "geometry": {"type": "Point", "coordinates": [-110.9949426, 29.1368308]}},
{"type": "Feature", "id": "1f6yKaddwg6kplx7aFVfUUbORqU=", "properties": {"ref": "1129", "@spider": "first_cash", "addr:full": "Plaza Benei Loc - 3, 4, 5, 5A", "addr:city": "Hermosillo", "addr:state": "Sonora", "addr:postcode": "83117", "addr:country": "US", "name": "fcp1129", "phone": "(662) 135-3502", "brand": "First Cash Pawn"}, "geometry": {"type": "Point", "coordinates": [-111.0236659, 29.118905]}},
{"type": "Feature", "id": "oRmiWo1LaKDeXRSibsR21Qu9B8s=", "properties": {"ref": "1120", "@spider": "first_cash", "addr:full": "Calle Martin Valencia #644", "addr:city": "Hermosillo", "addr:state": "Sonora", "addr:postcode": "83120", "addr:country": "US", "name": "fcp1120", "phone": "(662) 260-9965", "brand": "First Cash Pawn"}, "geometry": {"type": "Point", "coordinates": [-110.9924256, 29.1220624]}},
{"type": "Feature", "id": "6Gc15J_Lybrmx01C3DG2uAiThhU=", "properties": {"ref": "2426", "@spider": "first_cash", "addr:full": "6351 Desert South, Bldg B, Suite 101", "addr:city": "El Paso", "addr:state": "TX", "addr:postcode": "79932", "addr:country": "US", "name": "fcp2426", "phone": "9152253882", "brand": "Cash America"}, "geometry": {"type": "Point", "coordinates": [-106.5828, 31.8807]}},
{"type": "Feature", "id": "KTVDbwNCwJXh-XA8hDd0DpLFm1k=", "properties": {"ref": "95", "@spider": "first_cash", "addr:full": "4640B Doniphan Drive", "addr:city": "El Paso", "addr:state": "TX", "addr:postcode": "79922", "addr:country": "US", "name": "fcp95", "phone": "9155853813", "brand": "First Cash Pawn"}, "geometry": {"type": "Point", "coordinates": [-106.5732, 31.83207]}},
{"type": "Feature", "id": "LZ5aR6rZTV0bVL1EbjoxmQKAGX8=", "properties": {"ref": "1102", "@spider": "first_cash", "addr:full": "Periferico Norte #528 Esq. Car", "addr:city": "Hermosillo", "addr:state": "Sonora", "addr:postcode": "83130", "addr:country": "US", "name": "fcp1102", "phone": "(662) 260-2152", "brand": "First Cash Pawn"}, "geometry": {"type": "Point", "coordinates": [-110.9842028, 29.1107704]}},
{"type": "Feature", "id": "ZVyUtv9LG42zHiPkzxgUTwfINdo=", "properties": {"ref": "1101", "@spider": "first_cash", "addr:full": "Blvd. Navarrete & Blvd. Solida", "addr:city": "Hermosillo", "addr:state": "Sonora", "addr:postcode": "83130", "addr:country": "US", "name": "fcp1101", "phone": "(662) 260-1423", "brand": "First Cash Pawn"}, "geometry": {"type": "Point", "coordinates": [-110.989717, 29.089092]}},
{"type": "Feature", "id": "ROvViH9PgXNSLfeYcidCbDC3Myc=", "properties": {"ref": "1130", "@spider": "first_cash", "addr:full": "Blvd. Solidaridad Esq. Francis", "addr:city": "Hermosillo", "addr:state": "Sonora", "addr:postcode": "83280", "addr:country": "US", "name": "fcp1130", "phone": "(662) 254-4282", "brand": "First Cash Pawn"}, "geometry": {"type": "Point", "coordinates": [-110.9652136, 29.0567201]}},
{"type": "Feature", "id": "qIwf-6OFFv65y5IiNCEc1ixTiSA=", "properties": {"ref": "1105", "@spider": "first_cash", "addr:full": "Blvd. Solidaridad Esq. Prol. J", "addr:city": "Hermosillo", "addr:state": "Sonora", "addr:postcode": "83290", "addr:country": "US", "name": "fcp1105", "phone": "(662) 254-6827", "brand": "First Cash Pawn"}, "geometry": {"type": "Point", "coordinates": [-110.9595443, 29.0378124]}},
{"type": "Feature", "id": "gnzwESD02iZTgyzYQ6xN-2pKBDA=", "properties": {"ref": "1111", "@spider": "first_cash", "addr:full": "Blvd. Xolotl #241", "addr:city": "Hermosillo", "addr:state": "Sonora", "addr:postcode": "83000", "addr:country": "US", "name": "fcp1111", "phone": "(662) 237-4060", "brand": "First Cash Pawn"}, "geometry": {"type": "Point", "coordinates": [-110.9450694, 29.0235584]}},
{"type": "Feature", "id": "M1wQGvzVqjJURinqc6YsU3AsdQw=", "properties": {"ref": "1127", "@spider": "first_cash", "addr:full": "Cuartel Bacochibampo Y Roca Fu", "addr:city": "Heroica Guaymas", "addr:state": "Sonora", "addr:postcode": "85456", "addr:country": "US", "name": "fcp1127", "phone": "(622) 221-4132", "brand": "First Cash Pawn"}, "geometry": {"type": "Point", "coordinates": [-110.9331889, 27.9450315]}},
{"type": "Feature", "id": "lXUYAiiTgcYkk4BFfVh03dH7wS0=", "properties": {"ref": "1112", "@spider": "first_cash", "addr:full": "Av. Independencia Final Esq. C", "addr:city": "Empalme", "addr:state": "Sonora", "addr:postcode": "85388", "addr:country": "US", "name": "fcp1112", "phone": "(622) 113-1340", "brand": "First Cash Pawn"}, "geometry": {"type": "Point", "coordinates": [-110.8131996, 27.9619783]}},
{"type": "Feature", "id": "f6zSftGoPa5PvvKodHCJVYFKSok=", "properties": {"ref": "1443", "@spider": "first_cash", "addr:full": "Blvd. Benito Juarez #63", "addr:city": "Heroica Guaymas", "addr:state": "Sonora", "addr:postcode": "85440", "addr:country": "US", "name": "fcp1443", "phone": "(662) 224-2740", "brand": "First Cash Pawn"}, "geometry": {"type": "Point", "coordinates": [-110.916402, 27.920784]}},
{"type": "Feature", "id": "4qv0JLlsCITWjVUZbpojOxbs1HI=", "properties": {"ref": "1108", "@spider": "first_cash", "addr:full": "Av. Serdan #52 Ote & Calle 21", "addr:city": "Heroica Guaymas", "addr:state": "Sonora", "addr:postcode": "85400", "addr:country": "US", "name": "fcp1108", "phone": "(622) 222-4115", "brand": "First Cash Pawn"}, "geometry": {"type": "Point", "coordinates": [-110.8904741, 27.9235658]}},
{"type": "Feature", "id": "RTmCp9sLsLck2W6pF-7Fsio6G0o=", "properties": {"ref": "1446", "@spider": "first_cash", "addr:full": "Carretera Al Varadero #1507", "addr:city": "Heroica Guaymas", "addr:state": "Sonora", "addr:postcode": "85480", "addr:country": "US", "name": "fcp1446", "phone": "(622) 224-3287", "brand": "First Cash Pawn"}, "geometry": {"type": "Point", "coordinates": [-110.8945437, 27.896355]}},
{"type": "Feature", "id": "_IsbDPM2xI_fjj7ifP_1YuXIWrQ=", "properties": {"ref": "1126", "@spider": "first_cash", "addr:full": "Calle California Manzana 22", "addr:city": "Ciudad Obreg\u00f3n", "addr:state": "Sonora", "addr:postcode": "85219", "addr:country": "US", "name": "fcp1126", "phone": "(644) 445-2085", "brand": "First Cash Pawn"}, "geometry": {"type": "Point", "coordinates": [-109.945295, 27.520523]}},
{"type": "Feature", "id": "jdpcmHlfi-L9tctobiiODG0QofU=", "properties": {"ref": "1388", "@spider": "first_cash", "addr:full": "Benjamin Hill Lotes 1, 2 Y 3 S", "addr:city": "Ciudad Obreg\u00f3n", "addr:state": "Sonora", "addr:postcode": "85050", "addr:country": "US", "name": "fcp1388", "phone": "(664) 415-2825", "brand": "First Cash Pawn"}, "geometry": {"type": "Point", "coordinates": [-109.918753, 27.512357]}},
{"type": "Feature", "id": "Rec4YfgCDXX7XRYw3frQCA8Zdlw=", "properties": {"ref": "1398", "@spider": "first_cash", "addr:full": "Lote 1 & 2 & Fraccion Noreste", "addr:city": "Ciudad Obreg\u00f3n", "addr:state": "Sonora", "addr:postcode": "85000", "addr:country": "US", "name": "fcp1398", "phone": "(644) 414-4467", "brand": "First Cash Pawn"}, "geometry": {"type": "Point", "coordinates": [-109.9304432, 27.4959942]}},
{"type": "Feature", "id": "BsDV_BF5_1m6UqVIIfXcGy4ciN4=", "properties": {"ref": "1475", "@spider": "first_cash", "addr:full": "Rodolfo Elias Calles Y Paris", "addr:city": "Ciudad Obreg\u00f3n", "addr:state": "Sonora", "addr:postcode": "85150", "addr:country": "US", "name": "fcp1475", "phone": "(644) 104-0615", "brand": "First Cash Pawn"}, "geometry": {"type": "Point", "coordinates": [-109.958122, 27.482771]}},
{"type": "Feature", "id": "vXKXcodYvgzAEx-PVCM5gnEBm8E=", "properties": {"ref": "1114", "@spider": "first_cash", "addr:full": "Rodolfo Elias Calles #1130 Pte", "addr:city": "Ciudad Obreg\u00f3n", "addr:state": "Sonora", "addr:postcode": "85140", "addr:country": "US", "name": "fcp1114", "phone": "(644) 417-9034", "brand": "First Cash Pawn"}, "geometry": {"type": "Point", "coordinates": [-109.9508225, 27.4826942]}},
{"type": "Feature", "id": "c2eLWAhvajpivt5vo81oEvIzI5s=", "properties": {"ref": "3334", "@spider": "first_cash", "addr:full": "Blvd. Rodolfo Elias Calles (Ca", "addr:city": "Ciudad Obreg\u00f3n", "addr:state": "Sonora", "addr:postcode": "85150", "addr:country": "US", "name": "fcp3334", "phone": "(644) 412-9150", "brand": "First Cash Pawn"}, "geometry": {"type": "Point", "coordinates": [-109.9465599, 27.4825578]}},
{"type": "Feature", "id": "oTuo0apT9TolQXz5O2EsQFvqfPI=", "properties": {"ref": "3362", "@spider": "first_cash", "addr:full": "Av. No Reeleccion No. 2402", "addr:city": "Ciudad Obreg\u00f3n", "addr:state": "Sonora", "addr:postcode": "85064", "addr:country": "US", "name": "fcp3362", "phone": "(644) 104-2260", "brand": "First Cash Pawn"}, "geometry": {"type": "Point", "coordinates": [-109.910026, 27.491757]}},
{"type": "Feature", "id": "HkrXrbmvlhDZ80HqA5QjTB06kuU=", "properties": {"ref": "3323", "@spider": "first_cash", "addr:full": "Michoacan #4202, Esq. Av. 300", "addr:city": "Ciudad Obreg\u00f3n", "addr:state": "Sonora", "addr:postcode": "85199", "addr:country": "US", "name": "fcp3323", "phone": "(644) 688-3944", "brand": "First Cash Pawn"}, "geometry": {"type": "Point", "coordinates": [-109.953441, 27.465026]}},
{"type": "Feature", "id": "B5xl-q0AnAf3mrVYdVpQEzpMyec=", "properties": {"ref": "1107", "@spider": "first_cash", "addr:full": "Av. Norman E. Borlaug #7901", "addr:city": "Ciudad Obreg\u00f3n", "addr:state": "Sonora", "addr:postcode": "85095", "addr:country": "US", "name": "fcp1107", "phone": "(644) 412-5665", "brand": "First Cash Pawn"}, "geometry": {"type": "Point", "coordinates": [-109.9327914, 27.4444531]}},
{"type": "Feature", "id": "L7TU88VIPN8ttlRjrA4OjcBJkOU=", "properties": {"ref": "1297", "@spider": "first_cash", "addr:full": "Esq. Sur Este De La Calle Pesq", "addr:city": "Navojoa", "addr:state": "Sonora", "addr:postcode": "85870", "addr:country": "US", "name": "fcp1297", "phone": "(642) 422-7296", "brand": "First Cash Pawn"}, "geometry": {"type": "Point", "coordinates": [-109.4437, 27.072686]}},
{"type": "Feature", "id": "KWB1TzV5fizBLcXchCEjx9N59mY=", "properties": {"ref": "3383", "@spider": "first_cash", "addr:full": "Blvd. Manlio Fabio Beltrones Y", "addr:city": "Navojoa", "addr:state": "Sonora", "addr:postcode": "85870", "addr:country": "US", "name": "fcp3383", "phone": "(642) 688-1890", "brand": "First Cash Pawn"}, "geometry": {"type": "Point", "coordinates": [-109.4518907, 27.0491146]}},
{"type": "Feature", "id": "fWalyCM3Qf7b88P2c4vSWkB9YCc=", "properties": {"ref": "1390", "@spider": "first_cash", "addr:full": "Calle 5 De Mayo, Esq. Calle 16", "addr:city": "Huatabampo", "addr:state": "Sonora", "addr:postcode": "85900", "addr:country": "US", "name": "fcp1390", "phone": "(647) 426-0138", "brand": "First Cash Pawn"}, "geometry": {"type": "Point", "coordinates": [-109.640707, 26.831301]}},
{"type": "Feature", "id": "XfRNrcNxbH_bCTJYs-xFQCmHezw=", "properties": {"ref": "731", "@spider": "first_cash", "addr:full": "Av. 16 De Septiembre #4300", "addr:city": "Ju\u00e1rez", "addr:state": "Chihuahua", "addr:postcode": "32170", "addr:country": "US", "name": "fcp731", "phone": "(656) 615-1525", "brand": "First Cash Pawn"}, "geometry": {"type": "Point", "coordinates": [-106.505489, 31.744176]}},
{"type": "Feature", "id": "T-n8pfQ5FW-DbSAGimFFVI3xN90=", "properties": {"ref": "790", "@spider": "first_cash", "addr:full": "Nahoas #3292", "addr:city": "Ju\u00e1rez", "addr:state": "Chihuahua", "addr:postcode": "32280", "addr:country": "US", "name": "fcp790", "phone": "(656) 566-4524", "brand": "First Cash Pawn"}, "geometry": {"type": "Point", "coordinates": [-106.4806975, 31.6916281]}},
{"type": "Feature", "id": "iYb-pW53wW1AF_eKTMnlUpTXVMU=", "properties": {"ref": "741", "@spider": "first_cash", "addr:full": "Perimetral Carlos Amaya #2810", "addr:city": "Ju\u00e1rez", "addr:state": "Chihuahua", "addr:postcode": "32240", "addr:country": "US", "name": "fcp741", "phone": "(656) 172-3125", "brand": "First Cash Pawn"}, "geometry": {"type": "Point", "coordinates": [-106.4883108, 31.7196306]}},