{"type":"FeatureCollection","features":[{"type": "Feature", "id": "BD3TC-r3L1rLEuzc3LzGm6mRk3Q=", "properties": {"ref": "urgent-care-arundel-mills", "@spider": "medstar", "addr:full": "7698 Dorchester Blvd., Hanover, MD 21076", "addr:country": "US", "name": " MedStar Health: Urgent Care at Arundel Mills", "brand": "Medstar Health", "brand:wikidata": "Q6804943"}, "geometry": {"type": "Point", "coordinates": [-76.7423996, 39.1545925]}},
{"type": "Feature", "id": "r1_tDxL80_PbMFqX15rYHhOr_DI=", "properties": {"ref": "rehabilitation-services-at-medstar-st-marys-hospital", "@spider": "medstar", "addr:full": "25500 Point Lookout Rd.,  Leonardtown, MD 20650", "addr:country": "US", "name": " MedStar Health: Rehabilitation Services at MedStar St. Mary\u2019s Hospital", "phone": "301-475-6062", "brand": "Medstar Health", "brand:wikidata": "Q6804943"}, "geometry": {"type": "Point", "coordinates": [-76.6382144, 38.3020953]}},
{"type": "Feature", "id": "2l2PP5RTfHu6FRBYcMy3y_6cz4s=", "properties": {"ref": "radiology-at-medstar-washington-hospital-center-physician-office-building", "@spider": "medstar", "addr:full": "106 Irving St. NW, Washington, D.C., 20010", "addr:country": "US", "name": " MedStar Health: Radiology at MedStar Washington Hospital Center - Physician Office Building", "phone": "202-877-9729", "brand": "Medstar Health", "brand:wikidata": "Q6804943"}, "geometry": {"type": "Point", "coordinates": [-77.0136729, 38.929543]}},
{"type": "Feature", "id": "17N1H2iPJZ5C3vNhfNowfpod2IM=", "properties": {"ref": "radiology-at-medstar-georgetown-university-hospital", "@spider": "medstar", "addr:full": "3800 Reservoir Rd. NW, Washington, D.C., 20007", "addr:country": "US", "name": " MedStar Health: Radiology at MedStar Georgetown University Hospital", "phone": "202-444-3400", "brand": "Medstar Health", "brand:wikidata": "Q6804943"}, "geometry": {"type": "Point", "coordinates": [-77.0753587, 38.9114004]}},
{"type": "Feature", "id": "AzhGzuHI8UBO5ykvg96F5cW4eCQ=", "properties": {"ref": "primary-care-spring-valley", "@spider": "medstar", "addr:full": "4910 Massachusetts Ave. NW, Washington, DC 20016", "addr:country": "US", "name": " MedStar Health: Primary Care at Spring Valley", "phone": "202-237-0015", "brand": "Medstar Health", "brand:wikidata": "Q6804943"}, "geometry": {"type": "Point", "coordinates": [-77.0980844, 38.9460614]}},
{"type": "Feature", "id": "Bo4DKmo2acv_xE5NfQgOoAdUDqw=", "properties": {"ref": "general-surgery-reston", "@spider": "medstar", "addr:full": "1800 Town Center Dr., Reston, VA 20190", "addr:country": "US", "name": " MedStar Health: General Surgery at Reston", "phone": "703-435-8000", "brand": "Medstar Health", "brand:wikidata": "Q6804943"}, "geometry": {"type": "Point", "coordinates": [-77.3642949, 38.9635216]}},
{"type": "Feature", "id": "Frbeub5dBqvriW0iM3hTqaxohV4=", "properties": {"ref": "cyberknife-center-medstar-franklin-square-medical-center", "@spider": "medstar", "addr:full": "9103 Franklin Square Dr., Baltimore, MD 21237", "addr:country": "US", "name": " MedStar Health: CyberKnife Center at MedStar Franklin Square Medical Center", "phone": "443-777-8822", "brand": "Medstar Health", "brand:wikidata": "Q6804943"}, "geometry": {"type": "Point", "coordinates": [-76.4770922, 39.3501714]}},
{"type": "Feature", "id": "XV80Nhz85PRUhrvRagyCplq5h5I=", "properties": {"ref": "medstar-georgetown-transplant-institute-at-medstar-georgetown-university-hospital", "@spider": "medstar", "addr:full": "3800 Reservoir Rd., Washington, DC 20007", "addr:country": "US", "name": " MedStar Georgetown Transplant Institute at MedStar Georgetown University Hospital", "phone": "202-444-3700", "brand": "Medstar Health", "brand:wikidata": "Q6804943"}, "geometry": {"type": "Point", "coordinates": [-77.0751693, 38.911464]}},
{"type": "Feature", "id": "nGGn8yUCi3YdqRqy6EVV8xlcmpM=", "properties": {"ref": "medstar-georgetown-transplant-institute-at-medstar-franklin-square-medical-center", "@spider": "medstar", "addr:full": "9000 Franklin Square Drive, Baltimore, MD 21237", "addr:country": "US", "name": " MedStar Georgetown Transplant Institute at MedStar Franklin Square Medical Center", "phone": "443-777-2475", "brand": "Medstar Health", "brand:wikidata": "Q6804943"}, "geometry": {"type": "Point", "coordinates": [-76.478264, 39.3514807]}},
{"type": "Feature", "id": "fXFJ-JRu86j3jQiWPJerYHgEaoQ=", "properties": {"ref": "bariatrics-and-weight-management-washington", "@spider": "medstar", "addr:full": "106 Irving St., NW, Washington, D.C., 20010", "addr:country": "US", "name": "MedStar Health: Bariatrics and Weight Management at Washington", "phone": "202-877-3627", "brand": "Medstar Health", "brand:wikidata": "Q6804943"}, "geometry": {"type": "Point", "coordinates": [-77.0136729, 38.929543]}},
{"type": "Feature", "id": "va8c3oZZy-dTUK3msAESBMqcdxU=", "properties": {"ref": "bariatric-surgery-olney", "@spider": "medstar", "addr:full": "18109 Prince Philip Dr., Olney, MD 20832", "addr:country": "US", "name": "MedStar Health: Bariatric Surgery at OIney", "phone": "301-774-8828", "brand": "Medstar Health", "brand:wikidata": "Q6804943"}, "geometry": {"type": "Point", "coordinates": [-77.0543573, 39.153421]}},
{"type": "Feature", "id": "tIR7MiZqNBtskNnGt6AoUAscK94=", "properties": {"ref": "bariatric-surgery-leonardtown", "@spider": "medstar", "addr:full": "25500 Point Lookout Rd., Leonardtown, MD 20650", "addr:country": "US", "name": "MedStar Health: Bariatric Surgery at Leonardtown", "phone": "240-434-4088", "brand": "Medstar Health", "brand:wikidata": "Q6804943"}, "geometry": {"type": "Point", "coordinates": [-76.6382144, 38.3020953]}},
{"type": "Feature", "id": "Q4-9Dtb52vwi8pllhrrJdRrzvTU=", "properties": {"ref": "bariatric-surgery-center-baltimore", "@spider": "medstar", "addr:full": "9105 Franklin Square Dr. , Baltimore, MD 21237", "addr:country": "US", "name": "MedStar Health: Bariatric Surgery Center Baltimore", "phone": "443-777-7900", "brand": "Medstar Health", "brand:wikidata": "Q6804943"}, "geometry": {"type": "Point", "coordinates": [-76.4770922, 39.3501714]}},
{"type": "Feature", "id": "z7dNUVAWAvOjnSr5X_v0lpyP05I=", "properties": {"ref": "audiology-wisconsin-ave", "@spider": "medstar", "addr:full": "2115 Wisconsin Ave., Washington, DC 20007", "addr:country": "US", "name": "MedStar Health: Audiology at Wisconsin Ave.", "phone": "202-944-5300", "brand": "Medstar Health", "brand:wikidata": "Q6804943"}, "geometry": {"type": "Point", "coordinates": [-77.0693659, 38.9189543]}},
{"type": "Feature", "id": "DajorT-VXNexYkWwBSsrTsWD5qs=", "properties": {"ref": "audiology-at-washington", "@spider": "medstar", "addr:full": "3800 Reservoir Rd., Washington, DC 20007", "addr:country": "US", "name": "MedStar Health: Audiology at Washington", "phone": "202-295-0556", "brand": "Medstar Health", "brand:wikidata": "Q6804943"}, "geometry": {"type": "Point", "coordinates": [-77.0753587, 38.9114004]}},
{"type": "Feature", "id": "_PrAgNiR82Sqx0bt7vecg3TJyCA=", "properties": {"ref": "angelos-center-for-lung-diseases-medstar-franklin-square-medical-center", "@spider": "medstar", "addr:full": "9103 Franklin Square Dr., Baltimore, MD 21237", "addr:country": "US", "name": "MedStar Health: Angelos Center for Lung Diseases at MedStar Franklin Square Medical Center", "phone": "443-777-1133", "brand": "Medstar Health", "brand:wikidata": "Q6804943"}, "geometry": {"type": "Point", "coordinates": [-76.4770922, 39.3501714]}},
{"type": "Feature", "id": "Tbsoe9r8CHmxRKKCmAk0wGSvNuE=", "properties": {"ref": "the-center-for-liver-and-pancreas-surgery-medstar-washington-hospital-center", "@spider": "medstar", "addr:full": "106 Irving St., NW, Washington, D.C., 20010", "addr:country": "US", "name": "The Center for Liver and Pancreas Surgery at MedStar Washington Hospital Center", "phone": "202-877-3627", "brand": "Medstar Health", "brand:wikidata": "Q6804943"}, "geometry": {"type": "Point", "coordinates": [-77.0136469, 38.929777]}},
{"type": "Feature", "id": "IWk_XtqW3W3xEaPy5_UZ5eLHkyY=", "properties": {"ref": "the-center-for-liver-and-pancreas-surgery-medstar-georgetown-university-hospital", "@spider": "medstar", "addr:full": "3800 Reservoir Rd., NW, Washington, D.C., 20007", "addr:country": "US", "name": "The Center for Liver and Pancreas Surgery at MedStar Georgetown University Hospital", "phone": "202-444-1062", "brand": "Medstar Health", "brand:wikidata": "Q6804943"}, "geometry": {"type": "Point", "coordinates": [-77.0753587, 38.9114004]}},
{"type": "Feature", "id": "Kr3VCRPXUHYIFjCnd8xSq9e89Ik=", "properties": {"ref": "ear-nose-and-throat-washington-new", "@spider": "medstar", "addr:full": "3800 Reservoir Rd. 1st Fl. Gorman Building, Washington, DC 20007", "addr:country": "US", "name": "Otolaryngology at MedStar Georgetown University Hospital", "phone": "202-295-0556", "brand": "Medstar Health", "brand:wikidata": "Q6804943"}, "geometry": {"type": "Point", "coordinates": [-77.0743894, 38.9105479]}},
{"type": "Feature", "id": "YgPkZN5Dn3jTXME8fR_UAq7iCqA=", "properties": {"ref": "physical-therapy-wheaton", "@spider": "medstar", "addr:full": "2730 University Blvd. W., Wheaton, MD 20902", "addr:country": "US", "name": "NRH Rehabilitation Network at Wheaton", "phone": "301-962-7612", "brand": "Medstar Health", "brand:wikidata": "Q6804943"}, "geometry": {"type": "Point", "coordinates": [-77.0558617, 39.0393153]}},
{"type": "Feature", "id": "H8nEJVhDhY9Wtf8HtiGFIQLEYFM=", "properties": {"ref": "physical-therapy-rockville", "@spider": "medstar", "addr:full": "6001 Montrose Rd., Rockville, MD  20852", "addr:country": "US", "name": "NRH Rehabilitation Network at Rockville", "phone": "301-984-6594", "brand": "Medstar Health", "brand:wikidata": "Q6804943"}, "geometry": {"type": "Point", "coordinates": [-77.1207859, 39.0532446]}},
{"type": "Feature", "id": "aAYDTGioYPVuQcQWPJBBXT--a_c=", "properties": {"ref": "physical-therapy-k-street", "@spider": "medstar", "addr:full": "2021 K St. NW, Washington, D.C., 20006", "addr:country": "US", "name": "NRH Rehabilitation Network at K Street", "phone": "202-466-9719", "brand": "Medstar Health", "brand:wikidata": "Q6804943"}, "geometry": {"type": "Point", "coordinates": [-77.0457423, 38.9029568]}},
{"type": "Feature", "id": "hzcK-hdozpIfa6McrnKogi7feeQ=", "properties": {"ref": "physical-therapy-germantown", "@spider": "medstar", "addr:full": "20500 Seneca Meadows Pkwy., Germantown, MD  20876", "addr:country": "US", "name": "NRH Rehabilitation Network at Germantown", "phone": "301-916-8500", "brand": "Medstar Health", "brand:wikidata": "Q6804943"}, "geometry": {"type": "Point", "coordinates": [-77.2580265, 39.197704]}},
{"type": "Feature", "id": "X3Zowf80SSE05ocxQfmjim8mcYo=", "properties": {"ref": "physical-therapy-chevy-chase-north", "@spider": "medstar", "addr:full": "5530 Wisconsin Ave., Chevy Chase, MD  20815", "addr:country": "US", "name": "NRH Rehabilitation Network at Chevy Chase \u2013 North", "phone": "301-986-4745", "brand": "Medstar Health", "brand:wikidata": "Q6804943"}, "geometry": {"type": "Point", "coordinates": [-77.0875266, 38.9650563]}},
{"type": "Feature", "id": "aObIkUBnucLjcGd5Ee-_VuPp1sc=", "properties": {"ref": "physical-therapy-bethesda", "@spider": "medstar", "addr:full": "6410 Rockledge Dr., Bethesda, MD  20817", "addr:country": "US", "name": "NRH Rehabilitation Network at Bethesda", "phone": "301-581-8030", "brand": "Medstar Health", "brand:wikidata": "Q6804943"}, "geometry": {"type": "Point", "coordinates": [-77.1336856, 39.0239646]}},
{"type": "Feature", "id": "eXkLzbiIrZ0Vo8OcwIx3EkJwDZk=", "properties": {"ref": "physical-therapy-19th-street", "@spider": "medstar", "addr:full": "1145 19th St. NW, Washington, DC, 20036", "addr:country": "US", "name": "NRH Rehabilitation Network at 19th Street", "phone": "202-721-7680", "brand": "Medstar Health", "brand:wikidata": "Q6804943"}, "geometry": {"type": "Point", "coordinates": [-77.0428637, 38.905041]}},
{"type": "Feature", "id": "OAlAjeAWIxJLfj6gps4vsUrgYa8=", "properties": {"ref": "medstar-washington-hospital-center", "@spider": "medstar", "addr:full": "110 Irving St. NW, Washington, DC 20010", "addr:country": "US", "name": "MedStar Washington Hospital Center", "phone": "202-877-7000", "brand": "Medstar Health", "brand:wikidata": "Q6804943"}, "geometry": {"type": "Point", "coordinates": [-77.0144978, 38.9292248]}},
{"type": "Feature", "id": "QFK1e1hPoK6IbJY2z1ZjCGiPkPs=", "properties": {"ref": "medstar-union-memorial-hospital", "@spider": "medstar", "addr:full": "201 E. University Pkwy., Baltimore, MD 21218", "addr:country": "US", "name": "MedStar Union Memorial Hospital", "phone": "410-554-2000", "brand": "Medstar Health", "brand:wikidata": "Q6804943"}, "geometry": {"type": "Point", "coordinates": [-76.6143199, 39.3295973]}},
{"type": "Feature", "id": "emYGfOGyzjy4doVV0VeUgIANMKc=", "properties": {"ref": "medstar-st-marys-hospital", "@spider": "medstar", "addr:full": "25500 Point Lookout Rd., Leonardtown, MD 20650", "addr:country": "US", "name": "MedStar St Mary's Hospital", "phone": "301-475-8981", "brand": "Medstar Health", "brand:wikidata": "Q6804943"}, "geometry": {"type": "Point", "coordinates": [-76.6382144, 38.3020953]}},
{"type": "Feature", "id": "IUUEhtrY3zl4xoaNsr73pAehTIQ=", "properties": {"ref": "medstar-southern-maryland-hospital-center", "@spider": "medstar", "addr:full": "7503 Surratts Rd., Clinton, MD 20735", "addr:country": "US", "name": "MedStar Southern Maryland Hospital Center", "phone": "301-868-8000", "brand": "Medstar Health", "brand:wikidata": "Q6804943"}, "geometry": {"type": "Point", "coordinates": [-76.8757571, 38.7482634]}},
{"type": "Feature", "id": "GshmbwEMg58lvo9fhAEOti4FxPY=", "properties": {"ref": "shah-group-wildewood-medical-center-cancer-recovery-center", "@spider": "medstar", "addr:full": "23415 Three Notch Road, California, MD 20619", "addr:country": "US", "name": "MedStar Shah Medical Group at Wildewood Medical Center", "phone": "301-373-7800", "brand": "Medstar Health", "brand:wikidata": "Q6804943"}, "geometry": {"type": "Point", "coordinates": [-76.5341391, 38.3099204]}},
{"type": "Feature", "id": "YUGvu5cXDqoXPeZ_U1H82Fgo5PQ=", "properties": {"ref": "shah-group-health-care-associates-waldorf-md", "@spider": "medstar", "addr:full": "10 St. Patrick's Drive, Waldorf, MD 20603", "addr:country": "US", "name": "MedStar Shah Medical Group at Waldorf", "phone": "301-705-7870", "brand": "Medstar Health", "brand:wikidata": "Q6804943"}, "geometry": {"type": "Point", "coordinates": [-76.920596, 38.6180037]}},
{"type": "Feature", "id": "lOkGGQykLCuMG5OQtgAqt6aEsP0=", "properties": {"ref": "shah-group-st-marys-medical-center-charlotte-hall", "@spider": "medstar", "addr:full": "37767 Market Dr., 2nd flr., Charlotte Hall, Md 20622", "addr:country": "US", "name": "MedStar Shah Medical Group at St. Mary's Medical Center in Charlotte Hall", "phone": "301-884-7322", "brand": "Medstar Health", "brand:wikidata": "Q6804943"}, "geometry": {"type": "Point", "coordinates": [-76.7721543, 38.4946028]}},
{"type": "Feature", "id": "De3fpN4m1IZS-pgDrYJs9KAhxGs=", "properties": {"ref": "shah-group-st-marys-medical-arts-building", "@spider": "medstar", "addr:full": "22650 Cedar Lane Court, Leonardtown,  Maryland 20650", "addr:country": "US", "name": "MedStar Shah Medical Group at St. Mary's Medical Arts Building", "phone": "301-475-5021", "brand": "Medstar Health", "brand:wikidata": "Q6804943"}, "geometry": {"type": "Point", "coordinates": [-76.6247095, 38.2898658]}},
{"type": "Feature", "id": "B9UzV-LpLYPATKSss57XcRDiQQQ=", "properties": {"ref": "shah-group-shanti-medical-center", "@spider": "medstar", "addr:full": "26840 Point Lookout Rd., Leonardtown, MD 20650", "addr:country": "US", "name": "MedStar Shah Medical Group at Shanti Medical Center", "phone": "301-475-8885", "brand": "Medstar Health", "brand:wikidata": "Q6804943"}, "geometry": {"type": "Point", "coordinates": [-76.6725836, 38.3220512]}},
{"type": "Feature", "id": "rrcGT7GA6QKftCMSDM2Is3ZZFu0=", "properties": {"ref": "shah-group-prince-frederick-cardiology-center", "@spider": "medstar", "addr:full": "501 Main St., Prince Fredrick, MD 20678", "addr:country": "US", "name": "MedStar Shah Medical Group at Prince Frederick Cardiology Center", "phone": "410-535-4333", "brand": "Medstar Health", "brand:wikidata": "Q6804943"}, "geometry": {"type": "Point", "coordinates": [-76.5803614, 38.5366958]}},
{"type": "Feature", "id": "G5uL_xETSzQdZFr9mwTCgrWcNiU=", "properties": {"ref": "shah-group-philip-j-bean-medical-center", "@spider": "medstar", "addr:full": "24035 Three Notch Rd. , Hollywood,  MD 20636 ", "addr:country": "US", "name": "MedStar Shah Medical Group at Philip J. Bean Medical Center", "phone": "301-373-7900", "brand": "Medstar Health", "brand:wikidata": "Q6804943"}, "geometry": {"type": "Point", "coordinates": [-76.5524034, 38.3266493]}},
{"type": "Feature", "id": "qRrERcT1AKnlgV66QzVLfoeB4dU=", "properties": {"ref": "shah-group-oxon-hill-medical-center", "@spider": "medstar", "addr:full": "6196 Oxon Hill Rd., Oxon Hill, MD 20745", "addr:country": "US", "name": "MedStar Shah Medical Group at Oxon Hill Medical Center", "phone": "301-292-7270", "brand": "Medstar Health", "brand:wikidata": "Q6804943"}, "geometry": {"type": "Point", "coordinates": [-76.9827007, 38.8035133]}},
{"type": "Feature", "id": "nFHWC_AUmsCLFeSIWzLHzeRcTe0=", "properties": {"ref": "shah-group-mechanicsville-medical-center", "@spider": "medstar", "addr:full": "28030 Old Village Road, Mechanicsville, MD 20659", "addr:country": "US", "name": "MedStar Shah Medical Group at Mechanicsville Medical Center", "phone": "301-884-4666", "brand": "Medstar Health", "brand:wikidata": "Q6804943"}, "geometry": {"type": "Point", "coordinates": [-76.7397168, 38.4403647]}},
{"type": "Feature", "id": "U5U8H2DegCGX_BDffkqKovdUI7A=", "properties": {"ref": "shah-group-lusby-medical-center", "@spider": "medstar", "addr:full": "11910 HG Trueman Rd, Lusby, MD 20657", "addr:country": "US", "name": "MedStar Shah Medical Group at Lusby Medical Center", "phone": "410-326-6391", "brand": "Medstar Health", "brand:wikidata": "Q6804943"}, "geometry": {"type": "Point", "coordinates": [-76.4444008, 38.3701902]}},
{"type": "Feature", "id": "CLghTBM8GSsyOsMPOznvjZmRe44=", "properties": {"ref": "shah-group-lakeside-medical-center", "@spider": "medstar", "addr:full": "10403 Hospital Dr., Building B, Clinton, MD 20735", "addr:country": "US", "name": "MedStar Shah Medical Group at Lakeside Medical Center", "phone": "301-531-9190", "brand": "Medstar Health", "brand:wikidata": "Q6804943"}, "geometry": {"type": "Point", "coordinates": [-76.8777262, 38.745472]}},
{"type": "Feature", "id": "mztVbe-KtHgbqvV-ukJE-Q4c7uQ=", "properties": {"ref": "shah-group-j-patrick-jarboe-medical-center", "@spider": "medstar", "addr:full": "22590 Shady Court, California, MD 20619", "addr:country": "US", "name": "MedStar Shah Medical Group at J. Patrick Jarboe Medical Center", "phone": "301-737-0500", "brand": "Medstar Health", "brand:wikidata": "Q6804943"}, "geometry": {"type": "Point", "coordinates": [-76.4798501, 38.2860461]}},
{"type": "Feature", "id": "Pv5HMeNrf4DlCZfFsW9cEGmXcqs=", "properties": {"ref": "fort-washington-medical-center", "@spider": "medstar", "addr:full": "11701 Livingston Rd., Fort Washington, MD 20744", "addr:country": "US", "name": "MedStar Shah Medical Group at Fort Washington Medical Center", "phone": "301-292-7270", "brand": "Medstar Health", "brand:wikidata": "Q6804943"}, "geometry": {"type": "Point", "coordinates": [-76.9921175, 38.7284763]}},
{"type": "Feature", "id": "qV7k3F6vVtAfGvp13RN8ZoZ3Nvs=", "properties": {"ref": "shah-group-health-care-associates-fort-washington-annex", "@spider": "medstar", "addr:full": "950 E Swan Creek Rd., Fort Washington, MD 20744", "addr:country": "US", "name": "MedStar Shah Medical Group at Fort Washington Annex", "phone": "301-292-7270", "brand": "Medstar Health", "brand:wikidata": "Q6804943"}, "geometry": {"type": "Point", "coordinates": [-76.9936249, 38.7262121]}},
{"type": "Feature", "id": "W2JFwmC5kMhRtgEIScgPDIdFG6Q=", "properties": {"ref": "shah-group-fort-washington-medical-group", "@spider": "medstar", "addr:full": "900 E Swan Creek Road, , Fort Washington, MD 20744", "addr:country": "US", "name": "MedStar Shah Medical Group at Fort Washington", "phone": " 301-292-1590", "brand": "Medstar Health", "brand:wikidata": "Q6804943"}, "geometry": {"type": "Point", "coordinates": [-76.9972464, 38.7237646]}},
{"type": "Feature", "id": "O2XtB2Lqxn4abVxBjDAZ4142ONM=", "properties": {"ref": "shah-group-crofton-medical-center", "@spider": "medstar", "addr:full": "2200 Defense Highway, Crofton, MD 21114", "addr:country": "US", "name": "MedStar Shah Medical Group at Crofton Medical Center", "phone": "410-721-5280", "brand": "Medstar Health", "brand:wikidata": "Q6804943"}, "geometry": {"type": "Point", "coordinates": [-76.7005507, 38.9926757]}},
{"type": "Feature", "id": "3U1C7JQgVQEKfShaqMOx100GwQo=", "properties": {"ref": "shah-group-calvert-medical-arts-center", "@spider": "medstar", "addr:full": "130 Hospital Road, Prince Frederick, MD 20678", "addr:country": "US", "name": "MedStar Shah Medical Group at Calvert Arts Medical Center", "phone": "410-535-4333", "brand": "Medstar Health", "brand:wikidata": "Q6804943"}, "geometry": {"type": "Point", "coordinates": [-76.5978542, 38.5614376]}},
{"type": "Feature", "id": "61y3dzIlszLQqQM3FqSC0d_6dCE=", "properties": {"ref": "shah-group-brandywine-medical-center", "@spider": "medstar", "addr:full": "7704 Matapeake Business Dr, Brandywine, MD 20613", "addr:country": "US", "name": "MedStar Shah Medical Group at Brandywine Medical Center", "phone": "240-244-5151", "brand": "Medstar Health", "brand:wikidata": "Q6804943"}, "geometry": {"type": "Point", "coordinates": [-76.8721862, 38.6770643]}},
{"type": "Feature", "id": "X3NSbK7zPeSuTkB6crvz5uszQ9c=", "properties": {"ref": "shah-group-annapolis-endocrinology-medical-center", "@spider": "medstar", "addr:full": "108 Forbes Street, 2nd floor, Annapolis, MD 21401", "addr:country": "US", "name": "MedStar Shah Medical Group at Annapolis Endocrinology Medical Center", "phone": "410-571-7880", "brand": "Medstar Health", "brand:wikidata": "Q6804943"}, "geometry": {"type": "Point", "coordinates": [-76.504514, 38.988894]}},
{"type": "Feature", "id": "ZjisvmVKCTcADZCd5J381YyT_yc=", "properties": {"ref": "medstar-pituitary-center", "@spider": "medstar", "addr:full": "110 Irving Street NW., Washington, D.C., 20010", "addr:country": "US", "name": "MedStar Pituitary Center", "phone": "844-748-8482", "brand": "Medstar Health", "brand:wikidata": "Q6804943"}, "geometry": {"type": "Point", "coordinates": [-77.0144978, 38.9292248]}},
{"type": "Feature", "id": "-A4ehOa1f7xThlzEb-huqkwSNIo=", "properties": {"ref": "medstar-national-rehabilitation-hospital", "@spider": "medstar", "addr:full": "102 Irving St. NW, Washington, DC, 20010", "addr:country": "US", "name": "MedStar National Rehabilitation Hospital", "phone": "202-877-1000", "brand": "Medstar Health", "brand:wikidata": "Q6804943"}, "geometry": {"type": "Point", "coordinates": [-77.012567, 38.9302554]}},
{"type": "Feature", "id": "DbNB47_qTv5Yx2sS6nxDxw1_NYQ=", "properties": {"ref": "medstar-montgomery-medical-center", "@spider": "medstar", "addr:full": "18101 Prince Philip Dr., Olney, MD 20832", "addr:country": "US", "name": "MedStar Montgomery Medical Center", "phone": "301-774-8882", "brand": "Medstar Health", "brand:wikidata": "Q6804943"}, "geometry": {"type": "Point", "coordinates": [-77.0547374, 39.1540614]}},
{"type": "Feature", "id": "L9EQlcB36nuy3VsUGsVxyPEK2Hw=", "properties": {"ref": "medstar-good-samaritan-wound-healing-center", "@spider": "medstar", "addr:full": "5601 Loch Raven Blvd. ,  Baltimore, MD 21239", "addr:country": "US", "name": "MedStar Health: Wound Care at MedStar Good Samaritan Hospital", "phone": "443-444-4275", "brand": "Medstar Health", "brand:wikidata": "Q6804943"}, "geometry": {"type": "Point", "coordinates": [-76.5866851, 39.3581093]}},
{"type": "Feature", "id": "2gWrS-bRCzgIeFGNovRSYRM5QLw=", "properties": {"ref": "medstar-georgetown-university-hospital-center-for-wound-healing", "@spider": "medstar", "addr:full": "3800 Reservoir Rd. NW, Washington, D.C., 20007", "addr:country": "US", "name": "MedStar Health: Wound Care at MedStar Georgetown University Hospital", "phone": "202-444-9686", "brand": "Medstar Health", "brand:wikidata": "Q6804943"}, "geometry": {"type": "Point", "coordinates": [-77.0751693, 38.911464]}},
{"type": "Feature", "id": "_ZEtFymBTte_Q0Wh-amyOBIEXZI=", "properties": {"ref": "womens-specialty-center-at-leonardtown", "@spider": "medstar", "addr:full": "40900 Merchants Lane, Leonardtown, MD 20650", "addr:country": "US", "name": "MedStar Health: Women\u2019s Specialty Center at Leonardtown", "phone": "301-997-1315", "brand": "Medstar Health", "brand:wikidata": "Q6804943"}, "geometry": {"type": "Point", "coordinates": [-76.6611695, 38.3063755]}},
{"type": "Feature", "id": "uoNj1o38S4fHt2sA0OS3gJbCFQ4=", "properties": {"ref": "womens-health-at-medstar-montgomery-medical-center", "@spider": "medstar", "addr:full": "18101 Prince Philip Dr., Olney, MD 20832", "addr:country": "US", "name": "MedStar Health: Women\u2019s Health at MedStar Montgomery Medical Center", "phone": "301-570-7424", "brand": "Medstar Health", "brand:wikidata": "Q6804943"}, "geometry": {"type": "Point", "coordinates": [-77.0547374, 39.1540614]}},
{"type": "Feature", "id": "Wi92yuNTAY4S9Mp467vFYEVY9oE=", "properties": {"ref": "medstar-womens-health-obgyn-waldorf", "@spider": "medstar", "addr:full": "7501 Surratts Rd., Clinton, MD 20735", "addr:country": "US", "name": "MedStar Health: Women's Health at Waldorf", "phone": "301-877-7200", "brand": "Medstar Health", "brand:wikidata": "Q6804943"}, "geometry": {"type": "Point", "coordinates": [-76.8758109, 38.7491301]}},
{"type": "Feature", "id": "IDi21INOVJWnQe6psvit8bToGBs=", "properties": {"ref": "womens-health-at-waldorf", "@spider": "medstar", "addr:full": "3500 Old Washington Rd., Waldorf, MD 20602", "addr:country": "US", "name": "MedStar Health: Women's Health at Waldorf", "phone": "301-645-8867", "brand": "Medstar Health", "brand:wikidata": "Q6804943"}, "geometry": {"type": "Point", "coordinates": [-76.9155533, 38.6165458]}},
{"type": "Feature", "id": "kiWxEINshduRGrpiRXpHjHoSAtk=", "properties": {"ref": "womens-health-at-silver-spring", "@spider": "medstar", "addr:full": "2415 Musgrove Rd., Silver Spring , MD 20904", "addr:country": "US", "name": "MedStar Health: Women's Health at Silver Spring", "phone": "301-384-4788", "brand": "Medstar Health", "brand:wikidata": "Q6804943"}, "geometry": {"type": "Point", "coordinates": [-76.9604803, 39.067461]}},
{"type": "Feature", "id": "3Ql_hgAy9_V6mSZd7p8__WRDvLA=", "properties": {"ref": "womens-health-at-perry-hall", "@spider": "medstar", "addr:full": "5009 Honeygo Center Dr., Perry Hall, MD 21128", "addr:country": "US", "name": "MedStar Health: Women's Health at Perry Hall", "phone": "443-725-2140", "brand": "Medstar Health", "brand:wikidata": "Q6804943"}, "geometry": {"type": "Point", "coordinates": [-76.4421185, 39.4046649]}},
{"type": "Feature", "id": "fzwMWheTRWjdvfKioHQmxf7MBXc=", "properties": {"ref": "womens-health-at-pasadena", "@spider": "medstar", "addr:full": "8026 Ritchie Highway, Pasadena, MD  21122", "addr:country": "US", "name": "MedStar Health: Women's Health at Pasadena", "phone": "410-590-8844", "brand": "Medstar Health", "brand:wikidata": "Q6804943"}, "geometry": {"type": "Point", "coordinates": [-76.5943492, 39.1279825]}},
{"type": "Feature", "id": "fAqcUCehQxirTBb5ZOvUjh85hkw=", "properties": {"ref": "womens-health-at-medstar-harbor-hospital", "@spider": "medstar", "addr:full": "3001 S. Hanover St., Baltimore, MD  21225", "addr:country": "US", "name": "MedStar Health: Women's Health at MedStar Harbor Hospital", "phone": "410-354-0800", "brand": "Medstar Health", "brand:wikidata": "Q6804943"}, "geometry": {"type": "Point", "coordinates": [-76.614662, 39.2517829]}},
{"type": "Feature", "id": "tTSlwglj8vu3efZnMy0m8HEu3XU=", "properties": {"ref": "womens-health-at-medstar-georgetown-university-hospital", "@spider": "medstar", "addr:full": "3800 Reservoir Road, NW, Washington, DC 20007", "addr:country": "US", "name": "MedStar Health: Women's Health at MedStar Georgetown University Hospital", "phone": "202-295-0544", "brand": "Medstar Health", "brand:wikidata": "Q6804943"}, "geometry": {"type": "Point", "coordinates": [-77.0752992, 38.9120817]}},
{"type": "Feature", "id": "BXEFERNnFM_bNHUQsbIk9I9-B5Q=", "properties": {"ref": "womens-health-at-medstar-franklin-square-medical-center", "@spider": "medstar", "addr:full": "9103 Franklin Square Dr., Baltimore, MD 21237", "addr:country": "US", "name": "MedStar Health: Women's Health at MedStar Franklin Square Medical Center", "phone": "443-777-8005", "brand": "Medstar Health", "brand:wikidata": "Q6804943"}, "geometry": {"type": "Point", "coordinates": [-76.4770922, 39.3501714]}},
{"type": "Feature", "id": "32c29ZnmkyKkwISg5hlAsxOKmuQ=", "properties": {"ref": "womens-health-at-leonardtown", "@spider": "medstar", "addr:full": "41680 Miss Bessie Dr., Leonardtown, MD 20650", "addr:country": "US", "name": "MedStar Health: Women's Health at Leonardtown", "phone": "301-997-1788", "brand": "Medstar Health", "brand:wikidata": "Q6804943"}, "geometry": {"type": "Point", "coordinates": [-76.6348634, 38.302489]}},
{"type": "Feature", "id": "0kylHMHcy30edvIBqxj03WH3F2A=", "properties": {"ref": "womens-health-at-lafayette-center", "@spider": "medstar", "addr:full": "1133 21st St., NW, Washington, D.C. 20036", "addr:country": "US", "name": "MedStar Health: Women's Health at Lafayette Centre", "phone": "202-416-2000", "brand": "Medstar Health", "brand:wikidata": "Q6804943"}, "geometry": {"type": "Point", "coordinates": [-77.0461742, 38.9045049]}},
{"type": "Feature", "id": "YmjC351TtnepRHW9cEgRVgJLxdU=", "properties": {"ref": "womens-health-at-gaithersburg", "@spider": "medstar", "addr:full": "501 North Frederick Ave., Gaithersburg, MD 20877", "addr:country": "US", "name": "MedStar Health: Women's Health at Gaithersburg", "phone": "301-926-3099", "brand": "Medstar Health", "brand:wikidata": "Q6804943"}, "geometry": {"type": "Point", "coordinates": [-77.2091682, 39.1510226]}},
{"type": "Feature", "id": "xA-YSkGK098aVGRuCgkV4Q4Mn-0=", "properties": {"ref": "womens-health-at-dundalk", "@spider": "medstar", "addr:full": "1576 Merritt Boulevard, Baltimore, MD 21222", "addr:country": "US", "name": "MedStar Health: Women's Health at Dundalk", "phone": "410-650-2191", "brand": "Medstar Health", "brand:wikidata": "Q6804943"}, "geometry": {"type": "Point", "coordinates": [-76.5040258, 39.2741931]}},
{"type": "Feature", "id": "w_QRnWwY73gxvIcx-GQgg5POHHA=", "properties": {"ref": "medstar-womens-health-clinton", "@spider": "medstar", "addr:full": "7501 Surratts Rd, Clinton, MD 20735", "addr:country": "US", "name": "MedStar Health: Women's Health at Clinton", "phone": "301-877-7200", "brand": "Medstar Health", "brand:wikidata": "Q6804943"}, "geometry": {"type": "Point", "coordinates": [-76.8758109, 38.7491301]}},
{"type": "Feature", "id": "kGTsPGGzeP_Qo3VhFmE2gAJ-5w4=", "properties": {"ref": "womens-health-at-bel-air", "@spider": "medstar", "addr:full": "12 MedStar Blvd., Bel Air, MD 21015", "addr:country": "US", "name": "MedStar Health: Women's Health at Bel Air", "phone": "410-877-8088", "brand": "Medstar Health", "brand:wikidata": "Q6804943"}, "geometry": {"type": "Point", "coordinates": [-76.3251945, 39.5030048]}},
{"type": "Feature", "id": "8mESsEAe46YP9L0z8mblTR2iEfA=", "properties": {"ref": "urology-at-medstar-washington-hospital-center", "@spider": "medstar", "addr:full": "106 Irving St., NW, Washington, D.C., 20010", "addr:country": "US", "name": "MedStar Health: Urology at MedStar Washington Hospital Center", "phone": "202-877-7011 ", "brand": "Medstar Health", "brand:wikidata": "Q6804943"}, "geometry": {"type": "Point", "coordinates": [-77.0136729, 38.929543]}},
{"type": "Feature", "id": "xpMStVkv5lOLbP3-oRVXBiJBP8g=", "properties": {"ref": "urology-at-medstar-georgetown-university-hospital", "@spider": "medstar", "addr:full": "3800 Reservoir Road, NW, Washington, DC 20007", "addr:country": "US", "name": "MedStar Health: Urology at MedStar Georgetown University Hospital ", "phone": "202-444-4922", "brand": "Medstar Health", "brand:wikidata": "Q6804943"}, "geometry": {"type": "Point", "coordinates": [-77.0752992, 38.9120817]}},
{"type": "Feature", "id": "Zt-O9h4SXU5o_4C04ugdErMnoMo=", "properties": {"ref": "urology-at-medstar-franklin-square-medical-center", "@spider": "medstar", "addr:full": "6820 Hospital Dr., Baltimore, MD  21237", "addr:country": "US", "name": "MedStar Health: Urology at MedStar Franklin Square Medical Center", "phone": "410-248-8316", "brand": "Medstar Health", "brand:wikidata": "Q6804943"}, "geometry": {"type": "Point", "coordinates": [-76.474609, 39.3477693]}},
{"type": "Feature", "id": "0iwVsKGilhw5c7KFzCPMEA65Mbs=", "properties": {"ref": "urology-at-lafayette-centre", "@spider": "medstar", "addr:full": "1133 21st St., NW, Washington, D.C., 20036", "addr:country": "US", "name": "MedStar Health: Urology at Lafayette Centre ", "phone": "202-416-2000", "brand": "Medstar Health", "brand:wikidata": "Q6804943"}, "geometry": {"type": "Point", "coordinates": [-77.0461742, 38.9045049]}},
{"type": "Feature", "id": "dj2_vjqPrXMFr2BOd7gut7ers0U=", "properties": {"ref": "urology-at-chevy-chase", "@spider": "medstar", "addr:full": "5530 Wisconsin Ave., Chevy Chase, MD 20815", "addr:country": "US", "name": "MedStar Health: Urology at Chevy Chase", "phone": "301-652-7872", "brand": "Medstar Health", "brand:wikidata": "Q6804943"}, "geometry": {"type": "Point", "coordinates": [-77.0875266, 38.9650563]}},
{"type": "Feature", "id": "lNHyl8qtyPnBZur5nI3SCBxT31M=", "properties": {"ref": "urogynecology-at-rockville", "@spider": "medstar", "addr:full": "5410 Edson Lane, Rockville, MD 20852", "addr:country": "US", "name": "MedStar Health: Urogynecology at Rockville", "phone": "301-984-1870", "brand": "Medstar Health", "brand:wikidata": "Q6804943"}, "geometry": {"type": "Point", "coordinates": [-77.1108517, 39.0396776]}},
{"type": "Feature", "id": "OETg9R2d4lIGrqOFRG7PFpcPi3s=", "properties": {"ref": "urogynecology-at-medstar-washington-hospital-center", "@spider": "medstar", "addr:full": "106 Irving Street, NW, Washington, DC 20010", "addr:country": "US", "name": "MedStar Health: Urogynecology at MedStar Washington Hospital Center", "phone": "202-877-6526", "brand": "Medstar Health", "brand:wikidata": "Q6804943"}, "geometry": {"type": "Point", "coordinates": [-77.0133897, 38.9298762]}},
{"type": "Feature", "id": "4PaZrKX2lThPPxBLp2fUKYc2eWc=", "properties": {"ref": "urgent-care-waldorf-shoppers-world", "@spider": "medstar", "addr:full": "3350 Crain Hwy,, Waldorf,  MD  20603", "addr:country": "US", "name": "MedStar Health: Urgent Care in Waldorf at Shoppers World", "brand": "Medstar Health", "brand:wikidata": "Q6804943"}, "geometry": {"type": "Point", "coordinates": [-76.9163637, 38.6197805]}},
{"type": "Feature", "id": "qypoxLGhJvGFGlIQa0B2Ns2YMlk=", "properties": {"ref": "urgent-care-waldorf", "@spider": "medstar", "addr:full": "3064 Waldorf Market Place, Waldorf, MD 20603", "addr:country": "US", "name": "MedStar Health: Urgent Care in Waldorf at Festival Way", "brand": "Medstar Health", "brand:wikidata": "Q6804943"}, "geometry": {"type": "Point", "coordinates": [-76.9173541, 38.6291452]}},
{"type": "Feature", "id": "UUB4jBpp8l1xSgfbRN45sKlVncU=", "properties": {"ref": "urgent-care-towson-hillside-avenue", "@spider": "medstar", "addr:full": "7825 York Rd., Towson,  MD  21204", "addr:country": "US", "name": "MedStar Health: Urgent Care in Towson at Hillside Avenue", "brand": "Medstar Health", "brand:wikidata": "Q6804943"}, "geometry": {"type": "Point", "coordinates": [-76.6046927, 39.3909469]}},
{"type": "Feature", "id": "wTb1lzPVXWH2F7BVxmHHGTSUjRs=", "properties": {"ref": "urgent-care-towson-at-anneslie", "@spider": "medstar", "addr:full": "6317 York Rd., Towson, MD 21212", "addr:country": "US", "name": "MedStar Health: Urgent Care in Towson at Anneslie", "brand": "Medstar Health", "brand:wikidata": "Q6804943"}, "geometry": {"type": "Point", "coordinates": [-76.6085744, 39.372343]}},
{"type": "Feature", "id": "uEGXeC15p2JNxlRCbrXVsGhDYUU=", "properties": {"ref": "urgent-care-gaithersburg", "@spider": "medstar", "addr:full": "12111 Darnestown Rd., Gaithersburg, MD  20878", "addr:country": "US", "name": "MedStar Health: Urgent Care in Gaithersburg at Darnestown Road", "brand": "Medstar Health", "brand:wikidata": "Q6804943"}, "geometry": {"type": "Point", "coordinates": [-77.2507206, 39.1181638]}},
{"type": "Feature", "id": "9zFhDIEXeGlpuGBgxgE38pwGYts=", "properties": {"ref": "urgent-care-wheaton", "@spider": "medstar", "addr:full": "11915 Georgia Ave,, Wheaton, MD  20902", "addr:country": "US", "name": "MedStar Health: Urgent Care at Wheaton", "brand": "Medstar Health", "brand:wikidata": "Q6804943"}, "geometry": {"type": "Point", "coordinates": [-77.0507428, 39.051815]}},
{"type": "Feature", "id": "RrIc5sLNtxFv9SqEbc-mI3XZ78A=", "properties": {"ref": "urgent-care-waugh-chapel", "@spider": "medstar", "addr:full": "2401 Brandermill Blvd., Gambrills, MD 21054", "addr:country": "US", "name": "MedStar Health: Urgent Care at Waugh Chapel", "brand": "Medstar Health", "brand:wikidata": "Q6804943"}, "geometry": {"type": "Point", "coordinates": [-76.6814706, 39.0349358]}},
{"type": "Feature", "id": "vxeWF1W-CQrY5cr4lVj7819qIfs=", "properties": {"ref": "urgent-care-silver-spring", "@spider": "medstar", "addr:full": "20 University Boulevard East , Silver Spring, MD 20901", "addr:country": "US", "name": "MedStar Health: Urgent Care at Silver Spring", "brand": "Medstar Health", "brand:wikidata": "Q6804943"}, "geometry": {"type": "Point", "coordinates": [-77.0117198, 39.0199993]}},
{"type": "Feature", "id": "SlqmR_dNnxAGrcw-9NAkQjKaxIQ=", "properties": {"ref": "urgent-care-potomac", "@spider": "medstar", "addr:full": "350 Fortune Terrace, Potomac, MD 20854", "addr:country": "US", "name": "MedStar Health: Urgent Care at Potomac", "brand": "Medstar Health", "brand:wikidata": "Q6804943"}, "geometry": {"type": "Point", "coordinates": [-77.1583575, 39.0617663]}},
{"type": "Feature", "id": "qlupVgCmsIuO89l6wI7ymSzGZn4=", "properties": {"ref": "urgent-care-pikesville", "@spider": "medstar", "addr:full": "1807 Reisterstown Road, Pikesville, MD 21208", "addr:country": "US", "name": "MedStar Health: Urgent Care at Pikesville", "brand": "Medstar Health", "brand:wikidata": "Q6804943"}, "geometry": {"type": "Point", "coordinates": [-76.7360479, 39.3871484]}},
{"type": "Feature", "id": "hnaaMNHLNn3mF7Qr__0LHWNxxew=", "properties": {"ref": "urgent-care-perry-hall", "@spider": "medstar", "addr:full": "8605 Ridgely's Choice Dr., Perry Hall, MD 21236", "addr:country": "US", "name": "MedStar Health: Urgent Care at Perry Hall", "brand": "Medstar Health", "brand:wikidata": "Q6804943"}, "geometry": {"type": "Point", "coordinates": [-76.4922065, 39.3892859]}},
{"type": "Feature", "id": "4bbRoCxWR7bybv_cvFskE0cfxJI=", "properties": {"ref": "urgent-care-pasadena", "@spider": "medstar", "addr:full": "8125-H Ritchie Highway, Pasadena, MD 21122", "addr:country": "US", "name": "MedStar Health: Urgent Care at Pasadena", "brand": "Medstar Health", "brand:wikidata": "Q6804943"}, "geometry": {"type": "Point", "coordinates": [-76.587562, 39.1248008]}},
{"type": "Feature", "id": "ELM_ci972u3bZjwzfJzQVWrpMbA=", "properties": {"ref": "urgent-care-la-plata", "@spider": "medstar", "addr:full": "500 Charles St., La Plata,  MD  20646", "addr:country": "US", "name": "MedStar Health: Urgent Care at La Plata", "brand": "Medstar Health", "brand:wikidata": "Q6804943"}, "geometry": {"type": "Point", "coordinates": [-76.9754224, 38.529521]}},
{"type": "Feature", "id": "0bXndZtD8kIe0q5l8NOa6UNl-tY=", "properties": {"ref": "urgent-care-hyattsville", "@spider": "medstar", "addr:full": "6401 America Blvd., Hyattsville, MD 20782", "addr:country": "US", "name": "MedStar Health: Urgent Care at Hyattsville", "brand": "Medstar Health", "brand:wikidata": "Q6804943"}, "geometry": {"type": "Point", "coordinates": [-76.9520178, 38.9673697]}},
{"type": "Feature", "id": "qAkq6gGd1w5L95t8qp3rxhXb2Ow=", "properties": {"ref": "urgent-care-federal-hill", "@spider": "medstar", "addr:full": "1420 Key Hwy,, Baltimore, MD 21230", "addr:country": "US", "name": "MedStar Health: Urgent Care at Federal Hill", "brand": "Medstar Health", "brand:wikidata": "Q6804943"}, "geometry": {"type": "Point", "coordinates": [-76.6013751, 39.2728427]}},
{"type": "Feature", "id": "tZm2xR1hXz1frEI4unSkbVKmwWo=", "properties": {"ref": "urgent-care-chevy-chase", "@spider": "medstar", "addr:full": "5454 Wisconsin Ave., Chevy Chase, MD 20815", "addr:country": "US", "name": "MedStar Health: Urgent Care at Chevy Chase", "brand": "Medstar Health", "brand:wikidata": "Q6804943"}, "geometry": {"type": "Point", "coordinates": [-77.0872842, 38.9626435]}},
{"type": "Feature", "id": "Qu1jhaCoUEDsQLFD3Z1Vl4AtxaA=", "properties": {"ref": "urgent-care-charlotte-hall", "@spider": "medstar", "addr:full": "37767 Market Dr., Charlotte Hall, MD 20622", "addr:country": "US", "name": "MedStar Health: Urgent Care at Charlotte Hall", "brand": "Medstar Health", "brand:wikidata": "Q6804943"}, "geometry": {"type": "Point", "coordinates": [-76.7721543, 38.4946028]}},
{"type": "Feature", "id": "Xy0bdJM7CAF-yX6k8y4FgGv366M=", "properties": {"ref": "urgent-care-capitol-hill", "@spider": "medstar", "addr:full": "228 7th St. SE, Washington, D.C., 20003", "addr:country": "US", "name": "MedStar Health: Urgent Care at Capitol Hill", "brand": "Medstar Health", "brand:wikidata": "Q6804943"}, "geometry": {"type": "Point", "coordinates": [-76.9958522, 38.8864613]}},
{"type": "Feature", "id": "Eh9rInfkeRvgP5HLbyMVXbGVbWs=", "properties": {"ref": "urgent-care-california", "@spider": "medstar", "addr:full": "44980 St. Andrews Church Rd., California,  MD  20619", "addr:country": "US", "name": "MedStar Health: Urgent Care at California", "brand": "Medstar Health", "brand:wikidata": "Q6804943"}, "geometry": {"type": "Point", "coordinates": [-76.5224835, 38.3037612]}},
{"type": "Feature", "id": "wGORG8aF9E7ZC_qlt-60BPL_dYE=", "properties": {"ref": "urgent-care-belcamp", "@spider": "medstar", "addr:full": "1321 Riverside Pkwy., Belcamp, MD 21017", "addr:country": "US", "name": "MedStar Health: Urgent Care at Belcamp", "brand": "Medstar Health", "brand:wikidata": "Q6804943"}, "geometry": {"type": "Point", "coordinates": [-76.2473688, 39.4800336]}},
{"type": "Feature", "id": "eKsWWpKResqr0QuKlbFNVXLYSAo=", "properties": {"ref": "urgent-care-bel-air", "@spider": "medstar", "addr:full": "12 MedStar Blvd., Bel Air,  MD  21015", "addr:country": "US", "name": "MedStar Health: Urgent Care at Bel Air", "brand": "Medstar Health", "brand:wikidata": "Q6804943"}, "geometry": {"type": "Point", "coordinates": [-76.3251945, 39.5030048]}},
{"type": "Feature", "id": "kywVtRSPX0kheglYjHf3k4ATfoc=", "properties": {"ref": "urgent-care-annapolis", "@spider": "medstar", "addr:full": "2114 Generals Highway, Annapolis, MD 21401", "addr:country": "US", "name": "MedStar Health: Urgent Care at Annapolis", "brand": "Medstar Health", "brand:wikidata": "Q6804943"}, "geometry": {"type": "Point", "coordinates": [-76.5494102, 38.9889121]}},
{"type": "Feature", "id": "tsJia2tT-iBavqbhgs7g7utPyrI=", "properties": {"ref": "urgent-care-alexandria", "@spider": "medstar", "addr:full": "3610 King St., Alexandria,  VA  22302", "addr:country": "US", "name": "MedStar Health: Urgent Care at Alexandria", "brand": "Medstar Health", "brand:wikidata": "Q6804943"}, "geometry": {"type": "Point", "coordinates": [-77.0903402, 38.8285008]}},
{"type": "Feature", "id": "2tJSmPWafPFXuVdrkb00Qp1QVjc=", "properties": {"ref": "urgent-care-adams-morgan", "@spider": "medstar", "addr:full": "1805 Columbia Rd, Washington, D.C., 20009", "addr:country": "US", "name": "MedStar Health: Urgent Care at Adams Morgan", "brand": "Medstar Health", "brand:wikidata": "Q6804943"}, "geometry": {"type": "Point", "coordinates": [-77.0432935, 38.9225961]}},
{"type": "Feature", "id": "YCn-I25e9q7pipijcBxshu7bxSc=", "properties": {"ref": "surgery-center-timonium", "@spider": "medstar", "addr:full": "2118 Greenspring Dr., Timonium, MD 21093", "addr:country": "US", "name": "MedStar Health: Surgery Center at Timonium", "phone": "410-252-5671", "brand": "Medstar Health", "brand:wikidata": "Q6804943"}, "geometry": {"type": "Point", "coordinates": [-76.8622767, 38.696542]}},
{"type": "Feature", "id": "E2LxsCA80lemEV1-VNqGmUXPNv0=", "properties": {"ref": "surgery-center-takoma-park", "@spider": "medstar", "addr:full": "6475 New Hampshire Ave., Hyattsville, MD 20783", "addr:country": "US", "name": "MedStar Health: Surgery Center at Takoma Park", "phone": "301-270-0022", "brand": "Medstar Health", "brand:wikidata": "Q6804943"}, "geometry": {"type": "Point", "coordinates": [-77.0004806, 38.9676741]}},
{"type": "Feature", "id": "bCA28ivGwE6AInGaUg9TvIzwexo=", "properties": {"ref": "surgery-center-lafayette", "@spider": "medstar", "addr:full": "1133 21st St., NW, Washington, D.C., 20036", "addr:country": "US", "name": "MedStar Health: Surgery Center at Lafayette Centre", "phone": "202-223-9040", "brand": "Medstar Health", "brand:wikidata": "Q6804943"}, "geometry": {"type": "Point", "coordinates": [-77.046282, 38.9044622]}},
{"type": "Feature", "id": "6_BPQ0v82McZdRDcX59OgH4j1lM=", "properties": {"ref": "surgery-center-brandywine", "@spider": "medstar", "addr:full": "13950 Brandywine Rd., Lower Level, Brandywine, MD 20613", "addr:country": "US", "name": "MedStar Health: Surgery Center at Brandywine", "phone": "301-782-2303", "brand": "Medstar Health", "brand:wikidata": "Q6804943"}, "geometry": {"type": "Point", "coordinates": [-76.8622767, 38.696542]}},
{"type": "Feature", "id": "_X_h3kbFRJBL8LGTSAIxFRsq2V8=", "properties": {"ref": "hunt-valley-strength-and-conditioning", "@spider": "medstar", "addr:full": "2 Loveton Circle, Sparks Glencoe, MD  21152", "addr:country": "US", "name": "MedStar Health: Sports Performance at Hunt Valley", "phone": "410-370-3982", "brand": "Medstar Health", "brand:wikidata": "Q6804943"}, "geometry": {"type": "Point", "coordinates": [-76.6451518, 39.521305]}},
{"type": "Feature", "id": "S354Ijpd5HfcmRdvTWPan_tLaZM=", "properties": {"ref": "sports-performance-forest-hill", "@spider": "medstar", "addr:full": "131 Industry Lane , Forest Hill, MD  21050", "addr:country": "US", "name": "MedStar Health: Sports Performance at Forest Hill", "phone": "410-370-3982", "brand": "Medstar Health", "brand:wikidata": "Q6804943"}, "geometry": {"type": "Point", "coordinates": [-76.3719394, 39.5768446]}},
{"type": "Feature", "id": "eet4zglqDI5Rgcj9t8qjg2Fc1bo=", "properties": {"ref": "sports-performance-cockeysville", "@spider": "medstar", "addr:full": "10534 York Rd.\u00a0, Cockeysville, MD 21030", "addr:country": "US", "name": "MedStar Health: Sports Performance at Cockeysville", "phone": "410-370-3982", "brand": "Medstar Health", "brand:wikidata": "Q6804943"}, "geometry": {"type": "Point", "coordinates": [-76.642425, 39.4768583]}},
{"type": "Feature", "id": "Y2DxbaScvSESn94IPE7_kXAIfSo=", "properties": {"ref": "medstar-sports-medicine-research-hunt-valley", "@spider": "medstar", "addr:full": "2 Loveton Circle, Sparks Glencoe, MD  20815", "addr:country": "US", "name": "MedStar Health: Sports Performance Research at Hunt Valley", "phone": "410-554-6868", "brand": "Medstar Health", "brand:wikidata": "Q6804943"}, "geometry": {"type": "Point", "coordinates": [-76.6451518, 39.521305]}},
{"type": "Feature", "id": "pqO9s5ACPcDM1Rcq3OVkG_zKE24=", "properties": {"ref": "spine-center-medstar-union-memorial-hospital", "@spider": "medstar", "addr:full": "3333 North Calvert St., Baltimore, MD 21218", "addr:country": "US", "name": "MedStar Health: Spine Center at MedStar Union Memorial Hospital", "phone": "877-346-7846", "brand": "Medstar Health", "brand:wikidata": "Q6804943"}, "geometry": {"type": "Point", "coordinates": [-76.6147208, 39.3287697]}},
{"type": "Feature", "id": "T79q3RyYnXzIMLemfq9GU661sxA=", "properties": {"ref": "medstar-sports-and-spine-center-at-mclean", "@spider": "medstar", "addr:full": "6858 Old Dominion Drive, McLean, VA 22101", "addr:country": "US", "name": "MedStar Health: Spine Center at McLean", "phone": "703-288-2790", "brand": "Medstar Health", "brand:wikidata": "Q6804943"}, "geometry": {"type": "Point", "coordinates": [-77.1818562, 38.9359941]}},
{"type": "Feature", "id": "-o9_7JAji1O3DVPwaKbp2MrWpyg=", "properties": {"ref": "spine-center-at-chevy-chase", "@spider": "medstar", "addr:full": "5454 Wisconsin Ave., Chevy Chase, MD 20815", "addr:country": "US", "name": "MedStar Health: Spine Center at Chevy Chase", "phone": "855-605-2225", "brand": "Medstar Health", "brand:wikidata": "Q6804943"}, "geometry": {"type": "Point", "coordinates": [-77.0872842, 38.9626435]}},
{"type": "Feature", "id": "SfZY019_BHBPbtihTlKZ_xFGfUE=", "properties": {"ref": "specialty-pharmacy-at-elkridge", "@spider": "medstar", "addr:full": "7379 Washington Blvd., Elkridge, MD 21075", "addr:country": "US", "name": "MedStar Health: Specialty Pharmacy at Elkridge", "phone": "855-545-2889", "brand": "Medstar Health", "brand:wikidata": "Q6804943"}, "geometry": {"type": "Point", "coordinates": [-76.7638597, 39.1808678]}},
{"type": "Feature", "id": "NddKi1sYvMCyNybZnhYvoC_g1ho=", "properties": {"ref": "southern-maryland-cardiology-associates-at-clinton", "@spider": "medstar", "addr:full": "9135 Piscataway Road, Clinton, MD 20735", "addr:country": "US", "name": "MedStar Health: Southern Maryland Cardiology Associates at Clinton", "phone": "301-868-1380", "brand": "Medstar Health", "brand:wikidata": "Q6804943"}, "geometry": {"type": "Point", "coordinates": [-76.9030356, 38.7650874]}},
{"type": "Feature", "id": "HrecQAoxVp4XizYCbKeTAcv4Y2o=", "properties": {"ref": "olney-physician-center", "@spider": "medstar", "addr:full": "18109 Prince Philip Dr., Olney, MD 20832", "addr:country": "US", "name": "MedStar Health: Rehabilitation Physicians at Olney", "phone": "301-570-7415", "brand": "Medstar Health", "brand:wikidata": "Q6804943"}, "geometry": {"type": "Point", "coordinates": [-77.0543573, 39.153421]}},
{"type": "Feature", "id": "drhw7pJeNgJrXvBS4kYUCfTtEAk=", "properties": {"ref": "georgetown-physician-center", "@spider": "medstar", "addr:full": "3800 Reservoir Road NW, Washington, D.C., 20007", "addr:country": "US", "name": "MedStar Health: Rehabilitation Physicians at MedStar Georgetown University Hospital", "phone": "202-877-1621", "brand": "Medstar Health", "brand:wikidata": "Q6804943"}, "geometry": {"type": "Point", "coordinates": [-77.0752992, 38.9120817]}},
{"type": "Feature", "id": "liYyOl_8WYXMtnOkZWXxaYNwSR4=", "properties": {"ref": "irving-street-physician-center", "@spider": "medstar", "addr:full": "102 Irving Street NW, Washington, D.C. 20010", "addr:country": "US", "name": "MedStar Health: Rehabilitation Physicians at Irving Street", "phone": "202-877-1621", "brand": "Medstar Health", "brand:wikidata": "Q6804943"}, "geometry": {"type": "Point", "coordinates": [-77.012567, 38.9302554]}},
{"type": "Feature", "id": "lgUpej4rcu-9BPfDiaXZeTpEHpA=", "properties": {"ref": "friendship-heights-physician-center", "@spider": "medstar", "addr:full": "5454 Wisconsin Ave., Chevy Chase, MD 20815", "addr:country": "US", "name": "MedStar Health: Rehabilitation Physicians at Friendship Heights", "phone": "301-986-4745", "brand": "Medstar Health", "brand:wikidata": "Q6804943"}, "geometry": {"type": "Point", "coordinates": [-77.0872842, 38.9626435]}},
{"type": "Feature", "id": "l3uE_2JG1aHRHEcmpu3GZtSHRy0=", "properties": {"ref": "bethesda-physician-center", "@spider": "medstar", "addr:full": "6410 Rockledge Dr., Bethesda, Maryland 20817", "addr:country": "US", "name": "MedStar Health: Rehabilitation Physicians at Bethesda", "phone": "301-581-8091", "brand": "Medstar Health", "brand:wikidata": "Q6804943"}, "geometry": {"type": "Point", "coordinates": [-77.1336856, 39.0239646]}},
{"type": "Feature", "id": "D7JoCLG04rHUSvtk0laurRd76Sc=", "properties": {"ref": "radiology-at-timonium", "@spider": "medstar", "addr:full": "2118 Greenspring Dr., Timonium, MD  21093", "addr:country": "US", "name": "MedStar Health: Radiology at Timonium", "phone": "443-470-1070", "brand": "Medstar Health", "brand:wikidata": "Q6804943"}, "geometry": {"type": "Point", "coordinates": [-76.632682, 39.4412218]}},
{"type": "Feature", "id": "I02WHBtfQvipAaNcac0LFUzoStk=", "properties": {"ref": "radiology-at-southern-maryland", "@spider": "medstar", "addr:full": "7501 Surratts Rd., Clinton, MD  20735", "addr:country": "US", "name": "MedStar Health: Radiology at Southern Maryland", "phone": "301-877-5588", "brand": "Medstar Health", "brand:wikidata": "Q6804943"}, "geometry": {"type": "Point", "coordinates": [-76.8622767, 38.696542]}},
{"type": "Feature", "id": "InilPi3REz6cPR57jZiLh8ZXxRM=", "properties": {"ref": "radiology-at-rockville", "@spider": "medstar", "addr:full": "3202 Tower Oaks Blvd., Rockville, MD  20852", "addr:country": "US", "name": "MedStar Health: Radiology at Rockville", "phone": "301-657-2444", "brand": "Medstar Health", "brand:wikidata": "Q6804943"}, "geometry": {"type": "Point", "coordinates": [-77.1507431, 39.0594006]}},
{"type": "Feature", "id": "YezCr4P9szz6IzR-VZXo1WKuhwE=", "properties": {"ref": "radiology-at-olney", "@spider": "medstar", "addr:full": "18101 Prince Philip Dr., Olney, MD  20832", "addr:country": "US", "name": "MedStar Health: Radiology at Olney", "phone": "301-260-3301", "brand": "Medstar Health", "brand:wikidata": "Q6804943"}, "geometry": {"type": "Point", "coordinates": [-77.0547374, 39.1540614]}},
{"type": "Feature", "id": "zwKuByTb2ls6aMd1BwblVxZFnLU=", "properties": {"ref": "radiology-at-medstar-washington-hospital-center-main-hospital", "@spider": "medstar", "addr:full": "110 Irving St. NW, Washington, D.C., 20010", "addr:country": "US", "name": "MedStar Health: Radiology at MedStar Washington Hospital Center - Main Hospital", "phone": "202-877-9729", "brand": "Medstar Health", "brand:wikidata": "Q6804943"}, "geometry": {"type": "Point", "coordinates": [-77.0144978, 38.9292248]}},
{"type": "Feature", "id": "yVZa9u2_BSVMmMYv3RXgtr6GAQ8=", "properties": {"ref": "radiology-at-medstar-union-memorial-hospital", "@spider": "medstar", "addr:full": "201 E. University Parkway,  Baltimore, MD  21218", "addr:country": "US", "name": "MedStar Health: Radiology at MedStar Union Memorial Hospital", "phone": "410-554-2728", "brand": "Medstar Health", "brand:wikidata": "Q6804943"}, "geometry": {"type": "Point", "coordinates": [-76.6143199, 39.3295973]}},
{"type": "Feature", "id": "3CXrgjxoS8sNioLOGZE-xzZoEA0=", "properties": {"ref": "radiology-at-medstar-st-marys-hospital", "@spider": "medstar", "addr:full": "25500 Point Lookout Rd.,  Leonardtown, MD  20650", "addr:country": "US", "name": "MedStar Health: Radiology at MedStar St. Mary\u2019s Hospital", "phone": "240-434-7317", "brand": "Medstar Health", "brand:wikidata": "Q6804943"}, "geometry": {"type": "Point", "coordinates": [-76.6382144, 38.3020953]}},
{"type": "Feature", "id": "MjHB1Pt0jkAD4PmGsAdTQgkOSOQ=", "properties": {"ref": "radiology-at-medstar-southern-maryland-hospital-center", "@spider": "medstar", "addr:full": "7503 Surratts Rd., Clinton, MD 20735", "addr:country": "US", "name": "MedStar Health: Radiology at MedStar Southern Maryland Hospital Center", "brand": "Medstar Health", "brand:wikidata": "Q6804943"}, "geometry": {"type": "Point", "coordinates": [-76.8757571, 38.7482634]}},
{"type": "Feature", "id": "CwTuNnOjgCKqc6Yz6hV9_zUnolU=", "properties": {"ref": "radiology-at-medstar-harbor-hospital", "@spider": "medstar", "addr:full": "3001 South Hanover St.,  Baltimore, MD  21225", "addr:country": "US", "name": "MedStar Health: Radiology at MedStar Harbor Hospital", "phone": "410-350-3300", "brand": "Medstar Health", "brand:wikidata": "Q6804943"}, "geometry": {"type": "Point", "coordinates": [-76.614662, 39.2517829]}},
{"type": "Feature", "id": "Fc01xLkspHggpv-CoIN7QVFZ2LA=", "properties": {"ref": "radiology-at-medstar-good-samaritan-hospital", "@spider": "medstar", "addr:full": "5601 Loch Raven Blvd., Baltimore, MD 21239", "addr:country": "US", "name": "MedStar Health: Radiology at MedStar Good Samaritan Hospital", "phone": "443-444-4340", "brand": "Medstar Health", "brand:wikidata": "Q6804943"}, "geometry": {"type": "Point", "coordinates": [-76.5871105, 39.3579963]}},
{"type": "Feature", "id": "aROGxSsFbkTEKm9rUUk5bR7aEvM=", "properties": {"ref": "radiology-at-lafayette-centre", "@spider": "medstar", "addr:full": "1133 21st St., NW , Washington, D.C., 20036", "addr:country": "US", "name": "MedStar Health: Radiology at Lafayette Centre", "phone": "202-748-8830", "brand": "Medstar Health", "brand:wikidata": "Q6804943"}, "geometry": {"type": "Point", "coordinates": [-77.046282, 38.9044622]}},
{"type": "Feature", "id": "texgcp0K8rIRNQrE_1dX5rl3MJA=", "properties": {"ref": "radiology-at-foxhall", "@spider": "medstar", "addr:full": "3301 New Mexico Ave., NW, Washington, D.C., 20016", "addr:country": "US", "name": "MedStar Health: Radiology at Foxhall", "phone": "202-686-1316", "brand": "Medstar Health", "brand:wikidata": "Q6804943"}, "geometry": {"type": "Point", "coordinates": [-77.0851359, 38.9337]}},
{"type": "Feature", "id": "JkEnU5NfMWiiuuA6WVC4gkRLud4=", "properties": {"ref": "radiology-at-chevy-chase", "@spider": "medstar", "addr:full": "5530 Wisconsin Ave., Chevy Chase, MD  20815", "addr:country": "US", "name": "MedStar Health: Radiology at Chevy Chase", "phone": "301-841-8300", "brand": "Medstar Health", "brand:wikidata": "Q6804943"}, "geometry": {"type": "Point", "coordinates": [-77.0875266, 38.9650563]}},
{"type": "Feature", "id": "xMWMZBeM59FaEfDUARN3mFm6dQo=", "properties": {"ref": "radiology-at-brandywine", "@spider": "medstar", "addr:full": "13950 Brandywine Rd. , Brandywine, MD  20613", "addr:country": "US", "name": "MedStar Health: Radiology at Brandywine", "phone": "240-546-3000", "brand": "Medstar Health", "brand:wikidata": "Q6804943"}, "geometry": {"type": "Point", "coordinates": [-76.8622767, 38.696542]}},
{"type": "Feature", "id": "2RFwwXq8FN6wrH7PyyFV0I-UVYM=", "properties": {"ref": "radiology-at-bel-air", "@spider": "medstar", "addr:full": "12 MedStar Blvd., Bel Air, MD  21015", "addr:country": "US", "name": "MedStar Health: Radiology at Bel Air", "phone": "443-625-5430", "brand": "Medstar Health", "brand:wikidata": "Q6804943"}, "geometry": {"type": "Point", "coordinates": [-76.3251945, 39.5030048]}},
{"type": "Feature", "id": "HX18GKIqvzeG2rPefCRs5kaR6iY=", "properties": {"ref": "radiation-oncology-at-medstar-washington-hospital-center", "@spider": "medstar", "addr:full": "110 Irving Street, NW, Washington, DC 20010", "addr:country": "US", "name": "MedStar Health: Radiation Oncology at MedStar Washington Hospital Center", "phone": "202-877-3925", "brand": "Medstar Health", "brand:wikidata": "Q6804943"}, "geometry": {"type": "Point", "coordinates": [-77.0144978, 38.9292248]}},
{"type": "Feature", "id": "5PhezvK0seBJTjX4w1yJTRFNvLg=", "properties": {"ref": "radiation-oncology-at-medstar-southern-maryland-hospital-center", "@spider": "medstar", "addr:full": "7501 Surratts Rd., Clinton, MD 20735", "addr:country": "US", "name": "MedStar Health: Radiation Oncology at MedStar Southern Maryland Hospital Center", "phone": "301-877-5610", "brand": "Medstar Health", "brand:wikidata": "Q6804943"}, "geometry": {"type": "Point", "coordinates": [-76.5871105, 39.3579963]}},
{"type": "Feature", "id": "eMgl6qatLksilBn-3iNrf63ONIo=", "properties": {"ref": "radiation-oncology-at-medstar-montgomery-medical-center", "@spider": "medstar", "addr:full": "18105 Prince Philip Dr., Olney, MD 20832 ", "addr:country": "US", "name": "MedStar Health: Radiation Oncology at MedStar Montgomery Medical Center", "phone": "301-260-3700", "brand": "Medstar Health", "brand:wikidata": "Q6804943"}, "geometry": {"type": "Point", "coordinates": [-76.5871105, 39.3579963]}},
{"type": "Feature", "id": "EoBXuMKGgDi02ghCulJLAbh-71Q=", "properties": {"ref": "radiation-oncology-medstar-health-bel-air-medical-campus", "@spider": "medstar", "addr:full": "12 MedStar Blvd., Bel Air, MD 21015", "addr:country": "US", "name": "MedStar Health: Radiation Oncology at MedStar Health Bel Air Medical Campus ", "phone": "443-625-5430 ", "brand": "Medstar Health", "brand:wikidata": "Q6804943"}, "geometry": {"type": "Point", "coordinates": [-76.325, 39.50297]}},
{"type": "Feature", "id": "xPQpiodaGl_JyG4I4__zEccU1_U=", "properties": {"ref": "radiation-oncology-at-medstar-good-samaritan-hospital", "@spider": "medstar", "addr:full": "Russell Morgan Building, Baltimore, MD 21239", "addr:country": "US", "name": "MedStar Health: Radiation Oncology at MedStar Good Samaritan Hospital", "phone": "443-444-5558", "brand": "Medstar Health", "brand:wikidata": "Q6804943"}, "geometry": {"type": "Point", "coordinates": [-76.5871105, 39.3579963]}},
{"type": "Feature", "id": "xMNDl9OwnWLyrPkHA6xP563zqPE=", "properties": {"ref": "radiation-oncology-medstar-georgetown-university-hospital", "@spider": "medstar", "addr:full": "3800 Reservoir Rd., NW, Washington, DC 20007", "addr:country": "US", "name": "MedStar Health: Radiation Oncology at MedStar Georgetown University Hospital  ", "phone": "202-444-3320", "brand": "Medstar Health", "brand:wikidata": "Q6804943"}, "geometry": {"type": "Point", "coordinates": [-77.07535, 38.91142]}},
{"type": "Feature", "id": "sgxPdjN5fcic9WGi470p8gmi-Uk=", "properties": {"ref": "radiation-oncology-at-medstar-franklin-square-medical-center", "@spider": "medstar", "addr:full": "White Square Professional Building, Baltimore, MD 21237", "addr:country": "US", "name": "MedStar Health: Radiation Oncology at MedStar Franklin Square Medical Center ", "phone": "410-682-6800", "brand": "Medstar Health", "brand:wikidata": "Q6804943"}, "geometry": {"type": "Point", "coordinates": [-76.47743, 39.35081]}},
{"type": "Feature", "id": "kXwAnOn56FO31RL-BZVHXOpdu5A=", "properties": {"ref": "psychiatric-partial-hospitalization-program-at-washington", "@spider": "medstar", "addr:full": "3800 Reservoir Road NW, Washington, D.C. 20007", "addr:country": "US", "name": "MedStar Health: Psychiatric Partial Hospitalization Program at MedStar Georgetown University Hospital", "phone": " 202-444-8930", "brand": "Medstar Health", "brand:wikidata": "Q6804943"}, "geometry": {"type": "Point", "coordinates": [-77.0693659, 38.9189543]}},
{"type": "Feature", "id": "GlYXwUIeWKmFbcLwGuu8SyuhIi8=", "properties": {"ref": "primary-care-good-samaritan", "@spider": "medstar", "addr:full": "5601 Loch Raven Blvd. , Baltimore, MD  21239", "addr:country": "US", "name": "MedStar Health: Primary Care, Gastroenterology, and Endocrinology in Baltimore", "phone": "443-444-5600", "brand": "Medstar Health", "brand:wikidata": "Q6804943"}, "geometry": {"type": "Point", "coordinates": [-76.5867296, 39.3578153]}},
{"type": "Feature", "id": "qqoPG80ORGNsYyZ1NPIsM2D0K3s=", "properties": {"ref": "primary-care-laurel-at-baltimore-ave", "@spider": "medstar", "addr:full": "13952 Baltimore Ave., Laurel, MD 20707", "addr:country": "US", "name": "MedStar Health: Primary Care in Laurel at Baltimore Ave.", "phone": "301-490-1990", "brand": "Medstar Health", "brand:wikidata": "Q6804943"}, "geometry": {"type": "Point", "coordinates": [-76.8650186, 39.0813713]}},
{"type": "Feature", "id": "XjFK1ZCxzPCRSszqkYogHn0oWTU=", "properties": {"ref": "primary-care-world-bank", "@spider": "medstar", "addr:full": "1818 H St. NW, Washington, DC 20433", "addr:country": "US", "name": "MedStar Health: Primary Care at World Bank Headquarters", "phone": "202-842-1500", "brand": "Medstar Health", "brand:wikidata": "Q6804943"}, "geometry": {"type": "Point", "coordinates": [-77.0424139, 38.8989707]}},
{"type": "Feature", "id": "4cDDj673N7JyWJ7PdMAu0R7QlSU=", "properties": {"ref": "primary-care-wilkens", "@spider": "medstar", "addr:full": "4660 Wilkens Ave., Baltimore, MD  21229", "addr:country": "US", "name": "MedStar Health: Primary Care at Wilkens Medical Center", "phone": "410-247-0782", "brand": "Medstar Health", "brand:wikidata": "Q6804943"}, "geometry": {"type": "Point", "coordinates": [-76.6993329, 39.2650608]}},
{"type": "Feature", "id": "pQzazas9qkI02hakRrxH7OxFgpY=", "properties": {"ref": "primary-care-white-plains", "@spider": "medstar", "addr:full": "4225 Altamont Place, White Plains, MD  20695", "addr:country": "US", "name": "MedStar Health: Primary Care at White Plains", "phone": "301-932-5299", "brand": "Medstar Health", "brand:wikidata": "Q6804943"}, "geometry": {"type": "Point", "coordinates": [-76.9402697, 38.596171]}},
{"type": "Feature", "id": "2fYG4Ew9yxvOegzS9uQOkFpMDMs=", "properties": {"ref": "primary-care-upper-marlboro", "@spider": "medstar", "addr:full": "9440 Marlboro Pike, Upper Marlboro, MD  20772", "addr:country": "US", "name": "MedStar Health: Primary Care at Upper Marlboro", "phone": "301-952-8614", "brand": "Medstar Health", "brand:wikidata": "Q6804943"}, "geometry": {"type": "Point", "coordinates": [-76.7534006, 38.8019529]}},
{"type": "Feature", "id": "vvlvQGZQMkGeoYKfdPYxudICp1k=", "properties": {"ref": "primary-care-st-clements", "@spider": "medstar", "addr:full": "23511 Hollywood Rd., Leonardtown, MD 20650", "addr:country": "US", "name": "MedStar Health: Primary Care at St. Clement's", "phone": "301-997-0611", "brand": "Medstar Health", "brand:wikidata": "Q6804943"}, "geometry": {"type": "Point", "coordinates": [-76.6309825, 38.3139328]}},
{"type": "Feature", "id": "kk5n06jJB3t1aV1i2KdY5D6pymY=", "properties": {"ref": "primary-care-silver-spring", "@spider": "medstar", "addr:full": "10301 Georgia Ave. , Silver Spring, MD  20902", "addr:country": "US", "name": "MedStar Health: Primary Care at Silver Spring", "phone": "301-754-1950", "brand": "Medstar Health", "brand:wikidata": "Q6804943"}, "geometry": {"type": "Point", "coordinates": [-77.0450332, 39.0240263]}},
{"type": "Feature", "id": "qJ76NT7egNhg8efOoyc69uCFP8U=", "properties": {"ref": "primary-care-ridge-road", "@spider": "medstar", "addr:full": "7106-B Ridge Rd., Baltimore, MD 21237", "addr:country": "US", "name": "MedStar Health: Primary Care at Ridge Road", "phone": "410-687-2300", "brand": "Medstar Health", "brand:wikidata": "Q6804943"}, "geometry": {"type": "Point", "coordinates": [-76.4864915, 39.3514382]}},
{"type": "Feature", "id": "ykO7WlbLfPfVwWFRjx8ObDpQrM8=", "properties": {"ref": "primary-care-olney-professional-park", "@spider": "medstar", "addr:full": "2901 Olney-Sandy Spring Rd., Olney, MD  20832", "addr:country": "US", "name": "MedStar Health: Primary Care at Olney Professional Park", "phone": "301-774-6655", "brand": "Medstar Health", "brand:wikidata": "Q6804943"}, "geometry": {"type": "Point", "coordinates": [-77.0593696, 39.1508648]}},
{"type": "Feature", "id": "ZfkWFO8b56jmhl92Z1irMJ1lNnQ=", "properties": {"ref": "primary-care-family-practice-olney", "@spider": "medstar", "addr:full": "18109 Prince Philip Dr., Olney, MD  20832", "addr:country": "US", "name": "MedStar Health: Primary Care at Olney", "phone": "301-570-7770", "brand": "Medstar Health", "brand:wikidata": "Q6804943"}, "geometry": {"type": "Point", "coordinates": [-77.0543573, 39.153421]}},
{"type": "Feature", "id": "r9AHxgxggUGzZTXizuy76GxGcGE=", "properties": {"ref": "primary-care-old-emmorton", "@spider": "medstar", "addr:full": "2227 Old Emmorton Rd., Bel Air, MD  21015", "addr:country": "US", "name": "MedStar Health: Primary Care at Old Emmorton Road", "phone": "410-569-9040", "brand": "Medstar Health", "brand:wikidata": "Q6804943"}, "geometry": {"type": "Point", "coordinates": [-76.3217811, 39.4951031]}},
{"type": "Feature", "id": "ezkbURIe_AjCOQh-KvPpFxIyirQ=", "properties": {"ref": "primary-care-parkville", "@spider": "medstar", "addr:full": "9512 Harford Rd., Baltimore, MD  21234", "addr:country": "US", "name": "MedStar Health: Primary Care at North Parkville Health Center", "phone": "410-882-0600", "brand": "Medstar Health", "brand:wikidata": "Q6804943"}, "geometry": {"type": "Point", "coordinates": [-76.5251588, 39.3942891]}},
{"type": "Feature", "id": "yqH_67_C3zewUg2HRze8JfKXJCQ=", "properties": {"ref": "primary-care-new-mexico-ave", "@spider": "medstar", "addr:full": "3301 New Mexico Ave. NW, Washington, D.C., 20016", "addr:country": "US", "name": "MedStar Health: Primary Care at New Mexico Avenue", "phone": "202-243-2500", "brand": "Medstar Health", "brand:wikidata": "Q6804943"}, "geometry": {"type": "Point", "coordinates": [-77.0851359, 38.9337]}},
{"type": "Feature", "id": "z_HYF4y1AlMw5BHt5MbsA675WDE=", "properties": {"ref": "primary-care-navy-yard", "@spider": "medstar", "addr:full": "915 Half St. SE, Washington, D.C., 20003 ", "addr:country": "US", "name": "MedStar Health: Primary Care at Navy Yard", "phone": "202-546-4504", "brand": "Medstar Health", "brand:wikidata": "Q6804943"}, "geometry": {"type": "Point", "coordinates": [-77.0077811, 38.8788382]}},
{"type": "Feature", "id": "vBzK8__Ks9uzGgZt8Z7wq_0wxH0=", "properties": {"ref": "primary-care-mitchellville", "@spider": "medstar", "addr:full": "12158 Central Ave., Mitchellville, MD  20721", "addr:country": "US", "name": "MedStar Health: Primary Care at Mitchellville", "phone": "301-430-2700", "brand": "Medstar Health", "brand:wikidata": "Q6804943"}, "geometry": {"type": "Point", "coordinates": [-76.7951191, 38.9009983]}},
{"type": "Feature", "id": "z1eQ2kf0_HDAqwftygA8STeK9bo=", "properties": {"ref": "primary-care-washington-hospital-center", "@spider": "medstar", "addr:full": "106 Irving St., NW, Washington, D.C., 20010", "addr:country": "US", "name": "MedStar Health: Primary Care at MedStar Washington Hospital Center", "phone": "202-877-2200", "brand": "Medstar Health", "brand:wikidata": "Q6804943"}, "geometry": {"type": "Point", "coordinates": [-77.0136469, 38.929777]}},
{"type": "Feature", "id": "3A0Xq8-8ECav493_B8JLfeuM7PA=", "properties": {"ref": "primary-care-st-marys", "@spider": "medstar", "addr:full": "41680 Miss Bessie Dr., Leonardtown, MD 20650", "addr:country": "US", "name": "MedStar Health: Primary Care at MedStar St. Mary's Hospital", "phone": "301-997-0055", "brand": "Medstar Health", "brand:wikidata": "Q6804943"}, "geometry": {"type": "Point", "coordinates": [-76.6348634, 38.302489]}},
{"type": "Feature", "id": "2UGE9kP9JRNNZ6Eg8Q4yPv6unnk=", "properties": {"ref": "primary-care-medstar-harbor-hospital", "@spider": "medstar", "addr:full": "3001 South Hanover St., Baltimore, MD 21225", "addr:country": "US", "name": "MedStar Health: Primary Care at MedStar Harbor Hospital", "phone": "410-350-8222", "brand": "Medstar Health", "brand:wikidata": "Q6804943"}, "geometry": {"type": "Point", "coordinates": [-76.614662, 39.2517829]}},
{"type": "Feature", "id": "pZx9JYvnxPgjlAUd69Xrk8wuCAg=", "properties": {"ref": "primary-care-mclean", "@spider": "medstar", "addr:full": "1420 Beverly Rd., McLean, VA  22101", "addr:country": "US", "name": "MedStar Health: Primary Care at McLean", "phone": "703-852-8287", "brand": "Medstar Health", "brand:wikidata": "Q6804943"}, "geometry": {"type": "Point", "coordinates": [-77.1816765, 38.9338876]}},
{"type": "Feature", "id": "yTnbfDTaJUJAfJY9yEk_IWD9BTI=", "properties": {"ref": "primary-care-leisure-world", "@spider": "medstar", "addr:full": "3305 North Leisure World Blvd., Silver Spring, MD 20906", "addr:country": "US", "name": "MedStar Health: Primary Care at Leisure World", "phone": "301-598-1590", "brand": "Medstar Health", "brand:wikidata": "Q6804943"}, "geometry": {"type": "Point", "coordinates": [-77.0651259, 39.1091214]}},
{"type": "Feature", "id": "evDUoYdSw34v5mYF640Z9oQR-6Y=", "properties": {"ref": "primary-care-lafayette-centre", "@spider": "medstar", "addr:full": "1133 21st St. NW , Washington, D.C., 20036", "addr:country": "US", "name": "MedStar Health: Primary Care at Lafayette Centre", "phone": "202-416-2000", "brand": "Medstar Health", "brand:wikidata": "Q6804943"}, "geometry": {"type": "Point", "coordinates": [-77.0461742, 38.9045049]}},
{"type": "Feature", "id": "kmpL_D6ouadqqgXk9IZSIJoMvsg=", "properties": {"ref": "primary-care-hyattsville", "@spider": "medstar", "addr:full": "6401 America Blvd., Hyattsville, MD 20782", "addr:country": "US", "name": "MedStar Health: Primary Care at Hyattsville", "phone": "301-209-5480", "brand": "Medstar Health", "brand:wikidata": "Q6804943"}, "geometry": {"type": "Point", "coordinates": [-76.9520178, 38.9673697]}},
{"type": "Feature", "id": "WcJ5bZc-MpFXTiI7WWPj-IzI-HQ=", "properties": {"ref": "primary-care-honeygo-center", "@spider": "medstar", "addr:full": "5009 Honeygo Center Dr., Perry Hall, MD  21128", "addr:country": "US", "name": "MedStar Health: Primary Care at Honeygo Center", "phone": "410-256-5858", "brand": "Medstar Health", "brand:wikidata": "Q6804943"}, "geometry": {"type": "Point", "coordinates": [-76.4421185, 39.4046649]}},
{"type": "Feature", "id": "CYz_15BQUQrYCCAvXZdGmf-DO-M=", "properties": {"ref": "primary-care-great-mills", "@spider": "medstar", "addr:full": "45870 East Run Dr., Lexington Park, MD  20653", "addr:country": "US", "name": "MedStar Health: Primary Care at Great Mills", "phone": "240-895-8600", "brand": "Medstar Health", "brand:wikidata": "Q6804943"}, "geometry": {"type": "Point", "coordinates": [-76.4896427, 38.2481985]}},
{"type": "Feature", "id": "lgtNEbgEhhv6sb5rnM0q3uh_nEY=", "properties": {"ref": "primary-care-gaithersburg", "@spider": "medstar", "addr:full": "12111 Darnestown Rd., Gaithersburg, MD  20878", "addr:country": "US", "name": "MedStar Health: Primary Care at Gaithersburg", "phone": "301-926-3095", "brand": "Medstar Health", "brand:wikidata": "Q6804943"}, "geometry": {"type": "Point", "coordinates": [-77.2507206, 39.1181638]}},
{"type": "Feature", "id": "svL4FUi4PVqON5oILKpCyVoINcY=", "properties": {"ref": "primary-care-fort-lincoln", "@spider": "medstar", "addr:full": "4151 Bladensburg Rd. , Colmar Manor, MD  20722", "addr:country": "US", "name": "MedStar Health: Primary Care at Fort Lincoln", "phone": "301-699-7700", "brand": "Medstar Health", "brand:wikidata": "Q6804943"}, "geometry": {"type": "Point", "coordinates": [-76.9460316, 38.9364702]}},
{"type": "Feature", "id": "7nskwYGbnf6L_Rn4hIz0YpvxBw4=", "properties": {"ref": "primary-care-forest-hill", "@spider": "medstar", "addr:full": "1517 Rock Spring Rd., Forest Hill, MD  21050", "addr:country": "US", "name": "MedStar Health: Primary Care at Forest Hill", "phone": "410-838-6358", "brand": "Medstar Health", "brand:wikidata": "Q6804943"}, "geometry": {"type": "Point", "coordinates": [-76.3694103, 39.5607986]}},
{"type": "Feature", "id": "vZXNkmQ2xR-IlZTTwgRlJiHLc7U=", "properties": {"ref": "primary-care-federal-hill", "@spider": "medstar", "addr:full": "1420 Key Hwy., Baltimore, MD 21230", "addr:country": "US", "name": "MedStar Health: Primary Care at Federal Hill", "phone": "410-230-7800", "brand": "Medstar Health", "brand:wikidata": "Q6804943"}, "geometry": {"type": "Point", "coordinates": [-76.6013751, 39.2728427]}},
{"type": "Feature", "id": "Qn_HSOK4FitZl2JK1YbKQfYmrq8=", "properties": {"ref": "primary-care-dundalk", "@spider": "medstar", "addr:full": "1576 Merritt Blvd., Dundalk, MD  21222", "addr:country": "US", "name": "MedStar Health: Primary Care at Dundalk Professional Center", "phone": "410-650-2000", "brand": "Medstar Health", "brand:wikidata": "Q6804943"}, "geometry": {"type": "Point", "coordinates": [-76.5040258, 39.2741931]}},
{"type": "Feature", "id": "y1sQ2LyjeTUaaoGo8wflFmGoonQ=", "properties": {"ref": "primary-care-dorsey-hall", "@spider": "medstar", "addr:full": "9501 Old Annapolis Rd., Ellicott City, MD  21042", "addr:country": "US", "name": "MedStar Health: Primary Care at Dorsey Hall", "phone": "301-621-6570", "brand": "Medstar Health", "brand:wikidata": "Q6804943"}, "geometry": {"type": "Point", "coordinates": [-76.8411489, 39.2407152]}},
{"type": "Feature", "id": "1CnOTMJC1UR75c9nYVGBZTEVFpU=", "properties": {"ref": "primary-care-clinton", "@spider": "medstar", "addr:full": "10403 Hospital Dr., Clinton, MD  20735", "addr:country": "US", "name": "MedStar Health: Primary Care at Clinton", "phone": "301-877-4210", "brand": "Medstar Health", "brand:wikidata": "Q6804943"}, "geometry": {"type": "Point", "coordinates": [-76.8777262, 38.745472]}},
{"type": "Feature", "id": "Hm8KaZ6JyF73mv-rww2wopNQPjs=", "properties": {"ref": "primary-care-chevy-chase", "@spider": "medstar", "addr:full": "5454 Wisconsin Ave., Chevy Chase, MD 20815", "addr:country": "US", "name": "MedStar Health: Primary Care at Chevy Chase", "phone": "301-215-9420", "brand": "Medstar Health", "brand:wikidata": "Q6804943"}, "geometry": {"type": "Point", "coordinates": [-77.0872842, 38.9626435]}},
{"type": "Feature", "id": "Dq1BK6VOuKOlRAE9Wp5uI-eycyE=", "properties": {"ref": "primary-care-charlotte-hall", "@spider": "medstar", "addr:full": "29955 Three Notch Rd., Charlotte Hall, MD  20622", "addr:country": "US", "name": "MedStar Health: Primary Care at Charlotte Hall", "phone": "301-290-5300", "brand": "Medstar Health", "brand:wikidata": "Q6804943"}, "geometry": {"type": "Point", "coordinates": [-76.7758956, 38.4911975]}},
{"type": "Feature", "id": "ycLRGtIoWdVfKpjcpoKjp_FAaUY=", "properties": {"ref": "primary-care-camp-springs", "@spider": "medstar", "addr:full": "5801 Allentown Rd., Camp Springs, MD  20746", "addr:country": "US", "name": "MedStar Health: Primary Care at Camp Springs", "phone": "301-899-0020", "brand": "Medstar Health", "brand:wikidata": "Q6804943"}, "geometry": {"type": "Point", "coordinates": [-76.899163, 38.8083376]}},
{"type": "Feature", "id": "lBZ-PmyiFldj3wACIyFkvbQbC0k=", "properties": {"ref": "primary-care-calvert-street", "@spider": "medstar", "addr:full": "3400 N. Calvert St., Baltimore, MD 21211", "addr:country": "US", "name": "MedStar Health: Primary Care at Calvert Street", "phone": "410-235-0999", "brand": "Medstar Health", "brand:wikidata": "Q6804943"}, "geometry": {"type": "Point", "coordinates": [-76.61507, 39.32992]}},
{"type": "Feature", "id": "uJU-qfqpl3bJl_83NDzcQdMdl_I=", "properties": {"ref": "primary-care-brandywine", "@spider": "medstar", "addr:full": "13950 Brandywine Rd., Brandywine, MD  20613", "addr:country": "US", "name": "MedStar Health: Primary Care at Brandywine", "phone": "301-782-2220", "brand": "Medstar Health", "brand:wikidata": "Q6804943"}, "geometry": {"type": "Point", "coordinates": [-76.8622767, 38.696542]}},
{"type": "Feature", "id": "5hoCH4JPjjm3CHHd0APH2pkbNqk=", "properties": {"ref": "primary-care-bethesda", "@spider": "medstar", "addr:full": "6410 Rockledge Dr., Bethesda, MD 20815", "addr:country": "US", "name": "MedStar Health: Primary Care at Bethesda", "phone": "301-897-5001", "brand": "Medstar Health", "brand:wikidata": "Q6804943"}, "geometry": {"type": "Point", "coordinates": [-77.1336856, 39.0239646]}},
{"type": "Feature", "id": "FDroCDITlwpbnBiK2vhkYVIFyAk=", "properties": {"ref": "primary-care-bel-air", "@spider": "medstar", "addr:full": "12 MedStar Blvd., Bel Air, MD 21015", "addr:country": "US", "name": "MedStar Health: Primary Care at Bel Air", "phone": "410-877-8088", "brand": "Medstar Health", "brand:wikidata": "Q6804943"}, "geometry": {"type": "Point", "coordinates": [-76.3251945, 39.5030048]}},
{"type": "Feature", "id": "8f1yzk8kluA3SbFhV1IeBm1cvpk=", "properties": {"ref": "medstar-franklin-square-health-center-family-health", "@spider": "medstar", "addr:full": "9101 Franklin Square Drive\u00a0 \u00a0 \u00a0 \u00a0 \u00a0 \u00a0, Baltimore, MD  21237", "addr:country": "US", "name": "MedStar Health: Primary Care at Baltimore", "phone": "443-777-2000", "brand": "Medstar Health", "brand:wikidata": "Q6804943"}, "geometry": {"type": "Point", "coordinates": [-76.477757, 39.3499917]}},
{"type": "Feature", "id": "QMVZ_4kI88J1_8lBpADdhO8uKAE=", "properties": {"ref": "primary-care-annapolis", "@spider": "medstar", "addr:full": "810 Bestgate Rd., Annapolis, MD 21401", "addr:country": "US", "name": "MedStar Health: Primary Care at Annapolis", "phone": "410-573-1110 ", "brand": "Medstar Health", "brand:wikidata": "Q6804943"}, "geometry": {"type": "Point", "coordinates": [-76.5375593, 38.9949791]}},
{"type": "Feature", "id": "zrH7d6wn95NPcyB8J8ktuep-pjs=", "properties": {"ref": "primary-care-alexandria", "@spider": "medstar", "addr:full": "3610 King St., Alexandria, VA  22302", "addr:country": "US", "name": "MedStar Health: Primary Care at Alexandria", "phone": "703-845-2812", "brand": "Medstar Health", "brand:wikidata": "Q6804943"}, "geometry": {"type": "Point", "coordinates": [-77.0903402, 38.8285008]}},
{"type": "Feature", "id": "8ycuAoMjJrC1uPfu39w9SoUAFtA=", "properties": {"ref": "primary-care-olney", "@spider": "medstar", "addr:full": "18111 Prince Philip Dr., Olney, MD  20832", "addr:country": "US", "name": "MedStar Health: Primary Care at 18111 Prince Philip", "phone": "301-570-8535", "brand": "Medstar Health", "brand:wikidata": "Q6804943"}, "geometry": {"type": "Point", "coordinates": [-77.0558167, 39.1538631]}},
{"type": "Feature", "id": "OC5JRRDPQYr7gMTnrTWGf_yXSBc=", "properties": {"ref": "podiatric-surgery-medstar-washington-hospital-center", "@spider": "medstar", "addr:full": "106 Irving St. NW, Washington, D.C., 20010", "addr:country": "US", "name": "MedStar Health: Podiatric Surgery at MedStar Washington Hospital Center", "phone": "202-877-6640", "brand": "Medstar Health", "brand:wikidata": "Q6804943"}, "geometry": {"type": "Point", "coordinates": [-77.014524, 38.9290521]}},
{"type": "Feature", "id": "eY3Inxp7h16PCJfyM3BZBTc0YZo=", "properties": {"ref": "plastic-surgery-mitchellville", "@spider": "medstar", "addr:full": "12158 Central Avenue, Mitchellville, MD 20721", "addr:country": "US", "name": "MedStar Health: Plastic Surgery at Mitchellville", "phone": "(202) 877-4991", "brand": "Medstar Health", "brand:wikidata": "Q6804943"}, "geometry": {"type": "Point", "coordinates": [-76.7951191, 38.9009983]}},
{"type": "Feature", "id": "poRx757N5KnRMvEo8F5wh-UwaOg=", "properties": {"ref": "plastic-surgery-medstar-washington-hospital-center", "@spider": "medstar", "addr:full": "106 Irving St. NW, Washington, D.C., 20010", "addr:country": "US", "name": "MedStar Health: Plastic Surgery at MedStar Washington Hospital Center", "phone": "202-877-3300", "brand": "Medstar Health", "brand:wikidata": "Q6804943"}, "geometry": {"type": "Point", "coordinates": [-77.014524, 38.9290521]}},
{"type": "Feature", "id": "axXbtb6UknHTvL0GoeIbx2OuYzQ=", "properties": {"ref": "plastic-surgery-medstar-southern-maryland-hospital-center", "@spider": "medstar", "addr:full": "7501 Surratts Road, Clinton, MD 20735", "addr:country": "US", "name": "MedStar Health: Plastic Surgery at MedStar Southern Maryland Hospital Center", "phone": "(301) 877-5607", "brand": "Medstar Health", "brand:wikidata": "Q6804943"}, "geometry": {"type": "Point", "coordinates": [-76.8758109, 38.7491301]}},
{"type": "Feature", "id": "wkSUL0MHBLx9sDlVAXl0YvzEch0=", "properties": {"ref": "plastic-surgery-medstar-montgomery-medical-center", "@spider": "medstar", "addr:full": "18101 Prince Philip Drive.,, Olney, MD 20832", "addr:country": "US", "name": "MedStar Health: Plastic Surgery at MedStar Montgomery Medical Center", "phone": "301-774-8962", "brand": "Medstar Health", "brand:wikidata": "Q6804943"}, "geometry": {"type": "Point", "coordinates": [-77.0547374, 39.1540614]}},
{"type": "Feature", "id": "7ezlFSbdeBZ17t_wGUmvV7HmDxI=", "properties": {"ref": "plastic-surgery-medstar-good-samaritan-hospital", "@spider": "medstar", "addr:full": "5601 Loch Raven Boulevard,  Baltimore, MD 21239", "addr:country": "US", "name": "MedStar Health: Plastic Surgery at MedStar Good Samaritan Hospital", "phone": "443-444-8000", "brand": "Medstar Health", "brand:wikidata": "Q6804943"}, "geometry": {"type": "Point", "coordinates": [-76.5875765, 39.3576792]}},
{"type": "Feature", "id": "YmPpk5kPkMMLo5FNVzfsvZzAnYs=", "properties": {"ref": "plastic-surgery-medstar-georgetown-university-hospital", "@spider": "medstar", "addr:full": "3800 Reservoir Road NW,, Washington, D.C., 20007", "addr:country": "US", "name": "MedStar Health: Plastic Surgery at MedStar Georgetown University Hospital", "phone": "202-444-8751", "brand": "Medstar Health", "brand:wikidata": "Q6804943"}, "geometry": {"type": "Point", "coordinates": [-77.0751693, 38.911464]}},
{"type": "Feature", "id": "XrkWsvZxgNzf1ifC8VY1ZSD7FMg=", "properties": {"ref": "plastic-surgery-medstar-franklin-square-medical-center", "@spider": "medstar", "addr:full": "9105 Franklin Square Drive, Rosedale, MD 21237", "addr:country": "US", "name": "MedStar Health: Plastic Surgery at MedStar Franklin Square Medical Center", "phone": "443-777-7631", "brand": "Medstar Health", "brand:wikidata": "Q6804943"}, "geometry": {"type": "Point", "coordinates": [-76.4767779, 39.3504144]}},
{"type": "Feature", "id": "imbolft6VP01MckaLUVPtt7R8yQ=", "properties": {"ref": "plastic-surgery-mclean", "@spider": "medstar", "addr:full": "6862 Elm Street, McLean, VA 22101", "addr:country": "US", "name": "MedStar Health: Plastic Surgery at McLean", "phone": "703-288-7070", "brand": "Medstar Health", "brand:wikidata": "Q6804943"}, "geometry": {"type": "Point", "coordinates": [-77.1809128, 38.9370527]}},
{"type": "Feature", "id": "u8aVVzTTpC9BxhOhgCCaoGnAoXE=", "properties": {"ref": "physical-therapy-westminster", "@spider": "medstar", "addr:full": "412 Malcolm Dr., Westminster, MD  21157", "addr:country": "US", "name": "MedStar Health: Physical Therapy at Westminster", "phone": "410-751-7930", "brand": "Medstar Health", "brand:wikidata": "Q6804943"}, "geometry": {"type": "Point", "coordinates": [-76.9797809, 39.5625503]}},
{"type": "Feature", "id": "BbGLgqRvRu0wA15tjt3Pj3TfdJg=", "properties": {"ref": "physical-therapy-waverly", "@spider": "medstar", "addr:full": "1100 East 33rd St., Baltimore, MD 21218", "addr:country": "US", "name": "MedStar Health: Physical Therapy at Waverly", "phone": "410-366-0791", "brand": "Medstar Health", "brand:wikidata": "Q6804943"}, "geometry": {"type": "Point", "coordinates": [-76.6010599, 39.3292779]}},
{"type": "Feature", "id": "BWx7PrcEf_-WGkNRVzEQkOYUWJY=", "properties": {"ref": "physical-therapy-waugh-chapel", "@spider": "medstar", "addr:full": "2410 Evergreen Rd., Gambrills, MD 21054", "addr:country": "US", "name": "MedStar Health: Physical Therapy at Waugh Chapel", "phone": "410-451-8150", "brand": "Medstar Health", "brand:wikidata": "Q6804943"}, "geometry": {"type": "Point", "coordinates": [-76.69007, 39.031995]}},
{"type": "Feature", "id": "C8weP62f1-x4H3mZAQmZNX4OCH4=", "properties": {"ref": "physical-therapy-waldorf-pembrooke-square", "@spider": "medstar", "addr:full": "11325 Pembrooke Square, Waldorf, MD 20603", "addr:country": "US", "name": "MedStar Health: Physical Therapy at Waldorf \u2013 Pembrooke Square", "phone": "301-719-1146", "brand": "Medstar Health", "brand:wikidata": "Q6804943"}, "geometry": {"type": "Point", "coordinates": [-76.9173543, 38.6174752]}},
{"type": "Feature", "id": "PL7lX5iH6j1TdOya3xYmKQQ3jXY=", "properties": {"ref": "physical-therapy-waldorf", "@spider": "medstar", "addr:full": "3 Post Office Rd., Waldorf, MD 20602", "addr:country": "US", "name": "MedStar Health: Physical Therapy at Waldorf", "phone": "301-893-2345", "brand": "Medstar Health", "brand:wikidata": "Q6804943"}, "geometry": {"type": "Point", "coordinates": [-76.9003337, 38.6177209]}},
{"type": "Feature", "id": "MDiS9pyx9q_Ak5BaMUfokQ2j0I0=", "properties": {"ref": "physical-therapy-timonium", "@spider": "medstar", "addr:full": "2118 Greenspring Dr., Lutherville-Timonium, MD 21093", "addr:country": "US", "name": "MedStar Health: Physical Therapy at Timonium", "phone": "410-512-5820", "brand": "Medstar Health", "brand:wikidata": "Q6804943"}, "geometry": {"type": "Point", "coordinates": [-76.632682, 39.4412218]}},
{"type": "Feature", "id": "6mdsRTyAU5YRBguzoCLHo_Vw6bk=", "properties": {"ref": "physical-therapy-springfield", "@spider": "medstar", "addr:full": "6805 Industrial Rd., Springfield, VA 22151", "addr:country": "US", "name": "MedStar Health: Physical Therapy at Springfield", "phone": "703-256-2171", "brand": "Medstar Health", "brand:wikidata": "Q6804943"}, "geometry": {"type": "Point", "coordinates": [-77.1803361, 38.7967952]}},
{"type": "Feature", "id": "otx-lvwWvj4gyTrur8hImRrTspc=", "properties": {"ref": "physical-therapy-south-baltimore", "@spider": "medstar", "addr:full": "2900 South Hanover St., Baltimore, MD 21225", "addr:country": "US", "name": "MedStar Health: Physical Therapy at South Baltimore", "phone": "410-350-8372", "brand": "Medstar Health", "brand:wikidata": "Q6804943"}, "geometry": {"type": "Point", "coordinates": [-76.6161796, 39.2519289]}},
{"type": "Feature", "id": "ZGZgroe_3mUQ8CMYj0aEA-xOpPQ=", "properties": {"ref": "physical-therapy-rosedale", "@spider": "medstar", "addr:full": "9101 Franklin Square Dr., Baltimore, MD 21237", "addr:country": "US", "name": "MedStar Health: Physical Therapy at Rosedale \u2013 Orthopedic and Hand Center", "phone": "443-777-6766", "brand": "Medstar Health", "brand:wikidata": "Q6804943"}, "geometry": {"type": "Point", "coordinates": [-76.4795247, 39.3510485]}},
{"type": "Feature", "id": "Z9yF9mOmgGQvEgbjllmYxiSrNis=", "properties": {"ref": "physical-therapy-potomac", "@spider": "medstar", "addr:full": "12400 Park Potomac Ave., Potomac, MD 20854", "addr:country": "US", "name": "MedStar Health: Physical Therapy at Potomac", "phone": "301-581-8057", "brand": "Medstar Health", "brand:wikidata": "Q6804943"}, "geometry": {"type": "Point", "coordinates": [-77.15845, 39.06066]}},
{"type": "Feature", "id": "nWHkr3Ai1jqW6P6F8EcZgT2-9PU=", "properties": {"ref": "physical-therapy-pikesville", "@spider": "medstar", "addr:full": "1838 Greene Tree Rd.,, Pikesville, MD 21208", "addr:country": "US", "name": "MedStar Health: Physical Therapy at Pikesville", "phone": "410-753-3317", "brand": "Medstar Health", "brand:wikidata": "Q6804943"}, "geometry": {"type": "Point", "coordinates": [-76.736277, 39.3907089]}},
{"type": "Feature", "id": "0lJ1pNGPTEo5kY9cON10zJUtVtc=", "properties": {"ref": "physical-therapy-perry-hall", "@spider": "medstar", "addr:full": "5009 Honeygo Center Dr.,, Perry Hall, MD  21128", "addr:country": "US", "name": "MedStar Health: Physical Therapy at Perry Hall", "phone": "443-725-2150", "brand": "Medstar Health", "brand:wikidata": "Q6804943"}, "geometry": {"type": "Point", "coordinates": [-76.4421185, 39.4046649]}},
{"type": "Feature", "id": "8qcNT-cvpVUOefepY8Qm_E7wryM=", "properties": {"ref": "physical-therapy-pasadena", "@spider": "medstar", "addr:full": "8028 Ritchie Hwy., Pasadena, MD 21122", "addr:country": "US", "name": "MedStar Health: Physical Therapy at Pasadena", "phone": "410-590-8750", "brand": "Medstar Health", "brand:wikidata": "Q6804943"}, "geometry": {"type": "Point", "coordinates": [-76.5937464, 39.1277994]}},
{"type": "Feature", "id": "RnuMjkpGGeesuI-CytiwECwFq20=", "properties": {"ref": "physical-therapy-oxon-hill", "@spider": "medstar", "addr:full": "6196 Oxon Hill Rd.,, Oxon Hill, MD  20745", "addr:country": "US", "name": "MedStar Health: Physical Therapy at Oxon Hill", "phone": "301-839-0400", "brand": "Medstar Health", "brand:wikidata": "Q6804943"}, "geometry": {"type": "Point", "coordinates": [-76.9827007, 38.8035133]}},
{"type": "Feature", "id": "7zFZw_P3lOf7S_Sm7MniD-NRF_o=", "properties": {"ref": "physical-therapy-olney", "@spider": "medstar", "addr:full": "18109 Prince Philip Dr., Olney, MD  20832", "addr:country": "US", "name": "MedStar Health: Physical Therapy at Olney", "phone": "301-260-3280", "brand": "Medstar Health", "brand:wikidata": "Q6804943"}, "geometry": {"type": "Point", "coordinates": [-77.0543573, 39.153421]}},
{"type": "Feature", "id": "bJfBDw8PuvD-HVQWb6JFMd2aMdY=", "properties": {"ref": "physical-therapy-navy-yard", "@spider": "medstar", "addr:full": "925 Half Street SE, Washington, DC, 20003", "addr:country": "US", "name": "MedStar Health: Physical Therapy at Navy Yard", "phone": "202-921-9730", "brand": "Medstar Health", "brand:wikidata": "Q6804943"}, "geometry": {"type": "Point", "coordinates": [-77.007783, 38.878822]}},
{"type": "Feature", "id": "0URZBOUQ3ymremABWPhed9siO_Q=", "properties": {"ref": "physical-therapy-mitchellville", "@spider": "medstar", "addr:full": "12158 Central Ave., Mitchellville, MD 20721", "addr:country": "US", "name": "MedStar Health: Physical Therapy at Mitchellville", "phone": "301-390-3076", "brand": "Medstar Health", "brand:wikidata": "Q6804943"}, "geometry": {"type": "Point", "coordinates": [-76.7951191, 38.9009983]}},
{"type": "Feature", "id": "R7wA3-CJbrvnOXGAxz__4dEFWbQ=", "properties": {"ref": "physical-therapy-at-medstar-good-samaritan-hospital", "@spider": "medstar", "addr:full": "5601 Loch Raven Blvd., Baltimore, MD  21239", "addr:country": "US", "name": "MedStar Health: Physical Therapy at MedStar Good Samaritan Hospital", "phone": "443-444-4600", "brand": "Medstar Health", "brand:wikidata": "Q6804943"}, "geometry": {"type": "Point", "coordinates": [-76.5866851, 39.3581093]}},
{"type": "Feature", "id": "zkAVNA0UOW5NpucEG9VBMqZiJWs=", "properties": {"ref": "physical-therapy-at-medstar-franklin-square-medical-center", "@spider": "medstar", "addr:full": "9105 Franklin Square Dr., Baltimore, MD 21237", "addr:country": "US", "name": "MedStar Health: Physical Therapy at MedStar Franklin Square Medical Center", "phone": "443-777-7750", "brand": "Medstar Health", "brand:wikidata": "Q6804943"}, "geometry": {"type": "Point", "coordinates": [-76.4766848, 39.3505444]}},
{"type": "Feature", "id": "TxXAnk5pw9rqmFPoj1OKfZPcVCE=", "properties": {"ref": "physical-therapy-mclean", "@spider": "medstar", "addr:full": "6858 Old Dominion Dr., McLean, VA 22101", "addr:country": "US", "name": "MedStar Health: Physical Therapy at McLean", "phone": "703-288-8260", "brand": "Medstar Health", "brand:wikidata": "Q6804943"}, "geometry": {"type": "Point", "coordinates": [-77.1818562, 38.9359941]}},
{"type": "Feature", "id": "qZUIp6pjkTC1P7563cL1mnp5yUU=", "properties": {"ref": "physical-therapy-lutherville-hand-center", "@spider": "medstar", "addr:full": "1400 Front Ave., Lutherville, MD  21093", "addr:country": "US", "name": "MedStar Health: Physical Therapy at Lutherville \u2013 Hand Center", "phone": "410-823-4263", "brand": "Medstar Health", "brand:wikidata": "Q6804943"}, "geometry": {"type": "Point", "coordinates": [-76.6330324, 39.419922]}},
{"type": "Feature", "id": "Uj2LZNyAJrp5YgHlIR-VJwXeyNo=", "properties": {"ref": "physical-therapy-lorton", "@spider": "medstar", "addr:full": "9455 Lorton Market St., Lorton, VA  22079", "addr:country": "US", "name": "MedStar Health: Physical Therapy at Lorton", "phone": "703-647-3120", "brand": "Medstar Health", "brand:wikidata": "Q6804943"}, "geometry": {"type": "Point", "coordinates": [-77.2216991, 38.7003034]}},
{"type": "Feature", "id": "FdIGDmrrn_wDwZqRXTdj_pwf5HI=", "properties": {"ref": "physical-therapy-loch-raven-orthopedic-center", "@spider": "medstar", "addr:full": "5445 Loch Raven Blvd, Baltimore, MD 21239", "addr:country": "US", "name": "MedStar Health: Physical Therapy at Loch Raven \u2014 Orthopedic and Hand Center", "phone": "443-444-5757", "brand": "Medstar Health", "brand:wikidata": "Q6804943"}, "geometry": {"type": "Point", "coordinates": [-76.5866851, 39.3581093]}},
{"type": "Feature", "id": "4BhShVbRlUsApzauTrj0VLR4_-4=", "properties": {"ref": "physical-therapy-leisure-world", "@spider": "medstar", "addr:full": "3305 North Leisure World Blvd., Silver Spring, MD 20906", "addr:country": "US", "name": "MedStar Health: Physical Therapy at Leisure World", "phone": "301-438-6280", "brand": "Medstar Health", "brand:wikidata": "Q6804943"}, "geometry": {"type": "Point", "coordinates": [-77.0651259, 39.1091214]}},
{"type": "Feature", "id": "CrifpAz3L9-31XDtm51H4_CMFwU=", "properties": {"ref": "physical-therapy-lake-ridge", "@spider": "medstar", "addr:full": "12825 Minnieville Rd., Lake Ridge, VA 22192", "addr:country": "US", "name": "MedStar Health: Physical Therapy at Lake Ridge", "phone": "703-647-3130", "brand": "Medstar Health", "brand:wikidata": "Q6804943"}, "geometry": {"type": "Point", "coordinates": [-77.2779592, 38.6728765]}},
{"type": "Feature", "id": "m1x3Gf-OvSoSaCqU7C-Nixa8f_I=", "properties": {"ref": "physical-therapy-lafayette-centre", "@spider": "medstar", "addr:full": "1120 20th St., NW, Washington, D.C., 20036", "addr:country": "US", "name": "MedStar Health: Physical Therapy at Lafayette Centre", "phone": "202-416-2110", "brand": "Medstar Health", "brand:wikidata": "Q6804943"}, "geometry": {"type": "Point", "coordinates": [-77.0453824, 38.9043611]}},
{"type": "Feature", "id": "VnSNWo2c4AMTeuDhVw3QzBVZS6Y=", "properties": {"ref": "physical-therapy-irving-street-orthopedic-center", "@spider": "medstar", "addr:full": "MedStar National Rehabilitation Hospital, Washington, D.C., 20010", "addr:country": "US", "name": "MedStar Health: Physical Therapy at Irving Street \u2013 Orthopedic Center", "phone": "202-877-1566", "brand": "Medstar Health", "brand:wikidata": "Q6804943"}, "geometry": {"type": "Point", "coordinates": [-77.0133786, 38.930509]}},
{"type": "Feature", "id": "OMr6IXwM_XGNV51MTNiLAJhLAoo=", "properties": {"ref": "physical-therapy-irving-street-neurorehabilitation-center", "@spider": "medstar", "addr:full": "102 Irving St., NW, Washington, D.C.,  20010", "addr:country": "US", "name": "MedStar Health: Physical Therapy at Irving Street \u2013 Neurorehabilitation Center", "phone": "202-877-1760", "brand": "Medstar Health", "brand:wikidata": "Q6804943"}, "geometry": {"type": "Point", "coordinates": [-77.0133786, 38.930509]}},
{"type": "Feature", "id": "f-Hkqlovwb3v97eaIl_9QcOmiyw=", "properties": {"ref": "physical-therapy-irving-street-hand-center", "@spider": "medstar", "addr:full": "106 Irving St., NW, Washington, D.C.,  20010", "addr:country": "US", "name": "MedStar Health: Physical Therapy at Irving Street \u2013 Hand Center", "phone": "202-877-3322", "brand": "Medstar Health", "brand:wikidata": "Q6804943"}, "geometry": {"type": "Point", "coordinates": [-77.014524, 38.9290521]}},
{"type": "Feature", "id": "9_VfEYbprpqp1gVU-LQzA95iAyE=", "properties": {"ref": "physical-therapy-hyattsville", "@spider": "medstar", "addr:full": "6401 America Blvd., Hyattsville, MD 20782", "addr:country": "US", "name": "MedStar Health: Physical Therapy at Hyattsville", "phone": "301-276-8840", "brand": "Medstar Health", "brand:wikidata": "Q6804943"}, "geometry": {"type": "Point", "coordinates": [-76.9520178, 38.9673697]}},
{"type": "Feature", "id": "hUGtBjfpziqqDcxeW8sdZMvMDeA=", "properties": {"ref": "physical-therapy-hunt-valley", "@spider": "medstar", "addr:full": "2 Loveton Circle, Sparks, MD 21152", "addr:country": "US", "name": "MedStar Health: Physical Therapy at Hunt Valley", "phone": "410-472-2672", "brand": "Medstar Health", "brand:wikidata": "Q6804943"}, "geometry": {"type": "Point", "coordinates": [-76.6451518, 39.521305]}},
{"type": "Feature", "id": "fRC2Ez5pK5WnQahElrUQsUEG2cY=", "properties": {"ref": "physical-therapy-hollywood", "@spider": "medstar", "addr:full": "24035 Three Notch Rd., Hollywood, MD  20636", "addr:country": "US", "name": "MedStar Health: Physical Therapy at Hollywood", "phone": "301-373-2588", "brand": "Medstar Health", "brand:wikidata": "Q6804943"}, "geometry": {"type": "Point", "coordinates": [-76.5524035, 38.3266374]}},
{"type": "Feature", "id": "uK_Rr-PIbassRWE10hw_VMNt_5o=", "properties": {"ref": "physical-therapy-gambrills", "@spider": "medstar", "addr:full": "740 MD-3 South, Gambrills, MD  21054", "addr:country": "US", "name": "MedStar Health: Physical Therapy at Gambrills", "phone": "443-645-3162", "brand": "Medstar Health", "brand:wikidata": "Q6804943"}, "geometry": {"type": "Point", "coordinates": [-76.6635156, 39.050857]}},