{"type":"FeatureCollection","features":[{"type": "Feature", "id": "0g_fNsLu7KwiT3TlEepc41nKRsY=", "properties": {"ref": "00-3561", "@spider": "merkur", "addr:full": "Roemerstrasse 1a", "addr:city": "Woellersdorf", "addr:state": "Niederoesterreich", "addr:postcode": "2752", "addr:country": "AT", "name": "BILLA AG FIL. 3561", "phone": "059915 03561", "brand": "Merkur", "brand:wikidata": "Q1921857"}, "geometry": {"type": "Point", "coordinates": [16.19422, 47.85247]}},
{"type": "Feature", "id": "2V9dfGorJCgvz2r-O2NOX5GbUzE=", "properties": {"ref": "00-1207", "@spider": "merkur", "addr:full": "Sagedergasse 18-22 .", "addr:city": "Wien", "addr:state": "Wien", "addr:postcode": "1120", "addr:country": "AT", "name": "BILLA AG FIL. 1207", "phone": "059915 01207", "brand": "Merkur", "brand:wikidata": "Q1921857"}, "geometry": {"type": "Point", "coordinates": [16.319521, 48.161532]}},
{"type": "Feature", "id": "qooP_BaZg-r-0cY0n5n1bNtsZ1E=", "properties": {"ref": "00-7249", "@spider": "merkur", "addr:full": "Neudorfstrasse 2-4", "addr:city": "Parndorf", "addr:state": "Burgenland", "addr:postcode": "7111", "addr:country": "AT", "name": "BILLA AG FIL. 7249", "phone": "059915 07249", "brand": "Merkur", "brand:wikidata": "Q1921857"}, "geometry": {"type": "Point", "coordinates": [16.85868, 47.99308]}},
{"type": "Feature", "id": "8M4uOCmocmrIJSOZWY86QTIAyaE=", "properties": {"ref": "00-4519", "@spider": "merkur", "addr:full": "Ort 64", "addr:city": "Ampflwang Im Hausruckwald", "addr:state": "Oberoesterreich", "addr:postcode": "4843", "addr:country": "AT", "name": "BILLA AG FIL. 4519", "phone": "059915 04519", "brand": "Merkur", "brand:wikidata": "Q1921857"}, "geometry": {"type": "Point", "coordinates": [13.56495, 48.08148]}},
{"type": "Feature", "id": "XekyjSR9nTf-kSAGfnJ_qCHdA1s=", "properties": {"ref": "00-2306", "@spider": "merkur", "addr:full": "Breitenfurter Strasse 146", "addr:city": "Wien", "addr:state": "Wien", "addr:postcode": "1230", "addr:country": "AT", "name": "BILLA AG FIL. 2306", "phone": "059915 02306", "brand": "Merkur", "brand:wikidata": "Q1921857"}, "geometry": {"type": "Point", "coordinates": [16.30361, 48.15611]}},
{"type": "Feature", "id": "My0zPUXMaVpquqwrdprjfJbQ0jU=", "properties": {"ref": "00-3071", "@spider": "merkur", "addr:full": "Wally Neuzil Platz 1", "addr:city": "Tattendorf", "addr:state": "Niederoesterreich", "addr:postcode": "2523", "addr:country": "AT", "name": "BILLA AG FIL. 3071", "phone": "059915 03071", "brand": "Merkur", "brand:wikidata": "Q1921857"}, "geometry": {"type": "Point", "coordinates": [16.3043775332655, 47.9567532]}},
{"type": "Feature", "id": "JsmvMx9q7gLHs-gDptgWiH_Pn90=", "properties": {"ref": "00-8012", "@spider": "merkur", "addr:full": "Grazer Strasse 3 - B 116", "addr:city": "Bruck An Der Mur", "addr:state": "Steiermark", "addr:postcode": "8600", "addr:country": "AT", "name": "BILLA AG FIL. 8012", "phone": "059915 08012", "brand": "Merkur", "brand:wikidata": "Q1921857"}, "geometry": {"type": "Point", "coordinates": [15.2746387, 47.4083803]}},
{"type": "Feature", "id": "AYFkFaJ64dHKjZeKzwN01oZ39bw=", "properties": {"ref": "00-3659", "@spider": "merkur", "addr:full": "Schraubenwerkstrasse 3", "addr:city": "Neunkirchen", "addr:state": "Niederoesterreich", "addr:postcode": "2620", "addr:country": "AT", "name": "BILLA AG FIL. 3659", "phone": "059915 03659", "brand": "Merkur", "brand:wikidata": "Q1921857"}, "geometry": {"type": "Point", "coordinates": [16.0783784, 47.7234795]}},
{"type": "Feature", "id": "kIrrOrKRuOrWMKysRLcKQvrjJkU=", "properties": {"ref": "00-3856", "@spider": "merkur", "addr:full": "Angerner Bundesstrasse 6", "addr:city": "Deutsch-Wagram", "addr:state": "Niederoesterreich", "addr:postcode": "2232", "addr:country": "AT", "name": "BILLA AG FIL. 3856", "phone": "059915 03856", "brand": "Merkur", "brand:wikidata": "Q1921857"}, "geometry": {"type": "Point", "coordinates": [16.555439, 48.294652]}},
{"type": "Feature", "id": "thGF-m7qlchkpZSiTeiwiKv2xlQ=", "properties": {"ref": "00-7757", "@spider": "merkur", "addr:full": "Voelkermarkterstr. 186", "addr:city": "Klagenfurt", "addr:state": "Kaernten", "addr:postcode": "9020", "addr:country": "AT", "name": "BILLA AG FIL. 7757", "phone": "059915 07757", "brand": "Merkur", "brand:wikidata": "Q1921857"}, "geometry": {"type": "Point", "coordinates": [14.3483, 46.62761]}},
{"type": "Feature", "id": "CYZXc_l_YLLMS7TQElE6yVvmimo=", "properties": {"ref": "00-7811", "@spider": "merkur", "addr:full": "Miegererstr.38", "addr:city": "Ebental", "addr:state": "Kaernten", "addr:postcode": "9065", "addr:country": "AT", "name": "BILLA AG FIL. 7811", "phone": "059915 07811", "brand": "Merkur", "brand:wikidata": "Q1921857"}, "geometry": {"type": "Point", "coordinates": [14.36162, 46.61022]}},
{"type": "Feature", "id": "ycxkLH7IIk12WX7_HOhkujA0j2Y=", "properties": {"ref": "00-8030", "@spider": "merkur", "addr:full": "Am Marienplatz 346", "addr:city": "Mayrhofen", "addr:state": "Tirol", "addr:postcode": "6290", "addr:country": "AT", "name": "BILLA AG FIL. 8030", "phone": "059915 08030", "brand": "Merkur", "brand:wikidata": "Q1921857"}, "geometry": {"type": "Point", "coordinates": [11.86552, 47.16729]}},
{"type": "Feature", "id": "zSDNsnPsnrxqY-CfR5RomEq0Ec4=", "properties": {"ref": "00-8102", "@spider": "merkur", "addr:full": "Hammerschmiedstrasse 3-5", "addr:city": "Kitzbuehel", "addr:state": "Tirol", "addr:postcode": "6370", "addr:country": "AT", "name": "BILLA AG FIL. 8102", "phone": "059915 08102", "brand": "Merkur", "brand:wikidata": "Q1921857"}, "geometry": {"type": "Point", "coordinates": [12.39492, 47.4451]}},
{"type": "Feature", "id": "r0EaA9clf3MVh7MII6fdDHhPnZg=", "properties": {"ref": "00-8177", "@spider": "merkur", "addr:full": "Huettfeldstrasse 16", "addr:city": "Koessen", "addr:state": "Tirol", "addr:postcode": "6345", "addr:country": "AT", "name": "BILLA AG FIL. 8177", "phone": "059915 08177", "brand": "Merkur", "brand:wikidata": "Q1921857"}, "geometry": {"type": "Point", "coordinates": [12.40902, 47.66749]}},
{"type": "Feature", "id": "FpcLSnbge2COOEo88VCqyeFm9Ic=", "properties": {"ref": "00-8243", "@spider": "merkur", "addr:full": "Stubaitalstr.92", "addr:city": "Neustift Im Stu", "addr:state": "Tirol", "addr:postcode": "6167", "addr:country": "AT", "name": "BILLA AG FIL. 8243", "phone": "059915 08243", "brand": "Merkur", "brand:wikidata": "Q1921857"}, "geometry": {"type": "Point", "coordinates": [11.3076594, 47.1103362]}},
{"type": "Feature", "id": "53fQwjPd9Wlo8XMwbJ6IpeAuLlE=", "properties": {"ref": "00-8441", "@spider": "merkur", "addr:full": "Umfahrungsstrasse 294", "addr:city": "Bad Aussee", "addr:state": "Steiermark", "addr:postcode": "8990", "addr:country": "AT", "name": "BILLA AG FIL. 8441", "phone": "059915 08441", "brand": "Merkur", "brand:wikidata": "Q1921857"}, "geometry": {"type": "Point", "coordinates": [13.77559, 47.60719]}},
{"type": "Feature", "id": "Cmyh0kLBuwwExR3zOPn5NYWZeFE=", "properties": {"ref": "00-9118", "@spider": "merkur", "addr:full": "Gewerbepark 1", "addr:city": "Aschbach Markt", "addr:state": "Niederoesterreich", "addr:postcode": "3361", "addr:country": "AT", "name": "BILLA AG FIL. 9118", "phone": "059915 09118", "brand": "Merkur", "brand:wikidata": "Q1921857"}, "geometry": {"type": "Point", "coordinates": [14.74172, 48.07363]}},
{"type": "Feature", "id": "O40M2kmyKvZD_Lj2iCOoT2kVLXI=", "properties": {"ref": "00-9225", "@spider": "merkur", "addr:full": "Tullnerstrasse 36", "addr:city": "Zwentendorf-Erp", "addr:state": "Niederoesterreich", "addr:postcode": "3435", "addr:country": "AT", "name": "BILLA AG FIL. 9225", "phone": "059915 09225", "brand": "Merkur", "brand:wikidata": "Q1921857"}, "geometry": {"type": "Point", "coordinates": [15.91922, 48.34172]}},
{"type": "Feature", "id": "xgUZg-uim3GjfwvBXTO8k8gBP7k=", "properties": {"ref": "00-9589", "@spider": "merkur", "addr:full": "Waidhofnerstrasse 25", "addr:city": "Hilm", "addr:state": "Niederoesterreich", "addr:postcode": "3331", "addr:country": "AT", "name": "BILLA AG FIL. 9589", "phone": "059915 09589", "brand": "Merkur", "brand:wikidata": "Q1921857"}, "geometry": {"type": "Point", "coordinates": [14.75724, 48.02187]}},
{"type": "Feature", "id": "TS5AQM4QXw4S4EZZIeLuaG00kyA=", "properties": {"ref": "00-9688", "@spider": "merkur", "addr:full": "Laaerstrasse 48", "addr:city": "Haugsdorf", "addr:state": "Niederoesterreich", "addr:postcode": "2054", "addr:country": "AT", "name": "BILLA AG FIL. 9688", "phone": "059915 09688", "brand": "Merkur", "brand:wikidata": "Q1921857"}, "geometry": {"type": "Point", "coordinates": [16.08348, 48.70334]}},
{"type": "Feature", "id": "ymf9WkzLbGfresu_N8dqLGHslJ4=", "properties": {"ref": "00-1198", "@spider": "merkur", "addr:full": "Geiselbergstr. 34-36", "addr:city": "Wien", "addr:state": "Wien", "addr:postcode": "1110", "addr:country": "AT", "name": "BILLA AG FIL. 1198", "phone": "059915 01198", "brand": "Merkur", "brand:wikidata": "Q1921857"}, "geometry": {"type": "Point", "coordinates": [16.40318, 48.174563]}},
{"type": "Feature", "id": "eYeRtUidZ3RjHz3VNlCxhm9qHf8=", "properties": {"ref": "00-440", "@spider": "merkur", "addr:full": "Rechte Wienzeile 9-9a", "addr:city": "Wien", "addr:state": "Wien", "addr:postcode": "1040", "addr:country": "AT", "name": "BILLA AG FIL. 440", "phone": "059915 00440", "brand": "Merkur", "brand:wikidata": "Q1921857"}, "geometry": {"type": "Point", "coordinates": [16.364863, 48.198865]}},
{"type": "Feature", "id": "rdVykhfjVNUAFjDyeaKPnM7KOy8=", "properties": {"ref": "00-778", "@spider": "merkur", "addr:full": "Neubauguertel 38", "addr:city": "Wien", "addr:state": "Wien", "addr:postcode": "1070", "addr:country": "AT", "name": "BILLA AG FIL. 778", "phone": "059915 00778", "brand": "Merkur", "brand:wikidata": "Q1921857"}, "geometry": {"type": "Point", "coordinates": [16.3383595, 48.2010264]}},
{"type": "Feature", "id": "P4JAb9mHK1Cb8ivhi7taoQi_QW4=", "properties": {"ref": "00-1016", "@spider": "merkur", "addr:full": "Kudlichgasse 39", "addr:city": "Wien", "addr:state": "Wien", "addr:postcode": "1100", "addr:country": "AT", "name": "BILLA AG FIL. 1016", "phone": "059915 01016", "brand": "Merkur", "brand:wikidata": "Q1921857"}, "geometry": {"type": "Point", "coordinates": [16.38199, 48.1729]}},
{"type": "Feature", "id": "0PZoxUVfywDtrgEMHPwbLiIVGpE=", "properties": {"ref": "00-141", "@spider": "merkur", "addr:full": "Franz Josefs Kai 29", "addr:city": "Wien", "addr:state": "Wien", "addr:postcode": "1010", "addr:country": "AT", "name": "BILLA AG FIL. 141", "phone": "059915 00141", "brand": "Merkur", "brand:wikidata": "Q1921857"}, "geometry": {"type": "Point", "coordinates": [16.3748774, 48.2121451]}},
{"type": "Feature", "id": "LAPF5vUAvtjvXl7McwvTpigUVhY=", "properties": {"ref": "00-2188", "@spider": "merkur", "addr:full": "Bruennerstrasse 22", "addr:city": "Wien", "addr:state": "Wien", "addr:postcode": "1210", "addr:country": "AT", "name": "BILLA AG FIL. 2188", "phone": "059915 02188", "brand": "Merkur", "brand:wikidata": "Q1921857"}, "geometry": {"type": "Point", "coordinates": [16.40068, 48.26055]}},
{"type": "Feature", "id": "WdMVjL4T2YyCnK9zcusAACFaSZg=", "properties": {"ref": "00-1024", "@spider": "merkur", "addr:full": "Holbeingasse 2-4", "addr:city": "Wien", "addr:state": "Wien", "addr:postcode": "1100", "addr:country": "AT", "name": "BILLA AG FIL. 1024", "phone": "059915 01024", "brand": "Merkur", "brand:wikidata": "Q1921857"}, "geometry": {"type": "Point", "coordinates": [16.36145, 48.17152]}},
{"type": "Feature", "id": "cC09KnKK-b0yVEF922kZi3LG0nc=", "properties": {"ref": "00-7609", "@spider": "merkur", "addr:full": "St.Veiterstrasse 2", "addr:city": "Feldkirchen", "addr:state": "Kaernten", "addr:postcode": "9560", "addr:country": "AT", "name": "BILLA AG FIL. 7609", "phone": "059915 07609", "brand": "Merkur", "brand:wikidata": "Q1921857"}, "geometry": {"type": "Point", "coordinates": [14.10072, 46.72265]}},
{"type": "Feature", "id": "_G_Dl1_0ZkLLYW02fF-DbcRgudU=", "properties": {"ref": "00-6012", "@spider": "merkur", "addr:full": "Muenzgrabenstrasse", "addr:city": "Graz", "addr:state": "Steiermark", "addr:postcode": "8010", "addr:country": "AT", "name": "BILLA AG FIL. 6012", "phone": "059915 06012", "brand": "Merkur", "brand:wikidata": "Q1921857"}, "geometry": {"type": "Point", "coordinates": [15.45185, 47.05961]}},
{"type": "Feature", "id": "mKgIwv2t1ZpD3cxO2RJK2EyW17k=", "properties": {"ref": "00-6011", "@spider": "merkur", "addr:full": "Schoenaugasse 139-141", "addr:city": "Graz", "addr:state": "Steiermark", "addr:postcode": "8010", "addr:country": "AT", "name": "BILLA AG FIL. 6011", "phone": "059915 06011", "brand": "Merkur", "brand:wikidata": "Q1921857"}, "geometry": {"type": "Point", "coordinates": [15.44265, 47.05455]}},
{"type": "Feature", "id": "LkCB8rskbmAWRWad8eTiWc9d1oQ=", "properties": {"ref": "00-6705", "@spider": "merkur", "addr:full": "Pestalozzistrasse 71", "addr:city": "Leoben", "addr:state": "Steiermark", "addr:postcode": "8704", "addr:country": "AT", "name": "BILLA AG FIL. 6705", "phone": "059915 06705", "brand": "Merkur", "brand:wikidata": "Q1921857"}, "geometry": {"type": "Point", "coordinates": [15.07361, 47.37583]}},
{"type": "Feature", "id": "4TUR5AgqkkX_eESfFn0yfW9lqyU=", "properties": {"ref": "00-6910", "@spider": "merkur", "addr:full": "Fronleichnamsweg 11", "addr:city": "Liezen", "addr:state": "Steiermark", "addr:postcode": "8940", "addr:country": "AT", "name": "BILLA AG FIL. 6910", "phone": "059915 06910", "brand": "Merkur", "brand:wikidata": "Q1921857"}, "geometry": {"type": "Point", "coordinates": [14.2394465, 47.5654993]}},
{"type": "Feature", "id": "mjiLIhB86VSpN0wR9II8OEI90zw=", "properties": {"ref": "00-2098", "@spider": "merkur", "addr:full": "Engerthstrasse 59 A", "addr:city": "Wien", "addr:state": "Wien", "addr:postcode": "1200", "addr:country": "AT", "name": "BILLA AG FIL. 2098", "phone": "059915 02098", "brand": "Merkur", "brand:wikidata": "Q1921857"}, "geometry": {"type": "Point", "coordinates": [16.383558, 48.2417084]}},
{"type": "Feature", "id": "vTgXbZ7lXxdMNnlLHSpMT2Sbw5A=", "properties": {"ref": "00-3234", "@spider": "merkur", "addr:full": "Wiener Strasse 127", "addr:city": "Brunn Am Gebirge", "addr:state": "Niederoesterreich", "addr:postcode": "2345", "addr:country": "AT", "name": "BILLA AG FIL. 3234", "phone": "059915 03234", "brand": "Merkur", "brand:wikidata": "Q1921857"}, "geometry": {"type": "Point", "coordinates": [16.300551, 48.112492]}},
{"type": "Feature", "id": "0DfUJqaKVaskBPP6v0ZLSyzUuLk=", "properties": {"ref": "00-367", "@spider": "merkur", "addr:full": "Landstrasser Hauptstrasse 89", "addr:city": "Wien", "addr:state": "Wien", "addr:postcode": "1030", "addr:country": "AT", "name": "BILLA AG FIL. 367", "phone": "059915 00367", "brand": "Merkur", "brand:wikidata": "Q1921857"}, "geometry": {"type": "Point", "coordinates": [16.394153, 48.19958]}},
{"type": "Feature", "id": "pU8TFlBOYTIRlg6pg5WVVf-JUHg=", "properties": {"ref": "00-3987", "@spider": "merkur", "addr:full": "Goelsentalstrasse 58", "addr:city": "Sankt Veit An Der Goelsen", "addr:state": "Niederoesterreich", "addr:postcode": "3161", "addr:country": "AT", "name": "BILLA AG FIL. 3987", "phone": "059915 03987", "brand": "Merkur", "brand:wikidata": "Q1921857"}, "geometry": {"type": "Point", "coordinates": [15.6640604, 48.0464463]}},
{"type": "Feature", "id": "a8FD5JnsKDOAYCtW2Eje1bRJem8=", "properties": {"ref": "00-7767", "@spider": "merkur", "addr:full": "Woerthersee Sueduferstr. 60", "addr:city": "Klagenfurt", "addr:state": "Kaernten", "addr:postcode": "9020", "addr:country": "AT", "name": "BILLA AG FIL. 7767", "phone": "059915 07767", "brand": "Merkur", "brand:wikidata": "Q1921857"}, "geometry": {"type": "Point", "coordinates": [14.2559066, 46.6066852]}},
{"type": "Feature", "id": "rdrMXF6Jh3hqWGDZlGqaNhRei6c=", "properties": {"ref": "00-5113", "@spider": "merkur", "addr:full": "Holzhauserweg 2", "addr:city": "Lamprechtshausen", "addr:state": "Salzburg", "addr:postcode": "5112", "addr:country": "AT", "name": "BILLA AG FIL. 5113", "phone": "059915 05113", "brand": "Merkur", "brand:wikidata": "Q1921857"}, "geometry": {"type": "Point", "coordinates": [12.9550757, 47.9913385]}},
{"type": "Feature", "id": "6jpIo4Gqj9NfnQXBRFXdiJLMG4A=", "properties": {"ref": "00-2148", "@spider": "merkur", "addr:full": "Siemensstrasse 68", "addr:city": "Wien", "addr:state": "Wien", "addr:postcode": "1210", "addr:country": "AT", "name": "BILLA AG FIL. 2148", "phone": "059915 02148", "brand": "Merkur", "brand:wikidata": "Q1921857"}, "geometry": {"type": "Point", "coordinates": [16.418333, 48.271617]}},
{"type": "Feature", "id": "ZsPTnDonrDl_SzoyqY-XNM9NHVU=", "properties": {"ref": "00-3011", "@spider": "merkur", "addr:full": "Flugfeldstrasse 53", "addr:city": "Bad Voeslau", "addr:state": "Niederoesterreich", "addr:postcode": "2540", "addr:country": "AT", "name": "BILLA AG FIL. 3011", "phone": "059915 03011", "brand": "Merkur", "brand:wikidata": "Q1921857"}, "geometry": {"type": "Point", "coordinates": [16.2388602, 47.9663051]}},
{"type": "Feature", "id": "POrY5x37oWJcMUpm60uhIldKxMU=", "properties": {"ref": "00-6219", "@spider": "merkur", "addr:full": "Nr. 300", "addr:city": "Sinabelkirchen", "addr:state": "Steiermark", "addr:postcode": "8261", "addr:country": "AT", "name": "BILLA AG FIL. 6219", "phone": "059915 06219", "brand": "Merkur", "brand:wikidata": "Q1921857"}, "geometry": {"type": "Point", "coordinates": [15.822931, 47.1013902]}},
{"type": "Feature", "id": "2EwVXen1j9oTzXb_zCKn7-YF4Js=", "properties": {"ref": "00-4104", "@spider": "merkur", "addr:full": "Leondingerstrasse 28", "addr:city": "Traun", "addr:state": "Oberoesterreich", "addr:postcode": "4050", "addr:country": "AT", "name": "BILLA AG FIL. 4104", "phone": "059915 04104", "brand": "Merkur", "brand:wikidata": "Q1921857"}, "geometry": {"type": "Point", "coordinates": [14.2597, 48.241]}},
{"type": "Feature", "id": "Xrv1gXZhogxkmYc97hEVmIapsbQ=", "properties": {"ref": "00-1108", "@spider": "merkur", "addr:full": "Simmeringer Hauptstr. 47-49", "addr:city": "Wien", "addr:state": "Wien", "addr:postcode": "1110", "addr:country": "AT", "name": "BILLA AG FIL. 1108", "phone": "059915 01108", "brand": "Merkur", "brand:wikidata": "Q1921857"}, "geometry": {"type": "Point", "coordinates": [16.4108937, 48.1797037]}},
{"type": "Feature", "id": "QBqYoD6rNssB1p3xmstpygWs4Ak=", "properties": {"ref": "00-7733", "@spider": "merkur", "addr:full": "Klagenfurter Strasse 40a", "addr:city": "Wolfsberg", "addr:state": "Kaernten", "addr:postcode": "9400", "addr:country": "AT", "name": "BILLA AG FIL. 7733", "phone": "059915 07733", "brand": "Merkur", "brand:wikidata": "Q1921857"}, "geometry": {"type": "Point", "coordinates": [14.834267, 46.81949]}},
{"type": "Feature", "id": "26ffark7G4Maakubtatdw4k59lg=", "properties": {"ref": "00-3044", "@spider": "merkur", "addr:full": "Donauwoerther Str. 46-48", "addr:city": "Perchtoldsdorf", "addr:state": "Niederoesterreich", "addr:postcode": "2380", "addr:country": "AT", "name": "BILLA AG FIL. 3044", "phone": "059915 03044", "brand": "Merkur", "brand:wikidata": "Q1921857"}, "geometry": {"type": "Point", "coordinates": [16.2655797, 48.1240036]}},
{"type": "Feature", "id": "4FcYcV0D0634un4xKjAL_RXXrF4=", "properties": {"ref": "00-3131", "@spider": "merkur", "addr:full": "An Der Bundesstrasse 2", "addr:city": "Krumbach", "addr:state": "Niederoesterreich", "addr:postcode": "2851", "addr:country": "AT", "name": "BILLA AG FIL. 3131", "phone": "059915 03131", "brand": "Merkur", "brand:wikidata": "Q1921857"}, "geometry": {"type": "Point", "coordinates": [16.1905307, 47.5229714]}},
{"type": "Feature", "id": "KPFoHyL7efbJSUfFdAEK-t4zxqs=", "properties": {"ref": "00-1631", "@spider": "merkur", "addr:full": "Huttengasse 18, Stiege 3", "addr:city": "Wien", "addr:state": "Wien", "addr:postcode": "1160", "addr:country": "AT", "name": "BILLA AG FIL. 1631", "phone": "059915 01631", "brand": "Merkur", "brand:wikidata": "Q1921857"}, "geometry": {"type": "Point", "coordinates": [16.3080351, 48.2040106]}},
{"type": "Feature", "id": "_8JHMkuqhmSyZT6gShP9Yv9nndw=", "properties": {"ref": "00-5019", "@spider": "merkur", "addr:full": "Fuschlerstrasse 10", "addr:city": "Thalgau", "addr:state": "Salzburg", "addr:postcode": "5303", "addr:country": "AT", "name": "BILLA AG FIL. 5019", "phone": "059915 05019", "brand": "Merkur", "brand:wikidata": "Q1921857"}, "geometry": {"type": "Point", "coordinates": [13.254316, 47.840048]}},
{"type": "Feature", "id": "-1F3pk4d_EA_B_pu11qCxDX3sZo=", "properties": {"ref": "00-119", "@spider": "merkur", "addr:full": "Neuer Markt 17 / Herrnhuterhaus", "addr:city": "Wien", "addr:state": "Wien", "addr:postcode": "1010", "addr:country": "AT", "name": "BILLA AG CORSO FIL. 119", "phone": "059915 00119", "brand": "Merkur", "brand:wikidata": "Q1921857"}, "geometry": {"type": "Point", "coordinates": [16.3709682, 48.2068637]}},
{"type": "Feature", "id": "ZiERCKrddPPMbxZDtiNPYTxRvDE=", "properties": {"ref": "00-4601", "@spider": "merkur", "addr:full": "Eichenstrasse 15", "addr:city": "Marchtrenk", "addr:state": "Oberoesterreich", "addr:postcode": "4614", "addr:country": "AT", "name": "BILLA AG FIL. 4601", "phone": "059915 04601", "brand": "Merkur", "brand:wikidata": "Q1921857"}, "geometry": {"type": "Point", "coordinates": [14.115639, 48.194556]}},
{"type": "Feature", "id": "aDjTUcsGftFYeEi95cwg27uITd4=", "properties": {"ref": "00-3162", "@spider": "merkur", "addr:full": "Lilienfelder Strasse 10", "addr:city": "Wilhelmsburg", "addr:state": "Niederoesterreich", "addr:postcode": "3150", "addr:country": "AT", "name": "BILLA AG FIL. 3162", "phone": "059915 03162", "brand": "Merkur", "brand:wikidata": "Q1921857"}, "geometry": {"type": "Point", "coordinates": [15.6005285, 48.1008442]}},
{"type": "Feature", "id": "BnBkG92Bwg2oRK8LFCH68XPGm_0=", "properties": {"ref": "00-3001", "@spider": "merkur", "addr:full": "Neunkirchner Strasse 107", "addr:city": "Wiener Neustadt", "addr:state": "Niederoesterreich", "addr:postcode": "2700", "addr:country": "AT", "name": "BILLA AG FIL. 3001", "phone": "059915 03001", "brand": "Merkur", "brand:wikidata": "Q1921857"}, "geometry": {"type": "Point", "coordinates": [16.22691, 47.79948]}},
{"type": "Feature", "id": "SyHqjnUo_XCAAm87uQJGcmhNxjo=", "properties": {"ref": "00-3275", "@spider": "merkur", "addr:full": "Marktstrasse 1", "addr:city": "Matzendorf", "addr:state": "Niederoesterreich", "addr:postcode": "2751", "addr:country": "AT", "name": "BILLA AG FIL. 3275", "phone": "059915 03275", "brand": "Merkur", "brand:wikidata": "Q1921857"}, "geometry": {"type": "Point", "coordinates": [16.218739, 47.888478]}},
{"type": "Feature", "id": "Vw5l4bp3hBjGcHhEFnQd7Ad-i3Y=", "properties": {"ref": "00-4401", "@spider": "merkur", "addr:full": "Schaunbergstrasse 24", "addr:city": "Hartkirchen", "addr:state": "Oberoesterreich", "addr:postcode": "4081", "addr:country": "AT", "name": "BILLA AG FIL. 4401", "phone": "059915 04401", "brand": "Merkur", "brand:wikidata": "Q1921857"}, "geometry": {"type": "Point", "coordinates": [13.996572, 48.35978]}},
{"type": "Feature", "id": "rtxzujXfcI_ckxDu0WMImmSAshY=", "properties": {"ref": "00-225", "@spider": "merkur", "addr:full": "Malzgasse 8/Schiffamtsgasse 15", "addr:city": "Wien", "addr:state": "Wien", "addr:postcode": "1020", "addr:country": "AT", "name": "BILLA AG FIL. 225", "phone": "059915 00225", "brand": "Merkur", "brand:wikidata": "Q1921857"}, "geometry": {"type": "Point", "coordinates": [16.3755326, 48.2197827]}},
{"type": "Feature", "id": "0GK2AAuDFMISyyKHKCBJC80K6OY=", "properties": {"ref": "00-6812", "@spider": "merkur", "addr:full": "Coburgstrasse 53", "addr:city": "Schladming", "addr:state": "Steiermark", "addr:postcode": "8970", "addr:country": "AT", "name": "BILLA AG FIL. 6812", "phone": "059915 06812", "brand": "Merkur", "brand:wikidata": "Q1921857"}, "geometry": {"type": "Point", "coordinates": [13.6928, 47.39326]}},
{"type": "Feature", "id": "XfiGW8h4yi4_RxGGQL8DKMY9wh4=", "properties": {"ref": "00-3235", "@spider": "merkur", "addr:full": "Rathausviertel 4", "addr:city": "Guntramsdorf", "addr:state": "Niederoesterreich", "addr:postcode": "2353", "addr:country": "AT", "name": "BILLA AG FIL. 3235", "phone": "059915 03235", "brand": "Merkur", "brand:wikidata": "Q1921857"}, "geometry": {"type": "Point", "coordinates": [16.31247602721, 48.0484263]}},
{"type": "Feature", "id": "j0bilfe-GZLdbMGVw2pwR5DCM7U=", "properties": {"ref": "00-7743", "@spider": "merkur", "addr:full": "Grazer Strasse 136", "addr:city": "Oberwart", "addr:state": "Burgenland", "addr:postcode": "7400", "addr:country": "AT", "name": "BILLA AG FIL. 7743", "phone": "059915 07743", "brand": "Merkur", "brand:wikidata": "Q1921857"}, "geometry": {"type": "Point", "coordinates": [16.1858755, 47.2842942]}},
{"type": "Feature", "id": "wDKI58QkZMsBjvxxO7ZAIsGBZoA=", "properties": {"ref": "00-6816", "@spider": "merkur", "addr:full": "Koeroesistrasse 66b", "addr:city": "Graz", "addr:state": "Steiermark", "addr:postcode": "8010", "addr:country": "AT", "name": "BILLA AG FIL. 6816", "phone": "059915 06816", "brand": "Merkur", "brand:wikidata": "Q1921857"}, "geometry": {"type": "Point", "coordinates": [15.43101, 47.08332]}},
{"type": "Feature", "id": "HcgUYRgeBecQ7y15HYmsY3f6gNI=", "properties": {"ref": "00-3709", "@spider": "merkur", "addr:full": "Hauptstrasse Silberwald 315-325", "addr:city": "Strasshof", "addr:state": "Niederoesterreich", "addr:postcode": "2231", "addr:country": "AT", "name": "BILLA AG FIL. 3709", "phone": "059915 03709", "brand": "Merkur", "brand:wikidata": "Q1921857"}, "geometry": {"type": "Point", "coordinates": [16.65485, 48.32083]}},
{"type": "Feature", "id": "dfGPRKj_o03kAnX5e7uH8KSIalI=", "properties": {"ref": "00-7263", "@spider": "merkur", "addr:full": "Industriegel\u00e4nde 2", "addr:city": "Forchtenstein", "addr:state": "Burgenland", "addr:postcode": "7212", "addr:country": "AT", "name": "BILLA AG FIL. 7263", "phone": "059915 07263", "brand": "Merkur", "brand:wikidata": "Q1921857"}, "geometry": {"type": "Point", "coordinates": [16.36815, 47.7172]}},
{"type": "Feature", "id": "4m1fjbJeX252Hhst13yl7m-bFJM=", "properties": {"ref": "00-7820", "@spider": "merkur", "addr:full": "Abstimmungsstrasse 41", "addr:city": "Klagenfurt-Viktring", "addr:state": "Kaernten", "addr:postcode": "9073", "addr:country": "AT", "name": "BILLA AG FIL. 7820", "phone": "059915 07820", "brand": "Merkur", "brand:wikidata": "Q1921857"}, "geometry": {"type": "Point", "coordinates": [14.27332, 46.59063]}},
{"type": "Feature", "id": "mYqKzcdGOCbRVACC40FHMpKcp7c=", "properties": {"ref": "00-7527", "@spider": "merkur", "addr:full": "Hauptbahnhof", "addr:city": "Klagenfurt", "addr:state": "Kaernten", "addr:postcode": "9020", "addr:country": "AT", "name": "BILLA AG FIL. 7527", "phone": "059915 07527", "brand": "Merkur", "brand:wikidata": "Q1921857"}, "geometry": {"type": "Point", "coordinates": [14.31414, 46.61628]}},
{"type": "Feature", "id": "YXc26o6nYt-ZHPmBonk78RYPIPw=", "properties": {"ref": "00-4756", "@spider": "merkur", "addr:full": "Aegydiplatz 2", "addr:city": "Thalheim Bei Wels", "addr:state": "Oberoesterreich", "addr:postcode": "4600", "addr:country": "AT", "name": "BILLA AG FIL. 4756", "phone": "059915 04756", "brand": "Merkur", "brand:wikidata": "Q1921857"}, "geometry": {"type": "Point", "coordinates": [14.02821, 48.1518]}},
{"type": "Feature", "id": "GEWO0YBG5z8V1FD31wwPhkmcqHo=", "properties": {"ref": "00-5115", "@spider": "merkur", "addr:full": "Bundesstrasse 18", "addr:city": "St. Johann Im Pongau", "addr:state": "Salzburg", "addr:postcode": "5600", "addr:country": "AT", "name": "BILLA AG FIL. 5115", "phone": "059915 05115", "brand": "Merkur", "brand:wikidata": "Q1921857"}, "geometry": {"type": "Point", "coordinates": [13.194, 47.35013]}},
{"type": "Feature", "id": "cTM_wq_DFcVBlRZj_mWUOJ4qDEY=", "properties": {"ref": "00-5381", "@spider": "merkur", "addr:full": "Unterbergstrasse 74", "addr:city": "Grossarl", "addr:state": "Salzburg", "addr:postcode": "5611", "addr:country": "AT", "name": "BILLA AG FIL. 5381", "phone": "059915 05381", "brand": "Merkur", "brand:wikidata": "Q1921857"}, "geometry": {"type": "Point", "coordinates": [13.19582, 47.24106]}},
{"type": "Feature", "id": "dq50kOwD1Ndm_xFK8KGAb43pIXI=", "properties": {"ref": "00-3506", "@spider": "merkur", "addr:full": "Prager Strasse 83", "addr:city": "Horn", "addr:state": "Niederoesterreich", "addr:postcode": "3580", "addr:country": "AT", "name": "BILLA AG FIL. 3506", "phone": "059915 03506", "brand": "Merkur", "brand:wikidata": "Q1921857"}, "geometry": {"type": "Point", "coordinates": [15.6383126, 48.6639809]}},
{"type": "Feature", "id": "fgCSlpQHsLWp8kqWlQZaNUQB7gI=", "properties": {"ref": "00-1017", "@spider": "merkur", "addr:full": "Fuerthweg 12", "addr:city": "Wien", "addr:state": "Wien", "addr:postcode": "1130", "addr:country": "AT", "name": "BILLA AG FIL. 1017", "phone": "059915 01017", "brand": "Merkur", "brand:wikidata": "Q1921857"}, "geometry": {"type": "Point", "coordinates": [16.2883, 48.1705]}},
{"type": "Feature", "id": "iJNXuiydmWwxdGUwNZg9fEJa5jQ=", "properties": {"ref": "00-3349", "@spider": "merkur", "addr:full": "Hoferstrasse 2", "addr:city": "Sieghartskirchen", "addr:state": "Niederoesterreich", "addr:postcode": "3443", "addr:country": "AT", "name": "BILLA AG FIL. 3349", "phone": "059915 03349", "brand": "Merkur", "brand:wikidata": "Q1921857"}, "geometry": {"type": "Point", "coordinates": [16.006678, 48.256137]}},
{"type": "Feature", "id": "HiW303ophaRHzk4Ma_JZmjMdBco=", "properties": {"ref": "00-6850", "@spider": "merkur", "addr:full": "Hauptstrasse 70", "addr:city": "Rosental An Der Kainach", "addr:state": "Steiermark", "addr:postcode": "8582", "addr:country": "AT", "name": "BILLA AG FIL. 6850", "phone": "059915 06850", "brand": "Merkur", "brand:wikidata": "Q1921857"}, "geometry": {"type": "Point", "coordinates": [15.116589, 47.055095]}},
{"type": "Feature", "id": "E3QQaZ72y2BVPaDXN-yTUBynxPo=", "properties": {"ref": "00-3284", "@spider": "merkur", "addr:full": "St. P\u00f6ltner Strasse 55", "addr:city": "Hofstetten", "addr:state": "Niederoesterreich", "addr:postcode": "3202", "addr:country": "AT", "name": "BILLA AG FIL. 3284", "phone": "059915 03284", "brand": "Merkur", "brand:wikidata": "Q1921857"}, "geometry": {"type": "Point", "coordinates": [15.5175, 48.1011]}},
{"type": "Feature", "id": "6Rjasdo70qAP1Mw2nisC1Qkq2FY=", "properties": {"ref": "00-1901", "@spider": "merkur", "addr:full": "Sieveringer Strasse 4-10", "addr:city": "Wien", "addr:state": "Wien", "addr:postcode": "1190", "addr:country": "AT", "name": "BILLA AG FIL. 1901", "phone": "059915 01901", "brand": "Merkur", "brand:wikidata": "Q1921857"}, "geometry": {"type": "Point", "coordinates": [16.3408, 48.2458]}},
{"type": "Feature", "id": "A-g7WqkD2A5bqglsdOqLRwS5ZBI=", "properties": {"ref": "00-226", "@spider": "merkur", "addr:full": "Franzensbrueckenstrasse 20", "addr:city": "Wien", "addr:state": "Wien", "addr:postcode": "1020", "addr:country": "AT", "name": "BILLA AG FIL. 226", "phone": "059915 00226", "brand": "Merkur", "brand:wikidata": "Q1921857"}, "geometry": {"type": "Point", "coordinates": [16.3908, 48.215]}},
{"type": "Feature", "id": "AzPRRGTc7er_xG-a_v8P63K7Sqc=", "properties": {"ref": "00-3102", "@spider": "merkur", "addr:full": "Obergrafendorferstrasse 15", "addr:city": "St. Poelten", "addr:state": "Niederoesterreich", "addr:postcode": "3100", "addr:country": "AT", "name": "BILLA AG FIL. 3102", "phone": "059915 03102", "brand": "Merkur", "brand:wikidata": "Q1921857"}, "geometry": {"type": "Point", "coordinates": [15.6133, 48.1702]}},
{"type": "Feature", "id": "YfwYf0Fzlq65gGnij2YOcfeanQ4=", "properties": {"ref": "00-3979", "@spider": "merkur", "addr:full": "Strasse Zur Autobahn 10", "addr:city": "Haag", "addr:state": "Niederoesterreich", "addr:postcode": "3350", "addr:country": "AT", "name": "BILLA AG FIL. 3979", "phone": "059915 03979", "brand": "Merkur", "brand:wikidata": "Q1921857"}, "geometry": {"type": "Point", "coordinates": [14.57184, 48.11447]}},
{"type": "Feature", "id": "pb_r_ghzvdSxyz6GnyZesRARw9w=", "properties": {"ref": "00-3120", "@spider": "merkur", "addr:full": "Hauptstrasse 105 A", "addr:city": "Breitenfurt", "addr:state": "Niederoesterreich", "addr:postcode": "2384", "addr:country": "AT", "name": "BILLA AG FIL. 3120", "phone": "059915 03120", "brand": "Merkur", "brand:wikidata": "Q1921857"}, "geometry": {"type": "Point", "coordinates": [16.1912248, 48.1356843]}},
{"type": "Feature", "id": "O70QVGv-SbbgRbEOP2jrmpO9KDk=", "properties": {"ref": "00-1628", "@spider": "merkur", "addr:full": "Wernhardtstrasse 24", "addr:city": "Wien", "addr:state": "Wien", "addr:postcode": "1160", "addr:country": "AT", "name": "BILLA AG FIL. 1628", "phone": "059915 01628", "brand": "Merkur", "brand:wikidata": "Q1921857"}, "geometry": {"type": "Point", "coordinates": [16.3053313, 48.2087592]}},
{"type": "Feature", "id": "jhs0hesjErfjKJgxPHWvNqdHP2o=", "properties": {"ref": "00-4524", "@spider": "merkur", "addr:full": "Althauserstr. 16", "addr:city": "Pregarten", "addr:state": "Oberoesterreich", "addr:postcode": "4230", "addr:country": "AT", "name": "BILLA AG FIL. 4524", "phone": "059915 04524", "brand": "Merkur", "brand:wikidata": "Q1921857"}, "geometry": {"type": "Point", "coordinates": [14.5294643, 48.3483466]}},
{"type": "Feature", "id": "a_gHBVvFn81Y0liWiLZyKqbtauw=", "properties": {"ref": "00-6306", "@spider": "merkur", "addr:full": "Industriepark 6", "addr:city": "Muehldorf Bei Feldbach", "addr:state": "Steiermark", "addr:postcode": "8330", "addr:country": "AT", "name": "BILLA AG FIL. 6306", "phone": "059915 06306", "brand": "Merkur", "brand:wikidata": "Q1921857"}, "geometry": {"type": "Point", "coordinates": [15.9152678, 46.9474745]}},
{"type": "Feature", "id": "hCqEnS67TwSWKlY54CjbFo1oOvk=", "properties": {"ref": "00-7780", "@spider": "merkur", "addr:full": "Millstaetter Str.103", "addr:city": "Afritz", "addr:state": "Kaernten", "addr:postcode": "9542", "addr:country": "AT", "name": "BILLA AG FIL. 7780", "phone": "059915 07780", "brand": "Merkur", "brand:wikidata": "Q1921857"}, "geometry": {"type": "Point", "coordinates": [13.78302, 46.72971]}},
{"type": "Feature", "id": "vGEjUIt7_KwGMqdUg9MZU45QOUQ=", "properties": {"ref": "00-829", "@spider": "merkur", "addr:full": "Skodagasse 8", "addr:city": "Wien", "addr:state": "Wien", "addr:postcode": "1080", "addr:country": "AT", "name": "BILLA AG FIL. 829", "phone": "059915 00829", "brand": "Merkur", "brand:wikidata": "Q1921857"}, "geometry": {"type": "Point", "coordinates": [16.345476, 48.2122029]}},
{"type": "Feature", "id": "HO-JTWCIHg-hYAoScfISwoZKkgE=", "properties": {"ref": "00-841", "@spider": "merkur", "addr:full": "Florianigasse 11", "addr:city": "Wien", "addr:state": "Wien", "addr:postcode": "1080", "addr:country": "AT", "name": "BILLA AG FIL. 841", "phone": "059915 00841", "brand": "Merkur", "brand:wikidata": "Q1921857"}, "geometry": {"type": "Point", "coordinates": [16.3530395, 48.2119501]}},
{"type": "Feature", "id": "TK_GijBkDG2HKyzrYGfJ_LKYaqo=", "properties": {"ref": "00-936", "@spider": "merkur", "addr:full": "Wilhelm Exner Gasse 13", "addr:city": "Wien", "addr:state": "Wien", "addr:postcode": "1090", "addr:country": "AT", "name": "BILLA AG FIL. 936", "phone": "059915 00936", "brand": "Merkur", "brand:wikidata": "Q1921857"}, "geometry": {"type": "Point", "coordinates": [16.35211, 48.22418]}},
{"type": "Feature", "id": "RjA9FQ4yJ5PlViWeVco5gTh2MVo=", "properties": {"ref": "00-2115", "@spider": "merkur", "addr:full": "Floridusgasse 2", "addr:city": "Wien", "addr:state": "Wien", "addr:postcode": "1210", "addr:country": "AT", "name": "BILLA AG FIL. 2115", "phone": "059915 02115", "brand": "Merkur", "brand:wikidata": "Q1921857"}, "geometry": {"type": "Point", "coordinates": [16.40531, 48.25155]}},
{"type": "Feature", "id": "XBRBt9om1bQ8gyFmZcfDkUd9N0M=", "properties": {"ref": "00-5363", "@spider": "merkur", "addr:full": "Innsbruckerbundesstr. 63", "addr:city": "Salzburg", "addr:state": "Salzburg", "addr:postcode": "5020", "addr:country": "AT", "name": "BILLA AG FIL. 5363", "phone": "059915 05363", "brand": "Merkur", "brand:wikidata": "Q1921857"}, "geometry": {"type": "Point", "coordinates": [13.015161, 47.801253]}},
{"type": "Feature", "id": "FauSC1UuFCdY_Bc3pTH79urb21s=", "properties": {"ref": "00-448", "@spider": "merkur", "addr:full": "Johann Strauss Gasse 24", "addr:city": "Wien", "addr:state": "Wien", "addr:postcode": "1040", "addr:country": "AT", "name": "BILLA AG FIL. 448", "phone": "059915 00448", "brand": "Merkur", "brand:wikidata": "Q1921857"}, "geometry": {"type": "Point", "coordinates": [16.368036, 48.187597]}},
{"type": "Feature", "id": "P5WDtUaPTuc5-jo_kmVVrAl_Bhg=", "properties": {"ref": "00-3569", "@spider": "merkur", "addr:full": "Siegfried Marcus-Str. 18", "addr:city": "Biedermannsdorf", "addr:state": "Niederoesterreich", "addr:postcode": "2362", "addr:country": "AT", "name": "BILLA AG FIL. 3569", "phone": "059915 03569", "brand": "Merkur", "brand:wikidata": "Q1921857"}, "geometry": {"type": "Point", "coordinates": [16.35823, 48.08508]}},
{"type": "Feature", "id": "M36VVz8hNsbnvJ3pUD_bEYG-YrI=", "properties": {"ref": "00-4580", "@spider": "merkur", "addr:full": "Linzerstrasse 8", "addr:city": "Altheim", "addr:state": "Oberoesterreich", "addr:postcode": "4950", "addr:country": "AT", "name": "BILLA AG FIL. 4580", "phone": "059915 04580", "brand": "Merkur", "brand:wikidata": "Q1921857"}, "geometry": {"type": "Point", "coordinates": [13.23481, 48.25042]}},
{"type": "Feature", "id": "PiNqd64p_84xgpdCsJrDT_OkPXY=", "properties": {"ref": "00-4671", "@spider": "merkur", "addr:full": "Jaegerstaetterstasse 10", "addr:city": "Linz", "addr:state": "Oberoesterreich", "addr:postcode": "4040", "addr:country": "AT", "name": "BILLA AG FIL. 4671", "phone": "059915 04671", "brand": "Merkur", "brand:wikidata": "Q1921857"}, "geometry": {"type": "Point", "coordinates": [14.30047, 48.33552]}},
{"type": "Feature", "id": "581cCfiPENZuTDI0bM7nLM13eJA=", "properties": {"ref": "00-4754", "@spider": "merkur", "addr:full": "Kaiser Josef Platz 53", "addr:city": "Wels", "addr:state": "Oberoesterreich", "addr:postcode": "4600", "addr:country": "AT", "name": "BILLA AG FIL. 4754", "phone": "059915 04754", "brand": "Merkur", "brand:wikidata": "Q1921857"}, "geometry": {"type": "Point", "coordinates": [14.02435, 48.16077]}},
{"type": "Feature", "id": "6OrodGIjC0XBkHRUMqS5vDgTXdY=", "properties": {"ref": "00-4200", "@spider": "merkur", "addr:full": "Punzerstrasse 47", "addr:city": "Steyr", "addr:state": "Oberoesterreich", "addr:postcode": "4400", "addr:country": "AT", "name": "BILLA AG FIL. 4200", "phone": "059915 04200", "brand": "Merkur", "brand:wikidata": "Q1921857"}, "geometry": {"type": "Point", "coordinates": [14.43754, 48.05708]}},
{"type": "Feature", "id": "otEeSwBqNaj9km1ZybAVIVFfSDo=", "properties": {"ref": "00-4350", "@spider": "merkur", "addr:full": "Breitenangerstr. 7", "addr:city": "Grein", "addr:state": "Oberoesterreich", "addr:postcode": "4360", "addr:country": "AT", "name": "BILLA AG FIL. 4350", "phone": "059915 04350", "brand": "Merkur", "brand:wikidata": "Q1921857"}, "geometry": {"type": "Point", "coordinates": [14.84654, 48.22828]}},
{"type": "Feature", "id": "UHbBQ-7x8ujfbgMD8ntg5SOl0U4=", "properties": {"ref": "00-3710", "@spider": "merkur", "addr:full": "Joesef Reitherstrasse 49", "addr:city": "Tulln", "addr:state": "Niederoesterreich", "addr:postcode": "3430", "addr:country": "AT", "name": "BILLA AG FIL. 3710", "phone": "059915 03710", "brand": "Merkur", "brand:wikidata": "Q1921857"}, "geometry": {"type": "Point", "coordinates": [16.02864, 48.32331]}},
{"type": "Feature", "id": "Ebca-Nd4A5VFCnIxo68JUTRLoI8=", "properties": {"ref": "00-3140", "@spider": "merkur", "addr:full": "Leopoldstrasse 24", "addr:city": "Klosterneuburg", "addr:state": "Niederoesterreich", "addr:postcode": "3400", "addr:country": "AT", "name": "BILLA AG FIL. 3140", "phone": "059915 03140", "brand": "Merkur", "brand:wikidata": "Q1921857"}, "geometry": {"type": "Point", "coordinates": [16.32685, 48.30304]}},
{"type": "Feature", "id": "8fzRDpZkk4KMvR4oIgORKzO9KfE=", "properties": {"ref": "00-3200", "@spider": "merkur", "addr:full": "Himbergerstrasse 3", "addr:city": "Zwoelfaxing", "addr:state": "Niederoesterreich", "addr:postcode": "2322", "addr:country": "AT", "name": "BILLA AG FIL. 3200", "phone": "01 7063811", "brand": "Merkur", "brand:wikidata": "Q1921857"}, "geometry": {"type": "Point", "coordinates": [16.46217, 48.10923]}},
{"type": "Feature", "id": "7ufaCl-xdkW-vN0YfmRJQOxSAP0=", "properties": {"ref": "00-3418", "@spider": "merkur", "addr:full": "Ernstbrunnerstrasse 6", "addr:city": "Stockerau", "addr:state": "Niederoesterreich", "addr:postcode": "2000", "addr:country": "AT", "name": "BILLA AG FIL. 3418", "phone": "059915 03418", "brand": "Merkur", "brand:wikidata": "Q1921857"}, "geometry": {"type": "Point", "coordinates": [16.21864, 48.38971]}},
{"type": "Feature", "id": "X-foC6Ap7TB6oPpwGoUdhzaNhGs=", "properties": {"ref": "00-2980", "@spider": "merkur", "addr:full": "Heiligenstaedterstr. 161", "addr:city": "Wien", "addr:state": "Wien", "addr:postcode": "1190", "addr:country": "AT", "name": "BILLA AG FIL. 2980", "phone": "059915 02980", "brand": "Merkur", "brand:wikidata": "Q1921857"}, "geometry": {"type": "Point", "coordinates": [16.3653595, 48.2550122]}},
{"type": "Feature", "id": "uXu6x25WJg68OjChDgAdcOnVwBA=", "properties": {"ref": "00-3321", "@spider": "merkur", "addr:full": "Gst. 611/1", "addr:city": "Wien", "addr:state": "Niederoesterreich", "addr:postcode": "1300", "addr:country": "AT", "name": "BILLA AG FIL. 3321", "phone": "059915 03321", "brand": "Merkur", "brand:wikidata": "Q1921857"}, "geometry": {"type": "Point", "coordinates": [16.56317, 48.12502]}},
{"type": "Feature", "id": "3tpMESBWjTenlRJsklF1CNBl9Vg=", "properties": {"ref": "00-7618", "@spider": "merkur", "addr:full": "Stappitz 159", "addr:city": "Mallnitz", "addr:state": "Kaernten", "addr:postcode": "9822", "addr:country": "AT", "name": "BILLA AG FIL. 7618", "phone": "059915 07618", "brand": "Merkur", "brand:wikidata": "Q1921857"}, "geometry": {"type": "Point", "coordinates": [13.17055, 46.9915]}},
{"type": "Feature", "id": "mxM3Xr38Zu6IZYFIFpe5t68xHJA=", "properties": {"ref": "00-8971", "@spider": "merkur", "addr:full": "Eibiswald 119", "addr:city": "Eibiswald", "addr:state": "Steiermark", "addr:postcode": "8552", "addr:country": "AT", "name": "BILLA AG FIL. 8971", "phone": "059915 08971", "brand": "Merkur", "brand:wikidata": "Q1921857"}, "geometry": {"type": "Point", "coordinates": [15.24171, 46.68588]}},
{"type": "Feature", "id": "wpOoL3f43CARhwGdt1-5FY2Fnrc=", "properties": {"ref": "00-9761", "@spider": "merkur", "addr:full": "Wienerstrasse 3", "addr:city": "Muenchendorf", "addr:state": "Niederoesterreich", "addr:postcode": "2482", "addr:country": "AT", "name": "BILLA AG FIL. 9761", "phone": "059915 09761", "brand": "Merkur", "brand:wikidata": "Q1921857"}, "geometry": {"type": "Point", "coordinates": [16.37989, 48.03356]}},
{"type": "Feature", "id": "nizGCPZsxnJNa2GZ5JBFF7HjKqA=", "properties": {"ref": "00-1032", "@spider": "merkur", "addr:full": "Sibeliusstrasse 2a", "addr:city": "Wien", "addr:state": "Wien", "addr:postcode": "1100", "addr:country": "AT", "name": "BILLA AG FIL. 1032", "phone": "059915 01032", "brand": "Merkur", "brand:wikidata": "Q1921857"}, "geometry": {"type": "Point", "coordinates": [16.366114, 48.1593]}},
{"type": "Feature", "id": "PzocH4WzU0XPVBh4YBHO1pLpAb4=", "properties": {"ref": "00-9100", "@spider": "merkur", "addr:full": "Brunngasse 13, Braeuhausg", "addr:city": "St. Poelten", "addr:state": "Niederoesterreich", "addr:postcode": "3100", "addr:country": "AT", "name": "BILLA AG FIL. 9100", "phone": "059915 09100", "brand": "Merkur", "brand:wikidata": "Q1921857"}, "geometry": {"type": "Point", "coordinates": [15.6225777, 48.2067355]}},
{"type": "Feature", "id": "FFWc0-XnXhzL2MbHAt7pQeWdgq0=", "properties": {"ref": "00-9845", "@spider": "merkur", "addr:full": "Schuetzengasse 36", "addr:city": "Baden", "addr:state": "Niederoesterreich", "addr:postcode": "2500", "addr:country": "AT", "name": "BILLA AG FIL. 9845", "phone": "059915 09845", "brand": "Merkur", "brand:wikidata": "Q1921857"}, "geometry": {"type": "Point", "coordinates": [16.24978, 47.9983]}},
{"type": "Feature", "id": "432xXAVOdFmhr-mAxoTcZLeFOUo=", "properties": {"ref": "00-7328", "@spider": "merkur", "addr:full": "Neufelderstrasse 21", "addr:city": "Hornstein", "addr:state": "Burgenland", "addr:postcode": "7053", "addr:country": "AT", "name": "BILLA AG FIL. 7328", "phone": "059915 07328", "brand": "Merkur", "brand:wikidata": "Q1921857"}, "geometry": {"type": "Point", "coordinates": [16.4310722, 47.872322]}},
{"type": "Feature", "id": "X3ym-vJFTOI6i1eGEhvw3GomrPk=", "properties": {"ref": "00-1580", "@spider": "merkur", "addr:full": "Kundratstr. 16 Gegenueber", "addr:city": "Wien", "addr:state": "Wien", "addr:postcode": "1100", "addr:country": "AT", "name": "BILLA AG FIL. 1580", "phone": "059915 01580", "brand": "Merkur", "brand:wikidata": "Q1921857"}, "geometry": {"type": "Point", "coordinates": [16.348542, 48.175111]}},
{"type": "Feature", "id": "vQSdcMI9SbDHaRICi6cwCuGxyGA=", "properties": {"ref": "00-3985", "@spider": "merkur", "addr:full": "Hauptstr.151a", "addr:city": "Ratzersdorf", "addr:state": "Niederoesterreich", "addr:postcode": "3100", "addr:country": "AT", "name": "BILLA AG FIL. 3985", "phone": "059915 03985", "brand": "Merkur", "brand:wikidata": "Q1921857"}, "geometry": {"type": "Point", "coordinates": [15.67702, 48.22873]}},
{"type": "Feature", "id": "cUKE3bz_i4neX9bDTUww0cTvvmg=", "properties": {"ref": "00-3819", "@spider": "merkur", "addr:full": "Markt 343", "addr:city": "Kirchberg/Wechsel", "addr:state": "Niederoesterreich", "addr:postcode": "2880", "addr:country": "AT", "name": "BILLA AG FIL. 3819", "phone": "059915 03819", "brand": "Merkur", "brand:wikidata": "Q1921857"}, "geometry": {"type": "Point", "coordinates": [15.99568, 47.60785]}},
{"type": "Feature", "id": "0rPPESMpg7zbL1OHze2Y5kFbk-s=", "properties": {"ref": "00-9209", "@spider": "merkur", "addr:full": "Fischamenderstr. 2", "addr:city": "Schwadorf", "addr:state": "Niederoesterreich", "addr:postcode": "2432", "addr:country": "AT", "name": "BILLA AG FIL. 9209", "phone": "059915 09209", "brand": "Merkur", "brand:wikidata": "Q1921857"}, "geometry": {"type": "Point", "coordinates": [16.58322, 48.07113]}},
{"type": "Feature", "id": "Th8hRUiJAWaE9J2KMd-IlC4ES6I=", "properties": {"ref": "00-4088", "@spider": "merkur", "addr:full": "Eisenhandstrasse 42", "addr:city": "Linz", "addr:state": "Oberoesterreich", "addr:postcode": "4020", "addr:country": "AT", "name": "BILLA AG FIL. 4088", "phone": "059915 04088", "brand": "Merkur", "brand:wikidata": "Q1921857"}, "geometry": {"type": "Point", "coordinates": [14.2999, 48.30209]}},
{"type": "Feature", "id": "b1ZuQVSj2Vx3yAskE39kRVrKzTA=", "properties": {"ref": "00-7058", "@spider": "merkur", "addr:full": "Stoob-Sued Nr. 58", "addr:city": "Stoob", "addr:state": "Burgenland", "addr:postcode": "7344", "addr:country": "AT", "name": "BILLA AG FIL. 7058", "phone": "059915 07058", "brand": "Merkur", "brand:wikidata": "Q1921857"}, "geometry": {"type": "Point", "coordinates": [16.48796, 47.5137]}},
{"type": "Feature", "id": "0S2xVD1j2ZrrlGC1yLfuxti2JNY=", "properties": {"ref": "00-6979", "@spider": "merkur", "addr:full": "St.Margareten 233", "addr:city": "St.Margarethen/", "addr:state": "Steiermark", "addr:postcode": "8321", "addr:country": "AT", "name": "BILLA AG FIL. 6979", "phone": "059915 06979", "brand": "Merkur", "brand:wikidata": "Q1921857"}, "geometry": {"type": "Point", "coordinates": [15.7468, 47.0451]}},
{"type": "Feature", "id": "HO9sCdeU-QLNz9pHO7Bgy1M7QSE=", "properties": {"ref": "00-3579", "@spider": "merkur", "addr:full": "Ziegelofenstr.3", "addr:city": "Allentsteig", "addr:state": "Niederoesterreich", "addr:postcode": "3804", "addr:country": "AT", "name": "BILLA AG FIL. 3579", "phone": "059915 03579", "brand": "Merkur", "brand:wikidata": "Q1921857"}, "geometry": {"type": "Point", "coordinates": [15.32024, 48.70095]}},
{"type": "Feature", "id": "9oH506YU26k47BMv6IYDxYxzqb8=", "properties": {"ref": "00-3983", "@spider": "merkur", "addr:full": "Hauptstr. 59", "addr:city": "Blindenmarkt", "addr:state": "Niederoesterreich", "addr:postcode": "3372", "addr:country": "AT", "name": "BILLA AG FIL. 3983", "phone": "059915 03983", "brand": "Merkur", "brand:wikidata": "Q1921857"}, "geometry": {"type": "Point", "coordinates": [14.98149, 48.12679]}},
{"type": "Feature", "id": "h4zyFHAHACgEVG_-a1N449OMrGE=", "properties": {"ref": "00-3633", "@spider": "merkur", "addr:full": "Hainfelderstrasse 41", "addr:city": "Boeheimkirchen", "addr:state": "Niederoesterreich", "addr:postcode": "3071", "addr:country": "AT", "name": "BILLA AG FIL. 3633", "phone": "059915 03633", "brand": "Merkur", "brand:wikidata": "Q1921857"}, "geometry": {"type": "Point", "coordinates": [15.76611, 48.19136]}},
{"type": "Feature", "id": "-Y8N1Jibeobz_SS-fOUgiVrenI4=", "properties": {"ref": "00-6809", "@spider": "merkur", "addr:full": "Theodor Koerner-Str.122", "addr:city": "Graz", "addr:state": "Steiermark", "addr:postcode": "8010", "addr:country": "AT", "name": "BILLA AG FIL. 6809", "phone": "059915 06809", "brand": "Merkur", "brand:wikidata": "Q1921857"}, "geometry": {"type": "Point", "coordinates": [15.42873, 47.08907]}},
{"type": "Feature", "id": "nlhtjo1JWQl8wK_qw5Mbqkd-aqk=", "properties": {"ref": "00-6916", "@spider": "merkur", "addr:full": "Draschestrasse 5", "addr:city": "Leoben", "addr:state": "Steiermark", "addr:postcode": "8700", "addr:country": "AT", "name": "BILLA AG FIL. 6916", "phone": "059915 06916", "brand": "Merkur", "brand:wikidata": "Q1921857"}, "geometry": {"type": "Point", "coordinates": [15.09902, 47.38332]}},
{"type": "Feature", "id": "mjEN67eHvpG_EJ9iaRbF5K3k7UE=", "properties": {"ref": "00-5066", "@spider": "merkur", "addr:full": "Kurgartenstrasse 2-6", "addr:city": "Bad Hofgastein", "addr:state": "Salzburg", "addr:postcode": "5630", "addr:country": "AT", "name": "BILLA AG FIL. 5066", "phone": "059915 05066", "brand": "Merkur", "brand:wikidata": "Q1921857"}, "geometry": {"type": "Point", "coordinates": [13.10465, 47.17158]}},
{"type": "Feature", "id": "4qpXVoeHFfO8ufd3T3lOFoI-TIc=", "properties": {"ref": "00-5199", "@spider": "merkur", "addr:full": "Weitmoserstrasse 2", "addr:city": "Bad Hofgastein", "addr:state": "Salzburg", "addr:postcode": "5630", "addr:country": "AT", "name": "BILLA AG FIL. 5199", "phone": "059915 05199", "brand": "Merkur", "brand:wikidata": "Q1921857"}, "geometry": {"type": "Point", "coordinates": [13.10646, 47.15766]}},
{"type": "Feature", "id": "SPjfQjVMTha2hT22OPKyzTVNeYE=", "properties": {"ref": "00-4713", "@spider": "merkur", "addr:full": "Mayrhansenstrasse 28", "addr:city": "Leonding", "addr:state": "Oberoesterreich", "addr:postcode": "4060", "addr:country": "AT", "name": "BILLA AG FIL. 4713", "phone": "059915 04713", "brand": "Merkur", "brand:wikidata": "Q1921857"}, "geometry": {"type": "Point", "coordinates": [14.2519862, 48.2760444]}},
{"type": "Feature", "id": "Dbc1Ebqn3MEh2CDL63C4Ua-Rnz0=", "properties": {"ref": "00-4002", "@spider": "merkur", "addr:full": "Dauphinestr. 29", "addr:city": "Linz", "addr:state": "Oberoesterreich", "addr:postcode": "4030", "addr:country": "AT", "name": "BILLA AG FIL. 4002", "phone": "059915 04002", "brand": "Merkur", "brand:wikidata": "Q1921857"}, "geometry": {"type": "Point", "coordinates": [14.3096422, 48.2533012]}},
{"type": "Feature", "id": "1ZkSLEHz2fShX1jAnQAqQJm53iM=", "properties": {"ref": "00-4127", "@spider": "merkur", "addr:full": "Greinerstrasse 2-4", "addr:city": "Kremsmuenster", "addr:state": "Oberoesterreich", "addr:postcode": "4550", "addr:country": "AT", "name": "BILLA AG FIL. 4127", "phone": "059915 04127", "brand": "Merkur", "brand:wikidata": "Q1921857"}, "geometry": {"type": "Point", "coordinates": [14.1318, 48.0505]}},
{"type": "Feature", "id": "c5AAntB9lgIB8pxK3643tqlh7a0=", "properties": {"ref": "00-3150", "@spider": "merkur", "addr:full": "Dr.Gschmeidlerstrasse 16", "addr:city": "Krems", "addr:state": "Niederoesterreich", "addr:postcode": "3500", "addr:country": "AT", "name": "BILLA AG FIL. 3150", "phone": "059915 03150", "brand": "Merkur", "brand:wikidata": "Q1921857"}, "geometry": {"type": "Point", "coordinates": [15.61427, 48.40834]}},
{"type": "Feature", "id": "QX7yP9V9RQ-jkoq94ncNSjBl8mA=", "properties": {"ref": "00-2709", "@spider": "merkur", "addr:full": "Novigasse 8-10", "addr:city": "Wien", "addr:state": "Wien", "addr:postcode": "1210", "addr:country": "AT", "name": "BILLA AG FIL. 2709", "phone": "059915 02709", "brand": "Merkur", "brand:wikidata": "Q1921857"}, "geometry": {"type": "Point", "coordinates": [16.43994, 48.26222]}},
{"type": "Feature", "id": "qulWLB4ptKSOCruGsGgn0sGtOYE=", "properties": {"ref": "00-2210", "@spider": "merkur", "addr:full": "Hartlebengasse 1-17", "addr:city": "Wien", "addr:state": "Wien", "addr:postcode": "1220", "addr:country": "AT", "name": "BILLA AG FIL. 2210", "phone": "059915 02210", "brand": "Merkur", "brand:wikidata": "Q1921857"}, "geometry": {"type": "Point", "coordinates": [16.45824, 48.22206]}},
{"type": "Feature", "id": "93KWxR3Yzg7_o5d8itdtL9bmnlo=", "properties": {"ref": "00-1417", "@spider": "merkur", "addr:full": "Kendlerstr. 22", "addr:city": "Wien", "addr:state": "Wien", "addr:postcode": "1140", "addr:country": "AT", "name": "BILLA AG FIL. 1417", "phone": "059915 01417", "brand": "Merkur", "brand:wikidata": "Q1921857"}, "geometry": {"type": "Point", "coordinates": [16.3082566, 48.2012851]}},
{"type": "Feature", "id": "zdNAmIlJmFgE7z2ZerihTGZ9z9Q=", "properties": {"ref": "00-1047", "@spider": "merkur", "addr:full": "Quellenstrasse 47", "addr:city": "Wien", "addr:state": "Wien", "addr:postcode": "1100", "addr:country": "AT", "name": "BILLA AG FIL. 1047", "phone": "059915 01047", "brand": "Merkur", "brand:wikidata": "Q1921857"}, "geometry": {"type": "Point", "coordinates": [16.3891722, 48.1736621]}},
{"type": "Feature", "id": "Sax2AgPh_RkntS516bm8Vl5xMUY=", "properties": {"ref": "00-4912", "@spider": "merkur", "addr:full": "Gleinker Hauptstr.1d", "addr:city": "Steyr", "addr:state": "Oberoesterreich", "addr:postcode": "4400", "addr:country": "AT", "name": "BILLA AG FIL. 4912", "phone": "059915 04912", "brand": "Merkur", "brand:wikidata": "Q1921857"}, "geometry": {"type": "Point", "coordinates": [14.42005, 48.06661]}},
{"type": "Feature", "id": "Goawj5hG_NZYJ8KEQlb00Ynk0-E=", "properties": {"ref": "00-6051", "@spider": "merkur", "addr:full": "Birkfelderstrasse 48", "addr:city": "Weiz", "addr:state": "Steiermark", "addr:postcode": "8160", "addr:country": "AT", "name": "BILLA AG FIL. 6051", "phone": "059915 06051", "brand": "Merkur", "brand:wikidata": "Q1921857"}, "geometry": {"type": "Point", "coordinates": [15.632964, 47.218926]}},
{"type": "Feature", "id": "RvD1MKpHaTLzCxOWZC7ZhoV5P-4=", "properties": {"ref": "00-3111", "@spider": "merkur", "addr:full": "Kaiserin Elisabethstrasse 19", "addr:city": "Moedling", "addr:state": "Niederoesterreich", "addr:postcode": "2340", "addr:country": "AT", "name": "BILLA AG FIL. 3111", "phone": "059915 03111", "brand": "Merkur", "brand:wikidata": "Q1921857"}, "geometry": {"type": "Point", "coordinates": [16.282772, 48.0839014]}},
{"type": "Feature", "id": "9Ei8MRUb4fqwv2yIg2myl4KjvBQ=", "properties": {"ref": "00-6349", "@spider": "merkur", "addr:full": "Herrgottwiesgasse 119", "addr:city": "Graz", "addr:state": "Steiermark", "addr:postcode": "8020", "addr:country": "AT", "name": "BILLA AG FIL. 6349", "phone": "059915 06349", "brand": "Merkur", "brand:wikidata": "Q1921857"}, "geometry": {"type": "Point", "coordinates": [15.43441, 47.04773]}},
{"type": "Feature", "id": "HtX9rVj6-ETDRed_QSX-GSkwRYo=", "properties": {"ref": "00-1265", "@spider": "merkur", "addr:full": "Meidlinger Hauptstr. 78-8", "addr:city": "Wien", "addr:state": "Wien", "addr:postcode": "1120", "addr:country": "AT", "name": "BILLA AG FIL. 1265", "phone": "059915 01265", "brand": "Merkur", "brand:wikidata": "Q1921857"}, "geometry": {"type": "Point", "coordinates": [16.3299945, 48.1754452]}},
{"type": "Feature", "id": "h_7xDelWa3u53oDNlD7sIALHV38=", "properties": {"ref": "00-7827", "@spider": "merkur", "addr:full": "St. Martiner Strasse 46", "addr:city": "Villach", "addr:state": "Kaernten", "addr:postcode": "9500", "addr:country": "AT", "name": "BILLA AG FIL. 7827", "phone": "059915 07827", "brand": "Merkur", "brand:wikidata": "Q1921857"}, "geometry": {"type": "Point", "coordinates": [13.8314033, 46.6185242]}},
{"type": "Feature", "id": "is_SLKroo_DbOZM3ZL8umYNITEc=", "properties": {"ref": "00-4879", "@spider": "merkur", "addr:full": "Hubergutstrasse 14", "addr:city": "Steyr", "addr:state": "Oberoesterreich", "addr:postcode": "4400", "addr:country": "AT", "name": "BILLA AG FIL. 4879", "phone": "059915 04879", "brand": "Merkur", "brand:wikidata": "Q1921857"}, "geometry": {"type": "Point", "coordinates": [14.42572, 48.02975]}},
{"type": "Feature", "id": "kAoZ6pcSD3j20meJ5aNQDDGMLi0=", "properties": {"ref": "00-2111", "@spider": "merkur", "addr:full": "Bruenner Strasse 57 D", "addr:city": "Wien", "addr:state": "Wien", "addr:postcode": "1210", "addr:country": "AT", "name": "BILLA AG FIL. 2111", "phone": "059915 02111", "brand": "Merkur", "brand:wikidata": "Q1921857"}, "geometry": {"type": "Point", "coordinates": [16.4029281, 48.267492]}},
{"type": "Feature", "id": "kABPWtCpXdxX7-XWj5xNz6KPWSw=", "properties": {"ref": "00-7611", "@spider": "merkur", "addr:full": "Schillerstrasse 1", "addr:city": "Feldkirchen", "addr:state": "Kaernten", "addr:postcode": "9560", "addr:country": "AT", "name": "BILLA AG FIL. 7611", "phone": "059915 07611", "brand": "Merkur", "brand:wikidata": "Q1921857"}, "geometry": {"type": "Point", "coordinates": [14.08838, 46.72631]}},
{"type": "Feature", "id": "4CbFAPZezzBsDRdXCafNjbs2zws=", "properties": {"ref": "00-1041", "@spider": "merkur", "addr:full": "Quellenstrasse 189-195", "addr:city": "Wien", "addr:state": "Wien", "addr:postcode": "1100", "addr:country": "AT", "name": "BILLA AG FIL. 1041", "phone": "059915 01041", "brand": "Merkur", "brand:wikidata": "Q1921857"}, "geometry": {"type": "Point", "coordinates": [16.36194, 48.17638]}},
{"type": "Feature", "id": "Q_ak6CN3bn0qvCX3kYd7KqnPsGg=", "properties": {"ref": "00-2156", "@spider": "merkur", "addr:full": "Pragerstrasse 286", "addr:city": "Wien", "addr:state": "Wien", "addr:postcode": "1210", "addr:country": "AT", "name": "BILLA AG FIL. 2156", "phone": "059915 02156", "brand": "Merkur", "brand:wikidata": "Q1921857"}, "geometry": {"type": "Point", "coordinates": [16.3778724, 48.2962552]}},
{"type": "Feature", "id": "GDaTg0_nZA0n_PCFDYXpw67UDQw=", "properties": {"ref": "00-2108", "@spider": "merkur", "addr:full": "Angyalf\u00f6ldstrasse 76", "addr:city": "Wien", "addr:state": "Wien", "addr:postcode": "1210", "addr:country": "AT", "name": "BILLA AG FIL. 2108", "phone": "059915 02108", "brand": "Merkur", "brand:wikidata": "Q1921857"}, "geometry": {"type": "Point", "coordinates": [16.4260635, 48.2537982]}},
{"type": "Feature", "id": "6WNrBv_xzGc0JQy2uLrZHEwAAoY=", "properties": {"ref": "00-8171", "@spider": "merkur", "addr:full": "Dorf 39", "addr:city": "Ellmau", "addr:state": "Tirol", "addr:postcode": "6352", "addr:country": "AT", "name": "BILLA AG FIL. 8171", "phone": "059915 08171", "brand": "Merkur", "brand:wikidata": "Q1921857"}, "geometry": {"type": "Point", "coordinates": [12.3050424, 47.513705]}},
{"type": "Feature", "id": "1NPOnTN2DHkmBkPnG5C979K2JX4=", "properties": {"ref": "00-7544", "@spider": "merkur", "addr:full": "Kaerntnerstrasse 1", "addr:city": "Villach", "addr:state": "Kaernten", "addr:postcode": "9500", "addr:country": "AT", "name": "BILLA AG FIL. 7544", "phone": "059915 07544", "brand": "Merkur", "brand:wikidata": "Q1921857"}, "geometry": {"type": "Point", "coordinates": [13.8415138, 46.6005061]}},
{"type": "Feature", "id": "MujYVJno5eCgU7GCT599oPFEUYg=", "properties": {"ref": "00-3032", "@spider": "merkur", "addr:full": "Strasse D. 12. Februar 22", "addr:city": "Ternitz", "addr:state": "Niederoesterreich", "addr:postcode": "2630", "addr:country": "AT", "name": "BILLA AG FIL. 3032", "phone": "059915 03032", "brand": "Merkur", "brand:wikidata": "Q1921857"}, "geometry": {"type": "Point", "coordinates": [16.03239, 47.71961]}},
{"type": "Feature", "id": "LVBCO0Xs43PMzp82RFeOnejw_E4=", "properties": {"ref": "00-8140", "@spider": "merkur", "addr:full": "Untermarkt 33", "addr:city": "Reutte", "addr:state": "Tirol", "addr:postcode": "6600", "addr:country": "AT", "name": "BILLA AG FIL. 8140", "phone": "059915 08140", "brand": "Merkur", "brand:wikidata": "Q1921857"}, "geometry": {"type": "Point", "coordinates": [10.717503, 47.492175]}},
{"type": "Feature", "id": "kxx-gCqnuKrpRHkPH2b_AspbiU4=", "properties": {"ref": "00-3103", "@spider": "merkur", "addr:full": "Hauptstrasse 60", "addr:city": "Tullnerbach", "addr:state": "Niederoesterreich", "addr:postcode": "3013", "addr:country": "AT", "name": "BILLA AG FIL. 3103", "phone": "059915 03103", "brand": "Merkur", "brand:wikidata": "Q1921857"}, "geometry": {"type": "Point", "coordinates": [16.09218, 48.18425]}},
{"type": "Feature", "id": "gxdzWSlAcMike3kD_BsCSIWKO94=", "properties": {"ref": "00-2204", "@spider": "merkur", "addr:full": "Ziegelhofstrasse 24a (Ident Pirquetgasse 1)", "addr:city": "Wien", "addr:state": "Wien", "addr:postcode": "1220", "addr:country": "AT", "name": "BILLA AG FIL. 2204", "phone": "059915 02204", "brand": "Merkur", "brand:wikidata": "Q1921857"}, "geometry": {"type": "Point", "coordinates": [16.47795, 48.23797]}},
{"type": "Feature", "id": "JP1-bvR97qQQOW5_4DXHOKCfZrY=", "properties": {"ref": "00-2300", "@spider": "merkur", "addr:full": "Mehlfuehrergasse 30", "addr:city": "Wien", "addr:state": "Wien", "addr:postcode": "1230", "addr:country": "AT", "name": "BILLA AG FIL. 2300", "phone": "059915 02300", "brand": "Merkur", "brand:wikidata": "Q1921857"}, "geometry": {"type": "Point", "coordinates": [16.2841941, 48.146252]}},
{"type": "Feature", "id": "DjfkxP1QQHGdGQEHFSrfXMI9v2U=", "properties": {"ref": "00-2339", "@spider": "merkur", "addr:full": "Purkytgasse 5", "addr:city": "Wien", "addr:state": "Wien", "addr:postcode": "1230", "addr:country": "AT", "name": "BILLA AG FIL. 2339", "phone": "059915 02339", "brand": "Merkur", "brand:wikidata": "Q1921857"}, "geometry": {"type": "Point", "coordinates": [16.33212, 48.15007]}},
{"type": "Feature", "id": "CjjD8hRXT6nsx-i9xfYSiyEeJi4=", "properties": {"ref": "00-1933", "@spider": "merkur", "addr:full": "Weinberggasse 58/1", "addr:city": "Wien", "addr:state": "Wien", "addr:postcode": "1190", "addr:country": "AT", "name": "BILLA AG FIL. 1933", "phone": "059915 01933", "brand": "Merkur", "brand:wikidata": "Q1921857"}, "geometry": {"type": "Point", "coordinates": [16.3327092, 48.2438531]}},
{"type": "Feature", "id": "xwcSp1daCjQi_R7beeYU8RJd8N4=", "properties": {"ref": "00-8085", "@spider": "merkur", "addr:full": "Stuben 746", "addr:city": "Pfunds", "addr:state": "Tirol", "addr:postcode": "6542", "addr:country": "AT", "name": "BILLA AG FIL. 8085", "phone": "059915 08085", "brand": "Merkur", "brand:wikidata": "Q1921857"}, "geometry": {"type": "Point", "coordinates": [10.5311052, 46.9675546]}},
{"type": "Feature", "id": "N4KLsEzFVC-Cq8YA73attQ35tSQ=", "properties": {"ref": "00-2201", "@spider": "merkur", "addr:full": "Grossenzersdorferstrasse 74/Flugfeldstrasse 2", "addr:city": "Wien", "addr:state": "Wien", "addr:postcode": "1220", "addr:country": "AT", "name": "BILLA AG FIL. 2201", "phone": "059915 02201", "brand": "Merkur", "brand:wikidata": "Q1921857"}, "geometry": {"type": "Point", "coordinates": [16.5036, 48.2152]}},
{"type": "Feature", "id": "diNuoOzfMPfNRx0kPL6bqqvwreM=", "properties": {"ref": "00-6001", "@spider": "merkur", "addr:full": "Marktstrasse 187a", "addr:city": "Haus", "addr:state": "Steiermark", "addr:postcode": "8967", "addr:country": "AT", "name": "BILLA AG FIL. 6001", "phone": "059915 06001", "brand": "Merkur", "brand:wikidata": "Q1921857"}, "geometry": {"type": "Point", "coordinates": [13.77149, 47.41157]}},
{"type": "Feature", "id": "b0WUmEUFyui57goE-dud8dsscnU=", "properties": {"ref": "00-7866", "@spider": "merkur", "addr:full": "Kaerntnerstrasse 65", "addr:city": "Lienz", "addr:state": "Tirol", "addr:postcode": "9900", "addr:country": "AT", "name": "BILLA AG FIL. 7866", "phone": "059915 07866", "brand": "Merkur", "brand:wikidata": "Q1921857"}, "geometry": {"type": "Point", "coordinates": [12.78031, 46.83191]}},
{"type": "Feature", "id": "KBz9SWo5stEtfFiUQMCPpcb1urE=", "properties": {"ref": "00-9886", "@spider": "merkur", "addr:full": "Hauptstrasse 17", "addr:city": "Hinterbruehl", "addr:state": "Niederoesterreich", "addr:postcode": "2371", "addr:country": "AT", "name": "BILLA AG FIL. 9886", "phone": "059915 09886", "brand": "Merkur", "brand:wikidata": "Q1921857"}, "geometry": {"type": "Point", "coordinates": [16.25524, 48.0865]}},
{"type": "Feature", "id": "rSX1nInGtXfbjyErAOOQ4rvx71s=", "properties": {"ref": "00-7675", "@spider": "merkur", "addr:full": "Stadthammerstrasse 10", "addr:city": "Wolfsberg", "addr:state": "Kaernten", "addr:postcode": "9400", "addr:country": "AT", "name": "BILLA AG FIL. 7675", "phone": "059915 07675", "brand": "Merkur", "brand:wikidata": "Q1921857"}, "geometry": {"type": "Point", "coordinates": [14.8424, 46.84232]}},
{"type": "Feature", "id": "JbUnAemtyBaEvbSCMbaR_5a7DfE=", "properties": {"ref": "00-4583", "@spider": "merkur", "addr:full": "Freistaedterstr. 400", "addr:city": "Linz", "addr:state": "Oberoesterreich", "addr:postcode": "4040", "addr:country": "AT", "name": "BILLA AG FIL. 4583", "phone": "059915 04583", "brand": "Merkur", "brand:wikidata": "Q1921857"}, "geometry": {"type": "Point", "coordinates": [14.3251114, 48.3276507]}},
{"type": "Feature", "id": "nLRYMjpvcqAG3fMLNFiKI5GoDKI=", "properties": {"ref": "00-2313", "@spider": "merkur", "addr:full": "Willergasse 24-30", "addr:city": "Wien", "addr:state": "Wien", "addr:postcode": "1230", "addr:country": "AT", "name": "BILLA AG FIL. 2313", "phone": "059915 02313", "brand": "Merkur", "brand:wikidata": "Q1921857"}, "geometry": {"type": "Point", "coordinates": [16.2566303, 48.1338359]}},
{"type": "Feature", "id": "Axm2QBUPGcVNGQQryqFzrjrGhlQ=", "properties": {"ref": "00-8031", "@spider": "merkur", "addr:full": "Achenfeldweg 12", "addr:city": "Kundl", "addr:state": "Tirol", "addr:postcode": "6250", "addr:country": "AT", "name": "BILLA AG FIL. 8031", "phone": "059915 08031", "brand": "Merkur", "brand:wikidata": "Q1921857"}, "geometry": {"type": "Point", "coordinates": [11.9924, 47.46798]}},
{"type": "Feature", "id": "EmRDihgse5eHNcxdW9MXG4Trijs=", "properties": {"ref": "00-2011", "@spider": "merkur", "addr:full": "Dresdnerstrasse 33-47", "addr:city": "Wien", "addr:state": "Wien", "addr:postcode": "1200", "addr:country": "AT", "name": "BILLA AG FIL. 2011", "phone": "059915 02011", "brand": "Merkur", "brand:wikidata": "Q1921857"}, "geometry": {"type": "Point", "coordinates": [16.3792264, 48.2378668]}},
{"type": "Feature", "id": "cyHPm8T1ewZqik63X5oFXw_A0UE=", "properties": {"ref": "00-3143", "@spider": "merkur", "addr:full": "Langenloiser Strasse  49", "addr:city": "Gfoehl", "addr:state": "Niederoesterreich", "addr:postcode": "3542", "addr:country": "AT", "name": "BILLA AG FIL. 3143", "phone": "059915 03143", "brand": "Merkur", "brand:wikidata": "Q1921857"}, "geometry": {"type": "Point", "coordinates": [15.499628, 48.515479]}},
{"type": "Feature", "id": "YbBrXv0YB7KBsCUnN0cuQ5fVxZo=", "properties": {"ref": "00-9030", "@spider": "merkur", "addr:full": "Industriestrasse", "addr:city": "Friesach", "addr:state": "Kaernten", "addr:postcode": "9360", "addr:country": "AT", "name": "BILLA AG FIL. 9030", "phone": "059915 09030", "brand": "Merkur", "brand:wikidata": "Q1921857"}, "geometry": {"type": "Point", "coordinates": [14.4134636, 46.9536183]}},
{"type": "Feature", "id": "0kIhQ-sxsLV9MKxBvydFhPKz-hk=", "properties": {"ref": "00-301", "@spider": "merkur", "addr:full": "Thomas Klestil Platz 15/Erdbergstrasse 139", "addr:city": "Wien", "addr:state": "Wien", "addr:postcode": "1030", "addr:country": "AT", "name": "BILLA AG FIL. 301", "phone": "059915 00301", "brand": "Merkur", "brand:wikidata": "Q1921857"}, "geometry": {"type": "Point", "coordinates": [16.412096, 48.192635]}},
{"type": "Feature", "id": "CEd8ab6JCAFvHGZ4u16KIXr4eOk=", "properties": {"ref": "00-8646", "@spider": "merkur", "addr:full": "Langgasse 49", "addr:city": "Imst", "addr:state": "Tirol", "addr:postcode": "6460", "addr:country": "AT", "name": "BILLA AG FIL. 8646", "phone": "059915 08646", "brand": "Merkur", "brand:wikidata": "Q1921857"}, "geometry": {"type": "Point", "coordinates": [10.744095, 47.230682]}},
{"type": "Feature", "id": "g26N_QWRcorJEAKVwAhDxactAxs=", "properties": {"ref": "00-7721", "@spider": "merkur", "addr:full": "Walbersdorf Arenaplatz 8", "addr:city": "Mattersburg", "addr:state": "Burgenland", "addr:postcode": "7210", "addr:country": "AT", "name": "BILLA AG FIL. 7721", "phone": "059915 07721", "brand": "Merkur", "brand:wikidata": "Q1921857"}, "geometry": {"type": "Point", "coordinates": [16.41869, 47.747096]}},
{"type": "Feature", "id": "pB3eNSuYRFD-tiMfftlZeTq8nSU=", "properties": {"ref": "00-7701", "@spider": "merkur", "addr:full": "Ruster Strasse 81", "addr:city": "Eisenstadt", "addr:state": "Burgenland", "addr:postcode": "7000", "addr:country": "AT", "name": "BILLA AG FIL. 7701", "phone": "059915 07701", "brand": "Merkur", "brand:wikidata": "Q1921857"}, "geometry": {"type": "Point", "coordinates": [16.528004, 47.837736]}},
{"type": "Feature", "id": "qsqaomlV6hBg98FgSwgatnVHdbI=", "properties": {"ref": "00-6855", "@spider": "merkur", "addr:full": "Gradnerstrasse6", "addr:city": "Graz-Puntigam", "addr:state": "Steiermark", "addr:postcode": "8055", "addr:country": "AT", "name": "BILLA AG FIL. 6855", "phone": "059915 06855", "brand": "Merkur", "brand:wikidata": "Q1921857"}, "geometry": {"type": "Point", "coordinates": [15.43012, 47.02346]}},
{"type": "Feature", "id": "XoqRalRXtiDVBq_Qm6XLLxMmr7E=", "properties": {"ref": "00-2213", "@spider": "merkur", "addr:full": "Langobardenstrasse 14", "addr:city": "Wien", "addr:state": "Wien", "addr:postcode": "1220", "addr:country": "AT", "name": "BILLA AG FIL. 2213", "phone": "059915 02213", "brand": "Merkur", "brand:wikidata": "Q1921857"}, "geometry": {"type": "Point", "coordinates": [16.453584, 48.22493]}},
{"type": "Feature", "id": "32qQ5Li5Fkm6iBNl4aAoG5ITytY=", "properties": {"ref": "00-8606", "@spider": "merkur", "addr:full": "Brockenweg 2", "addr:city": "Hall In Tirol", "addr:state": "Tirol", "addr:postcode": "6060", "addr:country": "AT", "name": "BILLA AG FIL. 8606", "phone": "059915 08606", "brand": "Merkur", "brand:wikidata": "Q1921857"}, "geometry": {"type": "Point", "coordinates": [11.511754, 47.280204]}},
{"type": "Feature", "id": "1HuI98i9zlHTcV9oMRBea6MSeek=", "properties": {"ref": "00-4048", "@spider": "merkur", "addr:full": "Wuestenrotplatz 2-4", "addr:city": "Linz", "addr:state": "Oberoesterreich", "addr:postcode": "4030", "addr:country": "AT", "name": "BILLA AG FIL. 4048", "phone": "059915 04048", "brand": "Merkur", "brand:wikidata": "Q1921857"}, "geometry": {"type": "Point", "coordinates": [14.3085388, 48.2492086]}},
{"type": "Feature", "id": "u2fKPgE6nRwTmTXxl0RfR3KN4So=", "properties": {"ref": "00-3027", "@spider": "merkur", "addr:full": "Triester Strasse 248", "addr:city": "Voesendorf", "addr:state": "Niederoesterreich", "addr:postcode": "2331", "addr:country": "AT", "name": "BILLA AG FIL. 3027", "phone": "059915 03027", "brand": "Merkur", "brand:wikidata": "Q1921857"}, "geometry": {"type": "Point", "coordinates": [16.32581, 48.13737]}},
{"type": "Feature", "id": "p-N3j3p5xTnb8pEBz4rYvf0LSWw=", "properties": {"ref": "00-1670", "@spider": "merkur", "addr:full": "Thaliastrasse 154 A", "addr:city": "Wien", "addr:state": "Wien", "addr:postcode": "1160", "addr:country": "AT", "name": "BILLA AG FIL. 1670", "phone": "059915 01670", "brand": "Merkur", "brand:wikidata": "Q1921857"}, "geometry": {"type": "Point", "coordinates": [16.3076819, 48.2137075]}},
{"type": "Feature", "id": "6nXeNPjXEUyVUqyGZcaJ8hC99xA=", "properties": {"ref": "00-3146", "@spider": "merkur", "addr:full": "Wienerstrasse 52", "addr:city": "Wolkersdorf", "addr:state": "Niederoesterreich", "addr:postcode": "2120", "addr:country": "AT", "name": "BILLA AG FIL. 3146", "phone": "059915 03146", "brand": "Merkur", "brand:wikidata": "Q1921857"}, "geometry": {"type": "Point", "coordinates": [16.507618, 48.3757165]}},
{"type": "Feature", "id": "ziVtYRtnecAMmlQ9llLQ9iUyklY=", "properties": {"ref": "00-4146", "@spider": "merkur", "addr:full": "Attnanger Strasse 4", "addr:city": "Ottnang", "addr:state": "Oberoesterreich", "addr:postcode": "4901", "addr:country": "AT", "name": "BILLA AG FIL. 4146", "phone": "059915 04146", "brand": "Merkur", "brand:wikidata": "Q1921857"}, "geometry": {"type": "Point", "coordinates": [13.66186, 48.09525]}},
{"type": "Feature", "id": "f_MuIfTjcCzGmNzDOFY96CbwpdU=", "properties": {"ref": "00-5131", "@spider": "merkur", "addr:full": "Salzburgerstrasse 143", "addr:city": "Hallein", "addr:state": "Salzburg", "addr:postcode": "5400", "addr:country": "AT", "name": "BILLA AG FIL. 5131", "phone": "059915 05131", "brand": "Merkur", "brand:wikidata": "Q1921857"}, "geometry": {"type": "Point", "coordinates": [13.061158, 47.72157]}},
{"type": "Feature", "id": "50LWCNVKFcdSqupcJODejjGDTck=", "properties": {"ref": "00-7547", "@spider": "merkur", "addr:full": "Obervellach Nr. 217", "addr:city": "Obervellach", "addr:state": "Kaernten", "addr:postcode": "9821", "addr:country": "AT", "name": "BILLA AG FIL. 7547", "phone": "059915 07547", "brand": "Merkur", "brand:wikidata": "Q1921857"}, "geometry": {"type": "Point", "coordinates": [13.2065, 46.9299]}},
{"type": "Feature", "id": "1oQQa3YqOcxozDWZIp-UTspfxMY=", "properties": {"ref": "00-7603", "@spider": "merkur", "addr:full": "Wiedweg 45", "addr:city": "Patergassen", "addr:state": "Kaernten", "addr:postcode": "9564", "addr:country": "AT", "name": "BILLA AG FIL. 7603", "phone": "059915 07603", "brand": "Merkur", "brand:wikidata": "Q1921857"}, "geometry": {"type": "Point", "coordinates": [13.86121, 46.81751]}},
{"type": "Feature", "id": "HHlX92YdZTRCH5apIO1i2di9zOU=", "properties": {"ref": "00-4181", "@spider": "merkur", "addr:full": "Lonstorferpl 1/Franckstr", "addr:city": "Linz", "addr:state": "Oberoesterreich", "addr:postcode": "4020", "addr:country": "AT", "name": "BILLA AG FIL. 4181", "phone": "059915 04181", "brand": "Merkur", "brand:wikidata": "Q1921857"}, "geometry": {"type": "Point", "coordinates": [14.31381, 48.29391]}},
{"type": "Feature", "id": "IhcdOMhnt5-NXqidXciBbiATWD8=", "properties": {"ref": "00-2253", "@spider": "merkur", "addr:full": "Schuettaustrasse 51", "addr:city": "Wien", "addr:state": "Wien", "addr:postcode": "1220", "addr:country": "AT", "name": "BILLA AG FIL. 2253", "phone": "059915 02253", "brand": "Merkur", "brand:wikidata": "Q1921857"}, "geometry": {"type": "Point", "coordinates": [16.4219197, 48.2275399]}},
{"type": "Feature", "id": "ZzGd0y6ILhcypyosq7J77bKb9ho=", "properties": {"ref": "00-3047", "@spider": "merkur", "addr:full": "Wienerstrasse 9", "addr:city": "Klosterneuburg", "addr:state": "Niederoesterreich", "addr:postcode": "3400", "addr:country": "AT", "name": "BILLA AG FIL. 3047", "phone": "059915 03047", "brand": "Merkur", "brand:wikidata": "Q1921857"}, "geometry": {"type": "Point", "coordinates": [16.33337, 48.299]}},
{"type": "Feature", "id": "7bVz4zBZUdfyYqloS2jMKWxhuLw=", "properties": {"ref": "00-3156", "@spider": "merkur", "addr:full": "Gerasdorfergasse 31", "addr:city": "Wiener Neustadt", "addr:state": "Niederoesterreich", "addr:postcode": "2700", "addr:country": "AT", "name": "BILLA AG FIL. 3156", "phone": "059915 03156", "brand": "Merkur", "brand:wikidata": "Q1921857"}, "geometry": {"type": "Point", "coordinates": [16.211799, 47.8049105]}},
{"type": "Feature", "id": "F4G-2k9wdw-Qb04YowCrK6L7wP8=", "properties": {"ref": "00-4881", "@spider": "merkur", "addr:full": "Leopold Werndl Str.29", "addr:city": "Steyr", "addr:state": "Oberoesterreich", "addr:postcode": "4400", "addr:country": "AT", "name": "BILLA AG FIL. 4881", "phone": "059915 04881", "brand": "Merkur", "brand:wikidata": "Q1921857"}, "geometry": {"type": "Point", "coordinates": [14.40981, 48.02874]}},
{"type": "Feature", "id": "34VA_lEVwXG2VODqBaKRKdKS6B8=", "properties": {"ref": "00-7232", "@spider": "merkur", "addr:full": "Moerbischer Strasse 10", "addr:city": "Rust", "addr:state": "Burgenland", "addr:postcode": "7071", "addr:country": "AT", "name": "BILLA AG FIL. 7232", "phone": "059915 07232", "brand": "Merkur", "brand:wikidata": "Q1921857"}, "geometry": {"type": "Point", "coordinates": [16.6733249, 47.7952194]}},
{"type": "Feature", "id": "ROznPUFTT68OUMkS2jlG4-NkOaQ=", "properties": {"ref": "00-2200", "@spider": "merkur", "addr:full": "Am Heidjoechl 14/Stiege 1", "addr:city": "Wien", "addr:state": "Wien", "addr:postcode": "1220", "addr:country": "AT", "name": "BILLA AG FIL. 2200", "phone": "059915 02200", "brand": "Merkur", "brand:wikidata": "Q1921857"}, "geometry": {"type": "Point", "coordinates": [16.4864303, 48.2373369]}},
{"type": "Feature", "id": "qiKiDS8OeTOPyvwYX-0SDHKopFI=", "properties": {"ref": "00-7041", "@spider": "merkur", "addr:full": "Hauptstrasse 169", "addr:city": "Rohrbach Bei Mattersburg", "addr:state": "Burgenland", "addr:postcode": "7222", "addr:country": "AT", "name": "BILLA AG FIL. 7041", "phone": "059915 07041", "brand": "Merkur", "brand:wikidata": "Q1921857"}, "geometry": {"type": "Point", "coordinates": [16.428222, 47.715502]}},
{"type": "Feature", "id": "KMPQQqI87r6j_LeWKxykTn3s1qI=", "properties": {"ref": "00-3081", "@spider": "merkur", "addr:full": "Passhoehe 1", "addr:city": "Semmering", "addr:state": "Niederoesterreich", "addr:postcode": "2680", "addr:country": "AT", "name": "BILLA AG FIL. 3081", "phone": "059915 03081", "brand": "Merkur", "brand:wikidata": "Q1921857"}, "geometry": {"type": "Point", "coordinates": [15.83002, 47.63283]}},
{"type": "Feature", "id": "vG-wvs6vxK1DQectW7v-0TFraYk=", "properties": {"ref": "00-8426", "@spider": "merkur", "addr:full": "Bruggfeldstrasse 21 A", "addr:city": "Landeck", "addr:state": "Tirol", "addr:postcode": "6500", "addr:country": "AT", "name": "BILLA AG FIL. 8426", "phone": "059915 08426", "brand": "Merkur", "brand:wikidata": "Q1921857"}, "geometry": {"type": "Point", "coordinates": [10.557702, 47.140597]}},
{"type": "Feature", "id": "Aou6HgWbb8stIvKgPl6Stt91ais=", "properties": {"ref": "00-3063", "@spider": "merkur", "addr:full": "Wiener Strasse 67/Oskar Helmer Strasse", "addr:city": "Traiskirchen", "addr:state": "Niederoesterreich", "addr:postcode": "2514", "addr:country": "AT", "name": "BILLA AG FIL. 3063", "phone": "059915 03063", "brand": "Merkur", "brand:wikidata": "Q1921857"}, "geometry": {"type": "Point", "coordinates": [16.2961312, 48.0202415]}},
{"type": "Feature", "id": "lFmkBieN55z5ozYhHaWNCnYdO1k=", "properties": {"ref": "00-2543", "@spider": "merkur", "addr:full": "Saikogasse 3a", "addr:city": "Wien", "addr:state": "Wien", "addr:postcode": "1220", "addr:country": "AT", "name": "BILLA AG FIL. 2543", "phone": "059915 02543", "brand": "Merkur", "brand:wikidata": "Q1921857"}, "geometry": {"type": "Point", "coordinates": [16.43763, 48.25303]}},
{"type": "Feature", "id": "ahSqII2qouijOFuhE09czUN3DaA=", "properties": {"ref": "00-1701", "@spider": "merkur", "addr:full": "Franz Glasergasse 1-3", "addr:city": "Wien", "addr:state": "Wien", "addr:postcode": "1170", "addr:country": "AT", "name": "BILLA AG FIL. 1701", "phone": "059915 01701", "brand": "Merkur", "brand:wikidata": "Q1921857"}, "geometry": {"type": "Point", "coordinates": [16.29568, 48.22642]}},
{"type": "Feature", "id": "Qu-DW3b4F7RflsAX3UtGEzSE59o=", "properties": {"ref": "00-9837", "@spider": "merkur", "addr:full": "Forellenweg 2", "addr:city": "Kirchschlag", "addr:state": "Niederoesterreich", "addr:postcode": "2860", "addr:country": "AT", "name": "BILLA AG FIL. 9837", "phone": "059915 09837", "brand": "Merkur", "brand:wikidata": "Q1921857"}, "geometry": {"type": "Point", "coordinates": [16.28341, 47.49369]}},
{"type": "Feature", "id": "gLvEDdV5mx_VX8-lXiFI3sD-L5Y=", "properties": {"ref": "00-3509", "@spider": "merkur", "addr:full": "Koenigstetterstrasse 10", "addr:city": "Tulln", "addr:state": "Niederoesterreich", "addr:postcode": "3430", "addr:country": "AT", "name": "BILLA AG FIL. 3509", "phone": "059915 03509", "brand": "Merkur", "brand:wikidata": "Q1921857"}, "geometry": {"type": "Point", "coordinates": [16.06057, 48.32591]}},
{"type": "Feature", "id": "SDioj1ZG5_H7Rpvd1vkbsIZ7K9o=", "properties": {"ref": "00-350", "@spider": "merkur", "addr:full": "Markhofgasse 1-9/Schlachthausgasse 23-29", "addr:city": "Wien", "addr:state": "Wien", "addr:postcode": "1030", "addr:country": "AT", "name": "BILLA AG FIL. 350", "phone": "059915 00350", "brand": "Merkur", "brand:wikidata": "Q1921857"}, "geometry": {"type": "Point", "coordinates": [16.4077058, 48.1942463]}},
{"type": "Feature", "id": "YHmwfdEgaXhCa5l2b-IgxmvGyl4=", "properties": {"ref": "00-921", "@spider": "merkur", "addr:full": "Schlickg. 6/Bergg.26-28", "addr:city": "Wien", "addr:state": "Wien", "addr:postcode": "1090", "addr:country": "AT", "name": "BILLA AG FIL. 921", "phone": "059915 00921", "brand": "Merkur", "brand:wikidata": "Q1921857"}, "geometry": {"type": "Point", "coordinates": [16.36486, 48.21911]}},
{"type": "Feature", "id": "8nQRSWlOi8veojFP-yrdqvD8BwA=", "properties": {"ref": "00-1070", "@spider": "merkur", "addr:full": "Grundaeckergasse 38", "addr:city": "Wien", "addr:state": "Wien", "addr:postcode": "1100", "addr:country": "AT", "name": "BILLA AG FIL. 1070", "phone": "059915 01070", "brand": "Merkur", "brand:wikidata": "Q1921857"}, "geometry": {"type": "Point", "coordinates": [16.3927, 48.13997]}},
{"type": "Feature", "id": "mKjmQ09osPc7Yu1qqzs2nyVmhRw=", "properties": {"ref": "00-4639", "@spider": "merkur", "addr:full": "Goethestr.3", "addr:city": "Ried Im Innkreis", "addr:state": "Oberoesterreich", "addr:postcode": "4910", "addr:country": "AT", "name": "BILLA AG FIL. 4639", "phone": "059915 04639", "brand": "Merkur", "brand:wikidata": "Q1921857"}, "geometry": {"type": "Point", "coordinates": [13.48602, 48.21389]}},
{"type": "Feature", "id": "g4BTSfBLNH4Pp6UBbnsJqXtCSQs=", "properties": {"ref": "00-7621", "@spider": "merkur", "addr:full": "Goesserringlaende 7", "addr:city": "Hermagor", "addr:state": "Kaernten", "addr:postcode": "9620", "addr:country": "AT", "name": "BILLA AG FIL. 7621", "phone": "059915 07621", "brand": "Merkur", "brand:wikidata": "Q1921857"}, "geometry": {"type": "Point", "coordinates": [13.37251, 46.62588]}},
{"type": "Feature", "id": "RQjzBeNrLvSOa3_XO8UL9B6h2fQ=", "properties": {"ref": "00-6902", "@spider": "merkur", "addr:full": "Ragnitzstrasse 12-14", "addr:city": "Graz", "addr:state": "Steiermark", "addr:postcode": "8010", "addr:country": "AT", "name": "BILLA AG FIL. 6902", "phone": "059915 06902", "brand": "Merkur", "brand:wikidata": "Q1921857"}, "geometry": {"type": "Point", "coordinates": [15.4727977, 47.0787658]}},
{"type": "Feature", "id": "7HB7uGE1u5qb6t0vjKadcC3hNZU=", "properties": {"ref": "00-8417", "@spider": "merkur", "addr:full": "St.Johanner Strasse 20a", "addr:city": "Kitzbuehel", "addr:state": "Tirol", "addr:postcode": "6370", "addr:country": "AT", "name": "BILLA AG FIL. 8417", "phone": "059915 08417", "brand": "Merkur", "brand:wikidata": "Q1921857"}, "geometry": {"type": "Point", "coordinates": [12.38699, 47.45748]}},
{"type": "Feature", "id": "egGZMMTCB4UmT5PVdNCdxlNgIco=", "properties": {"ref": "00-4515", "@spider": "merkur", "addr:full": "Wienerstrasse 65", "addr:city": "Linz", "addr:state": "Oberoesterreich", "addr:postcode": "4020", "addr:country": "AT", "name": "BILLA AG FIL. 4515", "phone": "059915 04515", "brand": "Merkur", "brand:wikidata": "Q1921857"}, "geometry": {"type": "Point", "coordinates": [14.3001025, 48.2878611]}},
{"type": "Feature", "id": "nwp2U_CKaC3-w3UMu0wibt0qgjc=", "properties": {"ref": "00-380", "@spider": "merkur", "addr:full": "Erdbergstrasse 85", "addr:city": "Wien", "addr:state": "Wien", "addr:postcode": "1030", "addr:country": "AT", "name": "BILLA AG FIL. 380", "phone": "059915 00380", "brand": "Merkur", "brand:wikidata": "Q1921857"}, "geometry": {"type": "Point", "coordinates": [16.4029, 48.19693]}},
{"type": "Feature", "id": "-VkjCRARgiTauifgid8Ahfuxxfo=", "properties": {"ref": "00-9399", "@spider": "merkur", "addr:full": "Raiffeisenstrasse 4", "addr:city": "Neunkirchen", "addr:state": "Niederoesterreich", "addr:postcode": "2620", "addr:country": "AT", "name": "BILLA AG FIL. 9399", "phone": "059915 09399", "brand": "Merkur", "brand:wikidata": "Q1921857"}, "geometry": {"type": "Point", "coordinates": [16.08443, 47.71996]}},
{"type": "Feature", "id": "-Clf6H4_p7oTQSwsMLsB3AZvcvE=", "properties": {"ref": "00-2140", "@spider": "merkur", "addr:full": "Meriangasse 3", "addr:city": "Wien", "addr:state": "Wien", "addr:postcode": "1210", "addr:country": "AT", "name": "BILLA AG FIL. 2140", "phone": "059915 02140", "brand": "Merkur", "brand:wikidata": "Q1921857"}, "geometry": {"type": "Point", "coordinates": [16.38414, 48.29165]}},
{"type": "Feature", "id": "J1-_JFbhlrRDalTrePcnZg0TpK4=", "properties": {"ref": "00-3740", "@spider": "merkur", "addr:full": "Herzog Albrecht Str. 2", "addr:city": "Mistelbach", "addr:state": "Niederoesterreich", "addr:postcode": "2130", "addr:country": "AT", "name": "BILLA AG FIL. 3740", "phone": "059915 03740", "brand": "Merkur", "brand:wikidata": "Q1921857"}, "geometry": {"type": "Point", "coordinates": [16.59033, 48.56789]}},
{"type": "Feature", "id": "fRyWxdf57DJREKHXEP067Hx2_90=", "properties": {"ref": "00-7543", "@spider": "merkur", "addr:full": "Nikolaigasse 39", "addr:city": "Villach", "addr:state": "Kaernten", "addr:postcode": "9500", "addr:country": "AT", "name": "BILLA AG FIL. 7543", "phone": "059915 07543", "brand": "Merkur", "brand:wikidata": "Q1921857"}, "geometry": {"type": "Point", "coordinates": [13.85432, 46.61504]}},
{"type": "Feature", "id": "kLachbcSzQwTKkIU-MOpXce2GP4=", "properties": {"ref": "00-4120", "@spider": "merkur", "addr:full": "Steyrtalstrasse 4", "addr:city": "Gruenburg", "addr:state": "Oberoesterreich", "addr:postcode": "4594", "addr:country": "AT", "name": "BILLA AG FIL. 4120", "phone": "059915 04120", "brand": "Merkur", "brand:wikidata": "Q1921857"}, "geometry": {"type": "Point", "coordinates": [14.25645, 47.96488]}},
{"type": "Feature", "id": "es94z7kW1wEDjentRrnKDt18YFo=", "properties": {"ref": "00-2260", "@spider": "merkur", "addr:full": "Kagraner Platz 1-3", "addr:city": "Wien", "addr:state": "Wien", "addr:postcode": "1220", "addr:country": "AT", "name": "BILLA AG FIL. 2260", "phone": "059915 02260", "brand": "Merkur", "brand:wikidata": "Q1921857"}, "geometry": {"type": "Point", "coordinates": [16.4442934, 48.2504203]}},
{"type": "Feature", "id": "47gxPVzyu14LUJXLaUWbyPYTl7Q=", "properties": {"ref": "00-6156", "@spider": "merkur", "addr:full": "Wienerstrasse 18", "addr:city": "Knittelfeld", "addr:state": "Steiermark", "addr:postcode": "8720", "addr:country": "AT", "name": "BILLA AG FIL. 6156", "phone": "059915 06156", "brand": "Merkur", "brand:wikidata": "Q1921857"}, "geometry": {"type": "Point", "coordinates": [14.827988, 47.216898]}},
{"type": "Feature", "id": "3e7L2Y3vOR1vYQkV54NIaD067sg=", "properties": {"ref": "00-4813", "@spider": "merkur", "addr:full": "Braunauer Strasse 6b", "addr:city": "Mattighofen", "addr:state": "Oberoesterreich", "addr:postcode": "5230", "addr:country": "AT", "name": "BILLA AG FIL. 4813", "phone": "059915 04813", "brand": "Merkur", "brand:wikidata": "Q1921857"}, "geometry": {"type": "Point", "coordinates": [13.151257, 48.1094081]}},
{"type": "Feature", "id": "3eghHrA41ew0dRe737T3C2kUwA0=", "properties": {"ref": "00-2266", "@spider": "merkur", "addr:full": "Schiffmuehlenstrasse 43", "addr:city": "Wien", "addr:state": "Wien", "addr:postcode": "1220", "addr:country": "AT", "name": "BILLA AG FIL. 2266", "phone": "059915 02266", "brand": "Merkur", "brand:wikidata": "Q1921857"}, "geometry": {"type": "Point", "coordinates": [16.420218, 48.227519]}},
{"type": "Feature", "id": "NHq4Oiz9u0R1VhNvnXl_kWJkjBc=", "properties": {"ref": "00-7665", "@spider": "merkur", "addr:full": "Faakerseestrasse 5", "addr:city": "Finkenstein", "addr:state": "Kaernten", "addr:postcode": "9584", "addr:country": "AT", "name": "BILLA AG FIL. 7665", "phone": "059915 07665", "brand": "Merkur", "brand:wikidata": "Q1921857"}, "geometry": {"type": "Point", "coordinates": [13.869156, 46.561645]}},
{"type": "Feature", "id": "1VumTBYKHdNRzu8ovesAI9XZ0VI=", "properties": {"ref": "00-1098", "@spider": "merkur", "addr:full": "Laxenburger Strasse 115", "addr:city": "Wien", "addr:state": "Wien", "addr:postcode": "1100", "addr:country": "AT", "name": "BILLA AG FIL. 1098", "phone": "059915 01098", "brand": "Merkur", "brand:wikidata": "Q1921857"}, "geometry": {"type": "Point", "coordinates": [16.37118, 48.169717]}},
{"type": "Feature", "id": "NXI5rmIli3TuXndK98WvyTBASLE=", "properties": {"ref": "00-1128", "@spider": "merkur", "addr:full": "Baudissgasse 4-6/Awarenstr. 3-5", "addr:city": "Wien", "addr:state": "Wien", "addr:postcode": "1110", "addr:country": "AT", "name": "BILLA AG FIL. 1128", "phone": "059915 01128", "brand": "Merkur", "brand:wikidata": "Q1921857"}, "geometry": {"type": "Point", "coordinates": [16.461902, 48.146637]}},
{"type": "Feature", "id": "2i3FwPy-84Vh8AgUel18MVSrjn0=", "properties": {"ref": "00-3981", "@spider": "merkur", "addr:full": "Wiener Strasse 85", "addr:city": "Melk", "addr:state": "Niederoesterreich", "addr:postcode": "3390", "addr:country": "AT", "name": "BILLA PLUS FIL. 3981", "phone": "059915 03981", "brand": "Merkur", "brand:wikidata": "Q1921857"}, "geometry": {"type": "Point", "coordinates": [15.3479452, 48.2261028]}},
{"type": "Feature", "id": "tq0w5MmXLnJBmqncR7v3xjwonEc=", "properties": {"ref": "00-4783", "@spider": "merkur", "addr:full": "Hauptstrasse 134", "addr:city": "Kalsdorf Bei Graz", "addr:state": "Steiermark", "addr:postcode": "8401", "addr:country": "AT", "name": "BILLA AG FIL. 4783", "phone": "059915 04783", "brand": "Merkur", "brand:wikidata": "Q1921857"}, "geometry": {"type": "Point", "coordinates": [15.478155, 46.961031]}},
{"type": "Feature", "id": "fn-p4gXlxKne0XvNjXLrFIgiCBA=", "properties": {"ref": "00-4714", "@spider": "merkur", "addr:full": "Trappenhof S\u00fcd 2", "addr:city": "Meggenhofen", "addr:state": "Oberoesterreich", "addr:postcode": "4714", "addr:country": "AT", "name": "BILLA AG FIL. 4714", "phone": "059915 04714", "brand": "Merkur", "brand:wikidata": "Q1921857"}, "geometry": {"type": "Point", "coordinates": [13.781474, 48.182845]}},
{"type": "Feature", "id": "ZKMlAPjdXDQDNbfGaZgYRd23TI0=", "properties": {"ref": "00-7002", "@spider": "merkur", "addr:full": "Hauptstrasse 313", "addr:city": "Feistritz Im Rosental", "addr:state": "Kaernten", "addr:postcode": "9181", "addr:country": "AT", "name": "BILLA AG FIL. 7002", "phone": "059915 07002", "brand": "Merkur", "brand:wikidata": "Q1921857"}, "geometry": {"type": "Point", "coordinates": [14.175054, 46.521585]}},
{"type": "Feature", "id": "brosG9WdO89gMr0QWoixQrVB40k=", "properties": {"ref": "00-1101", "@spider": "merkur", "addr:full": "Sonnwendgasse 13-15", "addr:city": "Wien", "addr:state": "Wien", "addr:postcode": "1100", "addr:country": "AT", "name": "BILLA AG FIL. 1101", "phone": "059915 01101", "brand": "Merkur", "brand:wikidata": "Q1921857"}, "geometry": {"type": "Point", "coordinates": [16.377628, 48.182861]}},
{"type": "Feature", "id": "cD6Xj_LdKoO1MFPFiH5DlnGfKXs=", "properties": {"ref": "00-7003", "@spider": "merkur", "addr:full": "Neusiedler Strasse 68", "addr:city": "Podersdorf Am See", "addr:state": "Burgenland", "addr:postcode": "7141", "addr:country": "AT", "name": "BILLA AG FIL. 7003", "phone": "059915 07003", "brand": "Merkur", "brand:wikidata": "Q1921857"}, "geometry": {"type": "Point", "coordinates": [16.84361, 47.85833]}},
{"type": "Feature", "id": "nMe10G1Y-aoGCzghmcuk8vEdF1E=", "properties": {"ref": "00-7006", "@spider": "merkur", "addr:full": "Oedenburgerstrasse 51", "addr:city": "Andau", "addr:state": "Burgenland", "addr:postcode": "7163", "addr:country": "AT", "name": "BILLA AG FIL. 7006", "phone": "059915 07006", "brand": "Merkur", "brand:wikidata": "Q1921857"}, "geometry": {"type": "Point", "coordinates": [17.0216, 47.7727]}},
{"type": "Feature", "id": "21eYfwOMyKezQkEFhHpLbxzMN6c=", "properties": {"ref": "00-5000", "@spider": "merkur", "addr:full": "Rupertusstrasse 42", "addr:city": "Seekirchen", "addr:state": "Salzburg", "addr:postcode": "5201", "addr:country": "AT", "name": "BILLA AG FIL. 5000", "phone": "059915 05000", "brand": "Merkur", "brand:wikidata": "Q1921857"}, "geometry": {"type": "Point", "coordinates": [13.12091, 47.88866]}},
{"type": "Feature", "id": "RDfzcDI3ZElhrISIihW1GX9PKKA=", "properties": {"ref": "00-7004", "@spider": "merkur", "addr:full": "Foelliggasse 1", "addr:city": "Steinbrunn", "addr:state": "Burgenland", "addr:postcode": "7035", "addr:country": "AT", "name": "BILLA AG FIL. 7004", "phone": "059915 07004", "brand": "Merkur", "brand:wikidata": "Q1921857"}, "geometry": {"type": "Point", "coordinates": [16.4197, 47.833]}},
{"type": "Feature", "id": "-11O6XM06KLLkXNRVuS-ni7IkeE=", "properties": {"ref": "00-1617", "@spider": "merkur", "addr:full": "Ottakringerstr. 173-175", "addr:city": "Wien", "addr:state": "Wien", "addr:postcode": "1160", "addr:country": "AT", "name": "BILLA AG FIL. 1617", "phone": "059915 01617", "brand": "Merkur", "brand:wikidata": "Q1921857"}, "geometry": {"type": "Point", "coordinates": [16.3129699, 48.2133665]}},
{"type": "Feature", "id": "mWoE_vBTak2w8pdyvtV3Jwg1yLQ=", "properties": {"ref": "00-1963", "@spider": "merkur", "addr:full": "Rathstrasse 6-8", "addr:city": "Wien", "addr:state": "Wien", "addr:postcode": "1190", "addr:country": "AT", "name": "BILLA AG FIL. 1963", "phone": "059915 01963", "brand": "Merkur", "brand:wikidata": "Q1921857"}, "geometry": {"type": "Point", "coordinates": [16.3065385006381, 48.2506657]}},
{"type": "Feature", "id": "-OjkKLQOp2pKNWe3QkNgdoZM4tM=", "properties": {"ref": "00-4138", "@spider": "merkur", "addr:full": "Pfarrgasse 4", "addr:city": "Bad Ischl", "addr:state": "Oberoesterreich", "addr:postcode": "4820", "addr:country": "AT", "name": "BILLA AG FIL. 4138", "phone": "059915 04138", "brand": "Merkur", "brand:wikidata": "Q1921857"}, "geometry": {"type": "Point", "coordinates": [13.6228, 47.71125]}},
{"type": "Feature", "id": "WIXQM506rgd6Z3rjqoEjSIjkLVk=", "properties": {"ref": "00-7539", "@spider": "merkur", "addr:full": "St. Veiter Ring 20", "addr:city": "Klagenfurt", "addr:state": "Kaernten", "addr:postcode": "9020", "addr:country": "AT", "name": "BILLA AG FIL. 7539", "phone": "059915 07539", "brand": "Merkur", "brand:wikidata": "Q1921857"}, "geometry": {"type": "Point", "coordinates": [14.3104797, 46.6275166]}},
{"type": "Feature", "id": "wzfkfRlwA20MnP8s9RjwB5jiXtw=", "properties": {"ref": "00-3490", "@spider": "merkur", "addr:full": "Linzerstrasse 53", "addr:city": "Prinzersdorf", "addr:state": "Niederoesterreich", "addr:postcode": "3385", "addr:country": "AT", "name": "BILLA AG FIL. 3490", "phone": "059915 03490", "brand": "Merkur", "brand:wikidata": "Q1921857"}, "geometry": {"type": "Point", "coordinates": [15.50345, 48.19982]}},
{"type": "Feature", "id": "0SS3ERX4iQedce2T3d0uatr9ayw=", "properties": {"ref": "00-6480", "@spider": "merkur", "addr:full": "Turmgasse 21", "addr:city": "Leoben", "addr:state": "Steiermark", "addr:postcode": "8700", "addr:country": "AT", "name": "BILLA AG FIL. 6480", "phone": "059915 06480", "brand": "Merkur", "brand:wikidata": "Q1921857"}, "geometry": {"type": "Point", "coordinates": [15.09522, 47.36047]}},
{"type": "Feature", "id": "S8iRQ9yPdzaVrcsCuWkEiZUSWK0=", "properties": {"ref": "00-6065", "@spider": "merkur", "addr:full": "Kaerntner Strasse 136", "addr:city": "Graz-Neuhart", "addr:state": "Steiermark", "addr:postcode": "8053", "addr:country": "AT", "name": "BILLA AG FIL. 6065", "phone": "059915 06065", "brand": "Merkur", "brand:wikidata": "Q1921857"}, "geometry": {"type": "Point", "coordinates": [15.4154, 47.04924]}},
{"type": "Feature", "id": "dbxz4qk5neyvdoZ4QROCkOEuEOs=", "properties": {"ref": "00-6366", "@spider": "merkur", "addr:full": "Falkenburg Trautenfelserstr. 262", "addr:city": "Irdning", "addr:state": "Steiermark", "addr:postcode": "8952", "addr:country": "AT", "name": "BILLA AG FIL. 6366", "phone": "059915 06366", "brand": "Merkur", "brand:wikidata": "Q1921857"}, "geometry": {"type": "Point", "coordinates": [14.0985731, 47.5050111]}},
{"type": "Feature", "id": "vsiNEVHHI6sSHwjY49zXXg7GC68=", "properties": {"ref": "00-4847", "@spider": "merkur", "addr:full": "Werfelstrasse 5", "addr:city": "Wels", "addr:state": "Oberoesterreich", "addr:postcode": "4600", "addr:country": "AT", "name": "BILLA AG FIL. 4847", "phone": "059915 04847", "brand": "Merkur", "brand:wikidata": "Q1921857"}, "geometry": {"type": "Point", "coordinates": [14.05469, 48.17551]}},
{"type": "Feature", "id": "inSYwKxLlSm82hES_f6TeHBK-aw=", "properties": {"ref": "00-2312", "@spider": "merkur", "addr:full": "Gesslg. 19/Maurer Lange G", "addr:city": "Wien", "addr:state": "Wien", "addr:postcode": "1230", "addr:country": "AT", "name": "BILLA AG FIL. 2312", "phone": "059915 02312", "brand": "Merkur", "brand:wikidata": "Q1921857"}, "geometry": {"type": "Point", "coordinates": [16.2682996, 48.1479435]}},
{"type": "Feature", "id": "LC0PvsAFBK6GkmoSJA7h9zx0gWk=", "properties": {"ref": "00-6819", "@spider": "merkur", "addr:full": "Grazer Strasse 73", "addr:city": "Judendorf-Strassengel", "addr:state": "Steiermark", "addr:postcode": "8111", "addr:country": "AT", "name": "BILLA AG FIL. 6819", "phone": "059915 06819", "brand": "Merkur", "brand:wikidata": "Q1921857"}, "geometry": {"type": "Point", "coordinates": [15.3499, 47.11576]}},
{"type": "Feature", "id": "Er3LQ4iQmw5H9rH9oZbJNaLyaGw=", "properties": {"ref": "00-7681", "@spider": "merkur", "addr:full": "Aribonenstrasse 281", "addr:city": "Millstatt", "addr:state": "Kaernten", "addr:postcode": "9872", "addr:country": "AT", "name": "BILLA AG FIL. 7681", "phone": "059915 07681", "brand": "Merkur", "brand:wikidata": "Q1921857"}, "geometry": {"type": "Point", "coordinates": [13.56807, 46.80523]}},
{"type": "Feature", "id": "_fX2eWBAEQdC26IHbj0bdlRnucg=", "properties": {"ref": "00-7766", "@spider": "merkur", "addr:full": "St. Veiter-Strasse 70", "addr:city": "Klagenfurt", "addr:state": "Kaernten", "addr:postcode": "9020", "addr:country": "AT", "name": "BILLA AG FIL. 7766", "phone": "059915 07766", "brand": "Merkur", "brand:wikidata": "Q1921857"}, "geometry": {"type": "Point", "coordinates": [14.31161, 46.63412]}},
{"type": "Feature", "id": "tHV48l8-EY9D8HKkXpU6YOkeKPM=", "properties": {"ref": "00-329", "@spider": "merkur", "addr:full": "Rabengasse 11", "addr:city": "Wien", "addr:state": "Wien", "addr:postcode": "1030", "addr:country": "AT", "name": "BILLA AG FIL. 329", "phone": "059915 00329", "brand": "Merkur", "brand:wikidata": "Q1921857"}, "geometry": {"type": "Point", "coordinates": [16.39886, 48.19522]}},
{"type": "Feature", "id": "6wssCLnyQbeqkVaW88IipAIbPV0=", "properties": {"ref": "00-330", "@spider": "merkur", "addr:full": "Untere Viaduktgasse 4", "addr:city": "Wien", "addr:state": "Wien", "addr:postcode": "1030", "addr:country": "AT", "name": "BILLA AG FIL. 330", "phone": "059915 00330", "brand": "Merkur", "brand:wikidata": "Q1921857"}, "geometry": {"type": "Point", "coordinates": [16.3873846, 48.207369]}},
{"type": "Feature", "id": "pnQj8F5ifu-HVGUIC0Wjyzdbz3Q=", "properties": {"ref": "00-5523", "@spider": "merkur", "addr:full": "Siebenstaedterstrasse 50-52", "addr:city": "Salzburg", "addr:state": "Salzburg", "addr:postcode": "5020", "addr:country": "AT", "name": "BILLA AG FIL. 5523", "phone": "059915 05523", "brand": "Merkur", "brand:wikidata": "Q1921857"},