{"type":"FeatureCollection","features":[{"type": "Feature", "id": "Tbjatlp486bgTr9s0adpkgZusaE=", "properties": {"ref": "6715", "@spider": "spar_gb", "addr:street_address": "Moffat Service Station ", "addr:city": "Moffat ", "addr:postcode": "DG10 9HG", "addr:country": "GB", "name": "SPAR Moffat Service Station ", "website": "https://www.spar.co.uk/store-locator/lan21020-spar-moffat-service-station/", "brand": "SPAR", "brand:wikidata": "Q610492"}, "geometry": {"type": "Point", "coordinates": [-3.444664, 55.33416]}},
{"type": "Feature", "id": "GOZaLS65fCY1EPmtqo6G3iAnc_Q=", "properties": {"ref": "6768", "@spider": "spar_gb", "addr:street_address": "121", "addr:city": "THORNHILL", "addr:postcode": "DG3 5LS", "addr:country": "GB", "name": "SPAR Thornhill", "website": "https://www.spar.co.uk/store-locator/lan45684-spar-thornhill/", "brand": "SPAR", "brand:wikidata": "Q610492"}, "geometry": {"type": "Point", "coordinates": [-3.7657413940727, 55.2409370921604]}},
{"type": "Feature", "id": "c2x9_wAE4E7nmBNZOnb1infyWJ8=", "properties": {"ref": "6677", "@spider": "spar_gb", "addr:street_address": "14 Main Street", "addr:city": "Biggar", "addr:postcode": "ML12 6LJ", "addr:country": "GB", "name": "SPAR Symington Ltd", "website": "https://www.spar.co.uk/store-locator/lan19205-spar-symington-ltd/", "brand": "SPAR", "brand:wikidata": "Q610492"}, "geometry": {"type": "Point", "coordinates": [-3.6004785, 55.6032245]}},
{"type": "Feature", "id": "IAu5HWXA9zzxJ4haFInYsGaJJiQ=", "properties": {"ref": "6737", "@spider": "spar_gb", "addr:street_address": "60 High Street ", "addr:city": "Biggar ", "addr:postcode": "ML12 6BJ", "addr:country": "GB", "name": "SPAR Biggar ", "website": "https://www.spar.co.uk/store-locator/lan22040-spar-biggar/", "brand": "SPAR", "brand:wikidata": "Q610492"}, "geometry": {"type": "Point", "coordinates": [-3.5251611, 55.623694]}},
{"type": "Feature", "id": "paurN_8VZ8ADrtpOxUs8mGCLRAc=", "properties": {"ref": "6538", "@spider": "spar_gb", "addr:street_address": "36", "addr:city": "LOCKERBIE", "addr:postcode": "DG11 2HE", "addr:country": "GB", "name": "SPAR Lockerbie", "website": "https://www.spar.co.uk/store-locator/lan07497-spar-lockerbie/", "brand": "SPAR", "brand:wikidata": "Q610492"}, "geometry": {"type": "Point", "coordinates": [-3.35273275967164, 55.1221170467584]}},
{"type": "Feature", "id": "TsXxywIzKc9jWX8KYigS3kz6CX8=", "properties": {"ref": "6563", "@spider": "spar_gb", "addr:street_address": "19", "addr:city": "SANQUHAR", "addr:postcode": "DG4 6AB", "addr:country": "GB", "name": "SPAR Sanquhar", "website": "https://www.spar.co.uk/store-locator/lan10694-spar-sanquhar/", "brand": "SPAR", "brand:wikidata": "Q610492"}, "geometry": {"type": "Point", "coordinates": [-3.91818788362577, 55.3648825160432]}},
{"type": "Feature", "id": "xbZe3-_ZJdFenB3WJLi9rmmzlO0=", "properties": {"ref": "6537", "@spider": "spar_gb", "addr:street_address": "46", "addr:city": "DUMFRIES", "addr:postcode": "DG1 1UY", "addr:country": "GB", "name": "SPAR Locharbriggs", "website": "https://www.spar.co.uk/store-locator/lan07410-spar-locharbriggs/", "brand": "SPAR", "brand:wikidata": "Q610492"}, "geometry": {"type": "Point", "coordinates": [-3.58460815936515, 55.1040612464964]}},
{"type": "Feature", "id": "663JpI0_GHN1wH_E8eE2JIG8Xj4=", "properties": {"ref": "6795", "@spider": "spar_gb", "addr:street_address": "85-91", "addr:city": "PEEBLES", "addr:postcode": "EH45 8ED", "addr:country": "GB", "name": "SPAR Edinburgh Road", "website": "https://www.spar.co.uk/store-locator/lan75184-spar-edinburgh-road/", "brand": "SPAR", "brand:wikidata": "Q610492"}, "geometry": {"type": "Point", "coordinates": [-3.19275035931209, 55.6609964466402]}},
{"type": "Feature", "id": "hBaChXOk3oPGhdJ4_9BmFc71_vk=", "properties": {"ref": "6567", "@spider": "spar_gb", "addr:street_address": "Gillbrae Road", "addr:city": "DUMFRIES", "addr:postcode": "DG1 4AT", "addr:country": "GB", "name": "SPAR Georgetown", "website": "https://www.spar.co.uk/store-locator/lan10757-spar-georgetown/", "brand": "SPAR", "brand:wikidata": "Q610492"}, "geometry": {"type": "Point", "coordinates": [-3.58299727358281, 55.0652933807863]}},
{"type": "Feature", "id": "ghZUmJEpJ8RkZQvlK2YaV8ax3u8=", "properties": {"ref": "6789", "@spider": "spar_gb", "addr:street_address": "1", "addr:city": "Dumfries", "addr:postcode": "DG1 2EP", "addr:country": "GB", "name": "SPAR Rosevale Street", "website": "https://www.spar.co.uk/store-locator/lan73361-spar-rosevale-street/", "brand": "SPAR", "brand:wikidata": "Q610492"}, "geometry": {"type": "Point", "coordinates": [-3.59697593066384, 55.065155729083]}},
{"type": "Feature", "id": "lqZipR8zR0b7sO9n13gJCAFHc_U=", "properties": {"ref": "6568", "@spider": "spar_gb", "addr:street_address": "7-13 Provost Watt Drive", "addr:city": "KINCORTH", "addr:postcode": "AB12 5BT", "addr:country": "GB", "name": "SPAR Kincorth", "website": "https://www.spar.co.uk/store-locator/lan10768-spar-kincorth/", "brand": "SPAR", "brand:wikidata": "Q610492"}, "geometry": {"type": "Point", "coordinates": [-2.10275284015501, 57.1208564020331]}},
{"type": "Feature", "id": "E0-wZyc5xtlY-qcXFYoH4tacN3M=", "properties": {"ref": "6559", "@spider": "spar_gb", "addr:street_address": "43 St Swithin St", "addr:city": "ABERDEEN", "addr:postcode": "AB10 6XL", "addr:country": "GB", "name": "SPAR St Swithin St", "website": "https://www.spar.co.uk/store-locator/lan10650-spar-st-swithin-st/", "brand": "SPAR", "brand:wikidata": "Q610492"}, "geometry": {"type": "Point", "coordinates": [-2.12504594434329, 57.1399520288175]}},
{"type": "Feature", "id": "Oz5tUuCydYI1-dPYft_1pX8aTMI=", "properties": {"ref": "6576", "@spider": "spar_gb", "addr:street_address": "80-84 Victoria Road", "addr:city": "TORRY", "addr:postcode": "AB11 9DT", "addr:country": "GB", "name": "Spar Torry", "website": "https://www.spar.co.uk/store-locator/lan10864-spar-torry/", "brand": "SPAR", "brand:wikidata": "Q610492"}, "geometry": {"type": "Point", "coordinates": [-2.08809446788156, 57.1374862109922]}},
{"type": "Feature", "id": "MC8G890i9sCDuvcgYOWMKhdh2v0=", "properties": {"ref": "6552", "@spider": "spar_gb", "addr:street_address": "60-66 Midstocket Road", "addr:city": "ABERDEEN", "addr:postcode": "AB15 5JB", "addr:country": "GB", "name": "SPAR Midstocket", "website": "https://www.spar.co.uk/store-locator/lan10554-spar-midstocket/", "brand": "SPAR", "brand:wikidata": "Q610492"}, "geometry": {"type": "Point", "coordinates": [-2.12800473048287, 57.1498393476968]}},
{"type": "Feature", "id": "IDrybW-5mqlkuTOzMEqC2S8SIcw=", "properties": {"ref": "6555", "@spider": "spar_gb", "addr:street_address": "254 North Deeside Road", "addr:city": "PETERCULTER", "addr:postcode": "AB14 0UQ", "addr:country": "GB", "name": "SPAR Peterculter", "website": "https://www.spar.co.uk/store-locator/lan10617-spar-peterculter/", "brand": "SPAR", "brand:wikidata": "Q610492"}, "geometry": {"type": "Point", "coordinates": [-2.27029866279044, 57.0966489382627]}},
{"type": "Feature", "id": "6ILA1dOs8wDSvQPN6RIS_tpvq9A=", "properties": {"ref": "6573", "@spider": "spar_gb", "addr:street_address": "5-9 Greenfern Road", "addr:city": "MASTRICK", "addr:postcode": "AB16 5PY", "addr:country": "GB", "name": "SPAR Mastrick", "website": "https://www.spar.co.uk/store-locator/lan10810-spar-mastrick/", "brand": "SPAR", "brand:wikidata": "Q610492"}, "geometry": {"type": "Point", "coordinates": [-2.16168161817436, 57.1559986868761]}},
{"type": "Feature", "id": "e8uHEGtCd4BQ9AhQFTaNqogkSiY=", "properties": {"ref": "6578", "@spider": "spar_gb", "addr:street_address": "32 Ashgrove Road", "addr:city": "ABERDEEN", "addr:postcode": "AB25 3AD", "addr:country": "GB", "name": "SPAR Ashgrove", "website": "https://www.spar.co.uk/store-locator/lan10886-spar-ashgrove/", "brand": "SPAR", "brand:wikidata": "Q610492"}, "geometry": {"type": "Point", "coordinates": [-2.11834954680542, 57.1591911741269]}},
{"type": "Feature", "id": "rCpVgRlKiw8v0bREVjld08KRVIM=", "properties": {"ref": "6564", "@spider": "spar_gb", "addr:street_address": "1-4 Byron Square", "addr:city": "NORTHFIELD", "addr:postcode": "AB16 7LL", "addr:country": "GB", "name": "SPAR Byron Square Northfield", "website": "https://www.spar.co.uk/store-locator/lan10713-spar-byron-square-northfield/", "brand": "SPAR", "brand:wikidata": "Q610492"}, "geometry": {"type": "Point", "coordinates": [-2.16212191517801, 57.1659423054473]}},
{"type": "Feature", "id": "cqBLIN5uzJUiFGIE6tWy0RkGY90=", "properties": {"ref": "6548", "@spider": "spar_gb", "addr:street_address": "270 Clifton Road", "addr:city": "ABERDEEN", "addr:postcode": "AB24 4HA", "addr:country": "GB", "name": "SPAR Clifton Road", "website": "https://www.spar.co.uk/store-locator/lan10500-spar-clifton-road/", "brand": "SPAR", "brand:wikidata": "Q610492"}, "geometry": {"type": "Point", "coordinates": [-2.123499906892, 57.1668397140964]}},
{"type": "Feature", "id": "KSAxjijwUyf9zV-0Gs81pv4G_Zc=", "properties": {"ref": "6549", "@spider": "spar_gb", "addr:street_address": "45 St Machar Drive", "addr:city": "ABERDEEN", "addr:postcode": "AB24 3SE", "addr:country": "GB", "name": "SPAR St Machar", "website": "https://www.spar.co.uk/store-locator/lan10510-spar-st-machar/", "brand": "SPAR", "brand:wikidata": "Q610492"}, "geometry": {"type": "Point", "coordinates": [-2.09797041514111, 57.167086864771]}},
{"type": "Feature", "id": "tO3iU_D3idDV4232-FZ2xCpY7Os=", "properties": {"ref": "6678", "@spider": "spar_gb", "addr:street_address": "Certas Energy UK Ltd ", "addr:city": "Aberdeen", "addr:postcode": "AB21 0AF", "addr:country": "GB", "name": "SPAR Certas Energy UK Ltd Aberdeen Airport Filling Station ", "website": "https://www.spar.co.uk/store-locator/lan19500-spar-certas-energy-uk-ltd-aberdeen-airport-filling-station/", "brand": "SPAR", "brand:wikidata": "Q610492"}, "geometry": {"type": "Point", "coordinates": [-2.20907620000003, 57.1957847]}},
{"type": "Feature", "id": "vAlBkgkWvu9o9bFd5YmwzmTksmk=", "properties": {"ref": "6520", "@spider": "spar_gb", "addr:street_address": "Westhill Service Station", "addr:city": "ABERDEEN", "addr:postcode": "AB32 6TJ", "addr:country": "GB", "name": "SPAR Westhill", "website": "https://www.spar.co.uk/store-locator/lan02583-spar-westhill/", "brand": "SPAR", "brand:wikidata": "Q610492"}, "geometry": {"type": "Point", "coordinates": [-2.29715995762641, 57.149345814417]}},
{"type": "Feature", "id": "hPg-NFgeg77D4EYLC5DMSYZWAAw=", "properties": {"ref": "6535", "@spider": "spar_gb", "addr:street_address": "Echt Stores", "addr:city": "Echt", "addr:postcode": "AB32 6UL", "addr:country": "GB", "name": "SPAR Echt", "website": "https://www.spar.co.uk/store-locator/lan05438-spar-echt/", "brand": "SPAR", "brand:wikidata": "Q610492"}, "geometry": {"type": "Point", "coordinates": [-2.43368555083816, 57.1416716108554]}},
{"type": "Feature", "id": "2fmYSuX5SyA9aLzNc64MnNfrsPY=", "properties": {"ref": "6745", "@spider": "spar_gb", "addr:street_address": "7", "addr:city": "EDZELL", "addr:postcode": "DD9 7TE", "addr:country": "GB", "name": "SPAR Edzell", "website": "https://www.spar.co.uk/store-locator/lan24560-spar-edzell/", "brand": "SPAR", "brand:wikidata": "Q610492"}, "geometry": {"type": "Point", "coordinates": [-2.65545105961466, 56.8090378006359]}},
{"type": "Feature", "id": "TqhPyBcMMCGNbjTwY0ne7g9X_74=", "properties": {"ref": "6669", "@spider": "spar_gb", "addr:street_address": "108-124 North Esk Road", "addr:city": "Montrose ", "addr:postcode": "DD10 9AY", "addr:country": "GB", "name": "SPAR Montrose Service Station", "website": "https://www.spar.co.uk/store-locator/lan19070-spar-montrose-service-station/", "brand": "SPAR", "brand:wikidata": "Q610492"}, "geometry": {"type": "Point", "coordinates": [-2.46576959999993, 56.7231794]}},
{"type": "Feature", "id": "7gWpQbBZB8P88gJK5nfq3Bk-AF0=", "properties": {"ref": "6689", "@spider": "spar_gb", "addr:street_address": "Certas Energy UK Ltd ", "addr:city": "Forfar", "addr:postcode": "DD8 2XF", "addr:country": "GB", "name": "SPAR Certas Energy UK Ltd Forfar", "website": "https://www.spar.co.uk/store-locator/lan19555-spar-certas-energy-uk-ltd-forfar/", "brand": "SPAR", "brand:wikidata": "Q610492"}, "geometry": {"type": "Point", "coordinates": [-2.88249259999998, 56.6445285]}},
{"type": "Feature", "id": "sgJxVJMb1ETTv4pV1OdsoSn2H9o=", "properties": {"ref": "6534", "@spider": "spar_gb", "addr:street_address": "Bellabeg Shop", "addr:city": "Strathdon", "addr:postcode": "AB36 8UL", "addr:country": "GB", "name": "SPAR Bellabeg", "website": "https://www.spar.co.uk/store-locator/lan05427-spar-bellabeg/", "brand": "SPAR", "brand:wikidata": "Q610492"}, "geometry": {"type": "Point", "coordinates": [-3.07004302508953, 57.2040747592489]}},
{"type": "Feature", "id": "vREibgzVmcuY4BWm7GhZ4X0fS0M=", "properties": {"ref": "6701", "@spider": "spar_gb", "addr:street_address": "Certas Energy UK Ltd ", "addr:city": "Huntly", "addr:postcode": "AB54 6JD", "addr:country": "GB", "name": "SPAR Certas Energy Uk Ltd Strathbogie Filling Station ", "website": "https://www.spar.co.uk/store-locator/lan19615-spar-certas-energy-uk-ltd-strathbogie-filling-station/", "brand": "SPAR", "brand:wikidata": "Q610492"}, "geometry": {"type": "Point", "coordinates": [-2.76280810000003, 57.4388706]}},
{"type": "Feature", "id": "TjAwuw8lY7sVFmPNHP2WFSqarK4=", "properties": {"ref": "6652", "@spider": "spar_gb", "addr:street_address": "The Square", "addr:city": "Tarves", "addr:postcode": "AB41 7GX", "addr:country": "GB", "name": "SPAR Tarves", "website": "https://www.spar.co.uk/store-locator/lan18131-spar-tarves/", "brand": "SPAR", "brand:wikidata": "Q610492"}, "geometry": {"type": "Point", "coordinates": [-2.22182005836323, 57.3711272842709]}},
{"type": "Feature", "id": "7hWlWFzPcOhVV9PNGT5VmFw6NeY=", "properties": {"ref": "6730", "@spider": "spar_gb", "addr:street_address": "183 Mid Street ", "addr:city": "Keith ", "addr:postcode": "AB55 5BL", "addr:country": "GB", "name": "SPAR Keith ", "website": "https://www.spar.co.uk/store-locator/lan21120-spar-keith/", "brand": "SPAR", "brand:wikidata": "Q610492"}, "geometry": {"type": "Point", "coordinates": [-2.9495741, 57.5424389]}},
{"type": "Feature", "id": "6veHEKKTIitXAuegba9tX2OmXwQ=", "properties": {"ref": "6808", "@spider": "spar_gb", "addr:street_address": "Nethybridge Post Office", "addr:city": "NETHYBRIDGE", "addr:postcode": "PH25 3DA", "addr:country": "GB", "name": "SPAR Nethybridge", "website": "https://www.spar.co.uk/store-locator/lan88612-spar-nethybridge/", "brand": "SPAR", "brand:wikidata": "Q610492"}, "geometry": {"type": "Point", "coordinates": [-3.65832390310339, 57.2648855866216]}},
{"type": "Feature", "id": "99SP7vV5jkrBOsmgTyIhGl7imV0=", "properties": {"ref": "6524", "@spider": "spar_gb", "addr:street_address": "Tilt Stores", "addr:city": "Blair Atholl", "addr:postcode": "PH18 5SX", "addr:country": "GB", "name": "SPAR Blair Atholl", "website": "https://www.spar.co.uk/store-locator/lan03711-spar-blair-atholl/", "brand": "SPAR", "brand:wikidata": "Q610492"}, "geometry": {"type": "Point", "coordinates": [-3.83642974045808, 56.7664412651888]}},
{"type": "Feature", "id": "2U-0g7N7F2Kb4bCVDY2-_tmlLy4=", "properties": {"ref": "6526", "@spider": "spar_gb", "addr:street_address": "Main Street", "addr:city": "Carrbridge", "addr:postcode": "PH23 3AS", "addr:country": "GB", "name": "SPAR Carrbridge", "website": "https://www.spar.co.uk/store-locator/lan04085-spar-carrbridge/", "brand": "SPAR", "brand:wikidata": "Q610492"}, "geometry": {"type": "Point", "coordinates": [-3.81499739344431, 57.2831963143537]}},
{"type": "Feature", "id": "-dxzgaNYJPs819mSfIfvbR5SfaM=", "properties": {"ref": "6749", "@spider": "spar_gb", "addr:street_address": "42 Lindsay Street", "addr:city": "KIRRIEMUIR", "addr:postcode": "DD8 5AP", "addr:country": "GB", "name": "SPAR Kirriemuir", "website": "https://www.spar.co.uk/store-locator/lan27436-spar-kirriemuir/", "brand": "SPAR", "brand:wikidata": "Q610492"}, "geometry": {"type": "Point", "coordinates": [-3.0114180280323, 56.6700647626353]}},
{"type": "Feature", "id": "HmYiGJ58iYIyF2dBrEXQiveX87A=", "properties": {"ref": "6787", "@spider": "spar_gb", "addr:street_address": "Strathtay Stores", "addr:city": "Pitlochry", "addr:postcode": "PH9 0PJ", "addr:country": "GB", "name": "SPAR Strathtay", "website": "https://www.spar.co.uk/store-locator/lan67136-spar-strathtay/", "brand": "SPAR", "brand:wikidata": "Q610492"}, "geometry": {"type": "Point", "coordinates": [-3.78244651739014, 56.6582322283565]}},
{"type": "Feature", "id": "ZZvyTW5hCq_oB8yxCESj1qMg_3g=", "properties": {"ref": "6599", "@spider": "spar_gb", "addr:street_address": "The Square", "addr:city": "Meigle", "addr:postcode": "PH12 8RN", "addr:country": "GB", "name": "SPAR Meigle", "website": "https://www.spar.co.uk/store-locator/lan14263-spar-meigle/", "brand": "SPAR", "brand:wikidata": "Q610492"}, "geometry": {"type": "Point", "coordinates": [-3.1626811919751, 56.5882879588443]}},
{"type": "Feature", "id": "u_Dwz_9qZ2aaCFvwVWvEAAJM7nQ=", "properties": {"ref": "6718", "@spider": "spar_gb", "addr:street_address": "Cruive Dykes ", "addr:city": "Stirling ", "addr:postcode": "FK8 1AF", "addr:country": "GB", "name": "SPAR EG Group Kildean ", "website": "https://www.spar.co.uk/store-locator/lan21040-spar-eg-group-kildean/", "brand": "SPAR", "brand:wikidata": "Q610492"}, "geometry": {"type": "Point", "coordinates": [-3.3603808, 56.5482865]}},
{"type": "Feature", "id": "ZBxEGPg3y0WWew7ogYqxy9cHdz8=", "properties": {"ref": "6597", "@spider": "spar_gb", "addr:street_address": "21", "addr:city": "Keith", "addr:postcode": "AB55 5DW", "addr:country": "GB", "name": "SPAR Keith ", "website": "https://www.spar.co.uk/store-locator/lan14220-spar-keith/", "brand": "SPAR", "brand:wikidata": "Q610492"}, "geometry": {"type": "Point", "coordinates": [-2.95764550755833, 57.543927870838]}},
{"type": "Feature", "id": "LhEMV4RsfKenoynjhUu8ostXCAE=", "properties": {"ref": "6693", "@spider": "spar_gb", "addr:street_address": "Certas Energy UK Ltd ", "addr:city": "Keith ", "addr:postcode": "AB55 5ED", "addr:country": "GB", "name": "SPAR Certas Energy Keith Filling Station ", "website": "https://www.spar.co.uk/store-locator/lan19575-spar-certas-energy-keith-filling-station/", "brand": "SPAR", "brand:wikidata": "Q610492"}, "geometry": {"type": "Point", "coordinates": [-2.96492699999999, 57.546515]}},
{"type": "Feature", "id": "KPJbo2bFfZ6pWI-Z-_yMe4mTojI=", "properties": {"ref": "6705", "@spider": "spar_gb", "addr:street_address": "Suprav Ltd ", "addr:city": "Fochabers ", "addr:postcode": "IV32 7LH", "addr:country": "GB", "name": "SPAR Mosstodloch Service Station ", "website": "https://www.spar.co.uk/store-locator/lan20050-spar-mosstodloch-service-station/", "brand": "SPAR", "brand:wikidata": "Q610492"}, "geometry": {"type": "Point", "coordinates": [-3.12601359999996, 57.6322586]}},
{"type": "Feature", "id": "AuHK2xuO4xfktCRsEDwEJAwPFnM=", "properties": {"ref": "6729", "@spider": "spar_gb", "addr:street_address": "St Andrews Road ", "addr:city": "Lhanbryde ", "addr:postcode": "IV30 8NZ", "addr:country": "GB", "name": "SPAR Lhanbryde ", "website": "https://www.spar.co.uk/store-locator/lan21115-spar-lhanbryde/", "brand": "SPAR", "brand:wikidata": "Q610492"}, "geometry": {"type": "Point", "coordinates": [-3.219906, 57.6349195]}},
{"type": "Feature", "id": "bRqnG4O0V5zfjyEXbrOFIAsGwAo=", "properties": {"ref": "6717", "@spider": "spar_gb", "addr:street_address": "Coxton Park ", "addr:city": "Elgin ", "addr:postcode": "IV30 8AZ", "addr:country": "GB", "name": "SPAR EG Group Elgin ", "website": "https://www.spar.co.uk/store-locator/lan21035-spar-eg-group-elgin/", "brand": "SPAR", "brand:wikidata": "Q610492"}, "geometry": {"type": "Point", "coordinates": [-3.260672, 57.6396444]}},
{"type": "Feature", "id": "742diACBUO8i02RbPe-6ON-mTH4=", "properties": {"ref": "6607", "@spider": "spar_gb", "addr:street_address": "172 High Street", "addr:city": "Forres", "addr:postcode": "IV36 1QQ", "addr:country": "GB", "name": "SPAR Forres", "website": "https://www.spar.co.uk/store-locator/lan15020-spar-forres/", "brand": "SPAR", "brand:wikidata": "Q610492"}, "geometry": {"type": "Point", "coordinates": [-3.61657298933831, 57.6085951920157]}},
{"type": "Feature", "id": "Pq-qeKsHjAWoxworxglUx-ewXkw=", "properties": {"ref": "6706", "@spider": "spar_gb", "addr:street_address": "6 Station Road ", "addr:city": "Portgordon ", "addr:postcode": "AB56 5RZ", "addr:country": "GB", "name": "McKays Mini Market Ltd", "website": "https://www.spar.co.uk/store-locator/lan20055-mckays-mini-market-ltd/", "brand": "SPAR", "brand:wikidata": "Q610492"}, "geometry": {"type": "Point", "coordinates": [-3.0203249, 57.6633561]}},
{"type": "Feature", "id": "7w89JdeqCY73L-rQyuYZYj1t14w=", "properties": {"ref": "6510", "@spider": "spar_gb", "addr:street_address": "Kinloss Park ", "addr:city": "KINLOSS", "addr:postcode": "IV36 3TL", "addr:country": "GB", "name": "SPAR Kinloss", "website": "https://www.spar.co.uk/store-locator/lan02210-spar-kinloss/", "brand": "SPAR", "brand:wikidata": "Q610492"}, "geometry": {"type": "Point", "coordinates": [-3.62179380962521, 57.6247172268333]}},
{"type": "Feature", "id": "gw4BAm5zV1if3T5-eEkrWIRIczw=", "properties": {"ref": "6630", "@spider": "spar_gb", "addr:street_address": "Buckie Service Station ", "addr:city": "Buckie", "addr:postcode": "AB56 4AD", "addr:country": "GB", "name": "SPAR Buckie ", "website": "https://www.spar.co.uk/store-locator/lan16120-spar-buckie/", "brand": "SPAR", "brand:wikidata": "Q610492"}, "geometry": {"type": "Point", "coordinates": [-2.95790616649945, 57.6683478399378]}},
{"type": "Feature", "id": "NLPRBsQ_bLuvA7ZsNbmcsQQx_L8=", "properties": {"ref": "6704", "@spider": "spar_gb", "addr:street_address": "Smyddyhill Road ", "addr:city": "Fraserburgh ", "addr:postcode": "AB43 9WL", "addr:country": "GB", "name": "SPAR Smiddyhill Road ", "website": "https://www.spar.co.uk/store-locator/lan20045-spar-smiddyhill-road/", "brand": "SPAR", "brand:wikidata": "Q610492"}, "geometry": {"type": "Point", "coordinates": [-2.0272253, 57.679947]}},
{"type": "Feature", "id": "Ze7VZ8b-ZrZokf7H-sihQaBDgG0=", "properties": {"ref": "6529", "@spider": "spar_gb", "addr:street_address": "Watermill Service Station", "addr:city": "Fraserburgh", "addr:postcode": "AB43 7ED", "addr:country": "GB", "name": "SPAR Watermill Service Station ", "website": "https://www.spar.co.uk/store-locator/lan04277-spar-watermill-service-station/", "brand": "SPAR", "brand:wikidata": "Q610492"}, "geometry": {"type": "Point", "coordinates": [-2.03277749578892, 57.6905823328758]}},
{"type": "Feature", "id": "one4ke8X_D5Ti_F7FAEOksJWrB0=", "properties": {"ref": "6528", "@spider": "spar_gb", "addr:street_address": "Kessock Service Station", "addr:city": "Fraserburgh", "addr:postcode": "AB43 8TJ", "addr:country": "GB", "name": "SPAR South Road", "website": "https://www.spar.co.uk/store-locator/lan04266-spar-south-road/", "brand": "SPAR", "brand:wikidata": "Q610492"}, "geometry": {"type": "Point", "coordinates": [-2.00567110495555, 57.682107273776]}},
{"type": "Feature", "id": "E0dNAUVAUamP85worKmHVTATKG8=", "properties": {"ref": "6512", "@spider": "spar_gb", "addr:street_address": "MacDuff Road", "addr:city": "GARDENSTOWN", "addr:postcode": "AB45 3YJ", "addr:country": "GB", "name": "SPAR Gardenstown", "website": "https://www.spar.co.uk/store-locator/lan02228-spar-gardenstown/", "brand": "SPAR", "brand:wikidata": "Q610492"}, "geometry": {"type": "Point", "coordinates": [-2.33460260666388, 57.6701401389544]}},
{"type": "Feature", "id": "NVbFLj6roC9l4iNPGZOLwMzNWMQ=", "properties": {"ref": "6579", "@spider": "spar_gb", "addr:street_address": "Units 2-3", "addr:city": "PETERHEAD", "addr:postcode": "AB42 1AB", "addr:country": "GB", "name": "SPAR Drummers Corner", "website": "https://www.spar.co.uk/store-locator/lan10897-spar-drummers-corner/", "brand": "SPAR", "brand:wikidata": "Q610492"}, "geometry": {"type": "Point", "coordinates": [-1.78087562599023, 57.505018856565]}},
{"type": "Feature", "id": "7EFJmAPlnTHpAgvyq-l0Y8XDXzA=", "properties": {"ref": "6719", "@spider": "spar_gb", "addr:street_address": "Buchan Way ", "addr:city": "Peterhead ", "addr:postcode": "AB24 3GT", "addr:country": "GB", "name": "SPAR EG Group Peterhead ", "website": "https://www.spar.co.uk/store-locator/lan21045-spar-eg-group-peterhead/", "brand": "SPAR", "brand:wikidata": "Q610492"}, "geometry": {"type": "Point", "coordinates": [-1.8075404, 57.4863777]}},
{"type": "Feature", "id": "ayAM-AAirfnwIEJkL-B39e5Br64=", "properties": {"ref": "6648", "@spider": "spar_gb", "addr:street_address": "5 Church Street ", "addr:city": "Portnockie ", "addr:postcode": "AB56 4LN", "addr:country": "GB", "name": "SPAR Portnockie ", "website": "https://www.spar.co.uk/store-locator/lan18070-spar-portnockie/", "brand": "SPAR", "brand:wikidata": "Q610492"}, "geometry": {"type": "Point", "coordinates": [-2.86068409531095, 57.7025700253754]}},
{"type": "Feature", "id": "MkQKPmdKPmFqrEcjPcS__ywh7Og=", "properties": {"ref": "4654", "@spider": "spar_gb", "addr:street_address": "Unit 1", "addr:city": "St Albans", "addr:postcode": "AL4 0RA", "addr:country": "GB", "name": "SPAR St Albans", "website": "https://www.spar.co.uk/store-locator/afb10281-spar-st-albans/", "brand": "SPAR", "brand:wikidata": "Q610492"}, "geometry": {"type": "Point", "coordinates": [-0.301770905169751, 51.7456958989263]}},
{"type": "Feature", "id": "5wr4-k9wH10f4JIRpTIBZfT4Odo=", "properties": {"ref": "5364", "@spider": "spar_gb", "addr:street_address": "225 Hatfield Road", "addr:city": "St Albans", "addr:postcode": "AL1 4TB", "addr:country": "GB", "name": "SPAR-Hatfield Road", "website": "https://www.spar.co.uk/store-locator/afb28006-spar-hatfield-road/", "brand": "SPAR", "brand:wikidata": "Q610492"}, "geometry": {"type": "Point", "coordinates": [-0.3202038, 51.7529206]}},
{"type": "Feature", "id": "ki6vHsR5K27PjEvCHVncPO1Lwds=", "properties": {"ref": "5232", "@spider": "spar_gb", "addr:street_address": "150 Harpenden Road", "addr:city": "St Albans", "addr:postcode": "AL3 6BZ", "addr:country": "GB", "name": "SPAR - Harpenden Service Station", "website": "https://www.spar.co.uk/store-locator/afb24403-spar-harpenden-service-station/", "brand": "SPAR", "brand:wikidata": "Q610492"}, "geometry": {"type": "Point", "coordinates": [-0.33571280000001, 51.7738325]}},
{"type": "Feature", "id": "bcFj7PIeYh0gFDBDiTksdWgfNyM=", "properties": {"ref": "4949", "@spider": "spar_gb", "addr:street_address": "Euro Garages", "addr:city": "St Albans ", "addr:postcode": "AL1 1LP", "addr:country": "GB", "name": "SPAR - Euro Garages - St Albans", "website": "https://www.spar.co.uk/store-locator/afb17986-spar-euro-garages-st-albans/", "brand": "SPAR", "brand:wikidata": "Q610492"}, "geometry": {"type": "Point", "coordinates": [-0.3262943, 51.7409685]}},
{"type": "Feature", "id": "EssK4N1J25Wx9l7D4LeWc3bxN8A=", "properties": {"ref": "14453", "@spider": "spar_gb", "addr:street_address": "Unit DC5 DC6 Prologis Park", "addr:postcode": "HP2 4ZB", "addr:country": "GB", "website": "https://www.spar.co.uk/store-locator/afb29627/", "brand": "SPAR", "brand:wikidata": "Q610492"}, "geometry": {"type": "Point", "coordinates": [-0.4310338, 51.7584063]}},
{"type": "Feature", "id": "JBkWBq3AupYYOHpNDZ7--QEGAFM=", "properties": {"ref": "4694", "@spider": "spar_gb", "addr:street_address": "2-3 VILLAGE CENTRE", "addr:city": "HEMEL HEMPSTEAD", "addr:postcode": "HP3 8QG", "addr:country": "GB", "name": "SPAR Leverstock Green", "website": "https://www.spar.co.uk/store-locator/afb11311-spar-leverstock-green/", "brand": "SPAR", "brand:wikidata": "Q610492"}, "geometry": {"type": "Point", "coordinates": [-0.431632002421894, 51.7482558990044]}},
{"type": "Feature", "id": "TsOutIazZIuEAEouts35S7u3u_0=", "properties": {"ref": "5220", "@spider": "spar_gb", "addr:street_address": "Gunnels Wood Road", "addr:city": "Stevenage", "addr:postcode": "SG1 2FS", "addr:country": "GB", "name": "SPAR - Euro Garages - Stevenage", "website": "https://www.spar.co.uk/store-locator/afb23997-spar-euro-garages-stevenage/", "brand": "SPAR", "brand:wikidata": "Q610492"}, "geometry": {"type": "Point", "coordinates": [-0.202208799999994, 51.8893119]}},
{"type": "Feature", "id": "6G8CR1zE1ZLhEH2OrhwHRTPbCKw=", "properties": {"ref": "4944", "@spider": "spar_gb", "addr:street_address": "Euro Garages", "addr:city": "Stevenage ", "addr:postcode": "SG2 8EH", "addr:country": "GB", "name": "SPAR - Euro Garages - Broadwater", "website": "https://www.spar.co.uk/store-locator/afb17972-spar-euro-garages-broadwater/", "brand": "SPAR", "brand:wikidata": "Q610492"}, "geometry": {"type": "Point", "coordinates": [-0.186118985109973, 51.887984195967]}},
{"type": "Feature", "id": "ly2H5AwNccpWRcZT3GU_FGWs5PA=", "properties": {"ref": "4681", "@spider": "spar_gb", "addr:street_address": "SPAR", "addr:city": "Abbots Langley", "addr:postcode": "WD5 0LA", "addr:country": "GB", "name": "SPAR Abbots Langley", "website": "https://www.spar.co.uk/store-locator/afb10958-spar-abbots-langley/", "brand": "SPAR", "brand:wikidata": "Q610492"}, "geometry": {"type": "Point", "coordinates": [-0.424840537117339, 51.6981880607677]}},
{"type": "Feature", "id": "xkQeztvJ3hRykhi81vY1f-JofI0=", "properties": {"ref": "4674", "@spider": "spar_gb", "addr:street_address": "SPAR", "addr:city": "Kings Langley", "addr:postcode": "WD4 8BH", "addr:country": "GB", "name": "SPAR Kings Langley", "website": "https://www.spar.co.uk/store-locator/afb10850-spar-kings-langley/", "brand": "SPAR", "brand:wikidata": "Q610492"}, "geometry": {"type": "Point", "coordinates": [-0.450423019613511, 51.7134638254854]}},
{"type": "Feature", "id": "zvTXN7RLVBdACd_p1H4ZHbfPM0Q=", "properties": {"ref": "4905", "@spider": "spar_gb", "addr:street_address": "Farley Green Service Station ", "addr:postcode": "LU1 5QA", "addr:country": "GB", "name": "SPAR - Farley Green", "website": "https://www.spar.co.uk/store-locator/afb17181-spar-farley-green/", "brand": "SPAR", "brand:wikidata": "Q610492"}, "geometry": {"type": "Point", "coordinates": [-0.433832580526168, 51.8675701533122]}},
{"type": "Feature", "id": "XketosJyTam7BDEgxZ-1XV-chK0=", "properties": {"ref": "4737", "@spider": "spar_gb", "addr:street_address": "489 London Road", "addr:postcode": "HP3 9BE", "addr:country": "GB", "name": "SPAR - Hemel Hempstead", "website": "https://www.spar.co.uk/store-locator/afb12109-spar-hemel-hempstead/", "brand": "SPAR", "brand:wikidata": "Q610492"}, "geometry": {"type": "Point", "coordinates": [-0.486670871108864, 51.7428809906453]}},
{"type": "Feature", "id": "Ovy2ShETjvDK1CSQpXdymd0I9bk=", "properties": {"ref": "4971", "@spider": "spar_gb", "addr:street_address": "Euro Garages", "addr:postcode": "LU1 1BN", "addr:country": "GB", "name": "SPAR - Euro Garages - Viva", "website": "https://www.spar.co.uk/store-locator/afb18021-spar-euro-garages-viva/", "brand": "SPAR", "brand:wikidata": "Q610492"}, "geometry": {"type": "Point", "coordinates": [-0.426061797633216, 51.8829681260279]}},
{"type": "Feature", "id": "cb9BLTUb07YVZ7BaGGO5M8cD65Q=", "properties": {"ref": "5567", "@spider": "spar_gb", "addr:street_address": "90 High Street", "addr:postcode": "WD23 3HD", "addr:country": "GB", "name": "SPAR - Bushey", "website": "https://www.spar.co.uk/store-locator/afb57028-spar-bushey/", "brand": "SPAR", "brand:wikidata": "Q610492"}, "geometry": {"type": "Point", "coordinates": [-0.365134926753669, 51.6447959086481]}},
{"type": "Feature", "id": "BXOr4XXHdxbkjFvu4CLZMaWPTEA=", "properties": {"ref": "5007", "@spider": "spar_gb", "addr:street_address": "Wiggenhall Road ", "addr:postcode": "WD18 0FS", "addr:country": "GB", "name": "SPAR - Colne", "website": "https://www.spar.co.uk/store-locator/afb18348-spar-colne/", "brand": "SPAR", "brand:wikidata": "Q610492"}, "geometry": {"type": "Point", "coordinates": [-0.394243851036892, 51.6476613813006]}},
{"type": "Feature", "id": "io6I7LB8nsYMynVyYbuaSUO9pIA=", "properties": {"ref": "5292", "@spider": "spar_gb", "addr:street_address": "323 Ashcroft Road", "addr:city": "Luton", "addr:postcode": "LU2 9AE", "addr:country": "GB", "name": "SPAR - Luton", "website": "https://www.spar.co.uk/store-locator/afb26237-spar-luton/", "brand": "SPAR", "brand:wikidata": "Q610492"}, "geometry": {"type": "Point", "coordinates": [-0.3878566, 51.8923682]}},
{"type": "Feature", "id": "ea6WtmPdFE0aeOZAjdU3C2YTERs=", "properties": {"ref": "5010", "@spider": "spar_gb", "addr:street_address": "391-393 Dunstable Road", "addr:postcode": "LU4 8DA", "addr:country": "GB", "name": "SPAR - Dunstable Road", "website": "https://www.spar.co.uk/store-locator/afb18373-spar-dunstable-road/", "brand": "SPAR", "brand:wikidata": "Q610492"}, "geometry": {"type": "Point", "coordinates": [-0.44494861312424, 51.8905923936938]}},
{"type": "Feature", "id": "l5SmJrIRLp5OcSbjKT8WsZ8At7A=", "properties": {"ref": "5041", "@spider": "spar_gb", "addr:street_address": "Highcross Service Station", "addr:postcode": "SG11 1AZ", "addr:country": "GB", "name": "SPAR - Ware", "website": "https://www.spar.co.uk/store-locator/afb19081-spar-ware/", "brand": "SPAR", "brand:wikidata": "Q610492"}, "geometry": {"type": "Point", "coordinates": [-0.021917186427767, 51.8497561500339]}},
{"type": "Feature", "id": "61vPWcIYb-J3KRURkTP_ZPii3wA=", "properties": {"ref": "4969", "@spider": "spar_gb", "addr:street_address": "Euro Garages", "addr:city": "Hitchen ", "addr:postcode": "SG5 1RQ", "addr:country": "GB", "name": "SPAR - Euro Garages - Nightingale", "website": "https://www.spar.co.uk/store-locator/afb18017-spar-euro-garages-nightingale/", "brand": "SPAR", "brand:wikidata": "Q610492"}, "geometry": {"type": "Point", "coordinates": [-0.26855575544854, 51.9537602355529]}},
{"type": "Feature", "id": "OTcGST5TpEJhW2kuo_vo1IP_50M=", "properties": {"ref": "4946", "@spider": "spar_gb", "addr:street_address": "Euro Garages", "addr:city": "Letchworth ", "addr:postcode": "SG6 1BS", "addr:country": "GB", "name": "SPAR - Euro Garages - Ickneild Way", "website": "https://www.spar.co.uk/store-locator/afb17977-spar-euro-garages-ickneild-way/", "brand": "SPAR", "brand:wikidata": "Q610492"}, "geometry": {"type": "Point", "coordinates": [-0.221678848916624, 51.9850812324466]}},
{"type": "Feature", "id": "2lWUCn67iUd2BhbtxBQJ7iUaJrE=", "properties": {"ref": "5117", "@spider": "spar_gb", "addr:street_address": "1176 High Road", "addr:city": "London", "addr:postcode": "N20 0LH", "addr:country": "GB", "name": "SPAR - High Road Whetstone", "website": "https://www.spar.co.uk/store-locator/afb20845-spar-high-road-whetstone/", "brand": "SPAR", "brand:wikidata": "Q610492"}, "geometry": {"type": "Point", "coordinates": [-0.174491869537138, 51.6279138657655]}},
{"type": "Feature", "id": "2xRWcdePBXNBi-ZJTdBZxBs3YIQ=", "properties": {"ref": "4927", "@spider": "spar_gb", "addr:street_address": "Euro Garages", "addr:postcode": "NW7 2PT", "addr:country": "GB", "name": "SPAR - Euro Garages - Observatory", "website": "https://www.spar.co.uk/store-locator/afb17950-spar-euro-garages-observatory/", "brand": "SPAR", "brand:wikidata": "Q610492"}, "geometry": {"type": "Point", "coordinates": [-0.24199882781884, 51.6154557602797]}},
{"type": "Feature", "id": "IuDmRt41D94bjOvDOHmy9K9TOEE=", "properties": {"ref": "5540", "@spider": "spar_gb", "addr:street_address": "Euro Garages", "addr:city": "Birmingham ", "addr:postcode": "B11 4AR", "addr:country": "GB", "name": "SPAR - Euro Garages - Sparkhill", "website": "https://www.spar.co.uk/store-locator/afb51289-spar-euro-garages-sparkhill/", "brand": "SPAR", "brand:wikidata": "Q610492"}, "geometry": {"type": "Point", "coordinates": [-1.86249830915289, 52.4495684220818]}},
{"type": "Feature", "id": "04H0IkAKCoZNZqOTvXATvn_XceU=", "properties": {"ref": "5394", "@spider": "spar_gb", "addr:street_address": "Spar Store", "addr:city": "Birmingham", "addr:postcode": "B11 1AJ", "addr:country": "GB", "name": "SPAR City Service Station - Spark Brook", "website": "https://www.spar.co.uk/store-locator/afb28816-spar-city-service-station-spark-brook/", "brand": "SPAR", "brand:wikidata": "Q610492"}, "geometry": {"type": "Point", "coordinates": [-1.8765784, 52.4643871]}},
{"type": "Feature", "id": "_1Raq2O0q0OPpPJDR2Z_n9Vv8_k=", "properties": {"ref": "6326", "@spider": "spar_gb", "addr:street_address": "Fox Hollies Road ", "addr:city": "Birmingham ", "addr:postcode": "B27 7US", "addr:country": "GB", "name": "SPAR Euro Garage Merestones", "website": "https://www.spar.co.uk/store-locator/hal28771-spar-euro-garage-merestones/", "brand": "SPAR", "brand:wikidata": "Q610492"}, "geometry": {"type": "Point", "coordinates": [-1.83307450988302, 52.4445771234289]}},
{"type": "Feature", "id": "zpueq3LGIz2QwKWmU5R0st041AA=", "properties": {"ref": "4833", "@spider": "spar_gb", "addr:street_address": "Unit 1 The Matrix", "addr:postcode": "B5 4SG", "addr:country": "GB", "name": "SPAR - Upper Dean Street", "website": "https://www.spar.co.uk/store-locator/afb15092-spar-upper-dean-street/", "brand": "SPAR", "brand:wikidata": "Q610492"}, "geometry": {"type": "Point", "coordinates": [-1.89251161789381, 52.4751040356278]}},
{"type": "Feature", "id": "uPTfwVQnAscY9awjXKXHt5ayF7o=", "properties": {"ref": "4651", "@spider": "spar_gb", "addr:street_address": "51-53 Bristol Road", "addr:city": "Birmingham", "addr:postcode": "B5 7TU", "addr:country": "GB", "name": "SPAR - Edgbaston", "website": "https://www.spar.co.uk/store-locator/afb10209-spar-edgbaston/", "brand": "SPAR", "brand:wikidata": "Q610492"}, "geometry": {"type": "Point", "coordinates": [-1.90347461783318, 52.4640108417161]}},
{"type": "Feature", "id": "Njz9Rw9mMWdRyJZ6e__lsiWrVEk=", "properties": {"ref": "5317", "@spider": "spar_gb", "addr:street_address": "305 Corporation Street", "addr:city": "Birmingham", "addr:postcode": "B4 7DT", "addr:country": "GB", "name": "EURO GARAGES - SPAR - ASTON WAY", "website": "https://www.spar.co.uk/store-locator/afb27251-euro-garages-spar-aston-way/", "brand": "SPAR", "brand:wikidata": "Q610492"}, "geometry": {"type": "Point", "coordinates": [-1.8910142, 52.4888019]}},
{"type": "Feature", "id": "588hZ2_0MNAdfhUquimdF_pu-_U=", "properties": {"ref": "5585", "@spider": "spar_gb", "addr:street_address": "SPAR", "addr:city": "Birmingham", "addr:postcode": "B1 2JF", "addr:country": "GB", "name": "SPAR Brindley Place", "website": "https://www.spar.co.uk/store-locator/afb61300-spar-brindley-place/", "brand": "SPAR", "brand:wikidata": "Q610492"}, "geometry": {"type": "Point", "coordinates": [-1.91453070267303, 52.4780706510286]}},
{"type": "Feature", "id": "xoCLN8jeHGfQIDAApUxqVaqVlLg=", "properties": {"ref": "5478", "@spider": "spar_gb", "addr:street_address": "SPAR Olton", "addr:city": "Solihull", "addr:postcode": "B91 1BQ", "addr:country": "GB", "name": "SPAR Olton", "website": "https://www.spar.co.uk/store-locator/afb46011-spar-olton/", "brand": "SPAR", "brand:wikidata": "Q610492"}, "geometry": {"type": "Point", "coordinates": [-1.79783529603788, 52.4291942040755]}},
{"type": "Feature", "id": "9o_qrOBkZStxOzX6USg76mphPAo=", "properties": {"ref": "6505", "@spider": "spar_gb", "addr:street_address": "Millpool Service Station", "addr:city": "Birmingham ", "addr:postcode": "B14 5EL", "addr:country": "GB", "name": "SPAR Millpool", "website": "https://www.spar.co.uk/store-locator/hal43226-spar-millpool/", "brand": "SPAR", "brand:wikidata": "Q610492"}, "geometry": {"type": "Point", "coordinates": [-1.8850105, 52.4142487]}},
{"type": "Feature", "id": "SrFVHs0U0Veu0fYyL2WLkIyG4IY=", "properties": {"ref": "6124", "@spider": "spar_gb", "addr:street_address": "Hobs Moat Road", "addr:city": "Solihull", "addr:postcode": "B92 8JN", "addr:country": "GB", "name": "SPAR  Hobs Moat", "website": "https://www.spar.co.uk/store-locator/hal25110-spar-hobs-moat/", "brand": "SPAR", "brand:wikidata": "Q610492"}, "geometry": {"type": "Point", "coordinates": [-1.78493394622017, 52.4449669739902]}},
{"type": "Feature", "id": "meRAW_uHRzinKg4MYmaxFOJbVwc=", "properties": {"ref": "6292", "@spider": "spar_gb", "addr:street_address": "Coleshill Road ", "addr:city": "Castle Bromwich ", "addr:postcode": "B36 8BQ", "addr:country": "GB", "name": "SPAR Castle Bromwich", "website": "https://www.spar.co.uk/store-locator/hal28164-spar-castle-bromwich/", "brand": "SPAR", "brand:wikidata": "Q610492"}, "geometry": {"type": "Point", "coordinates": [-1.80024726781873, 52.5008305753152]}},
{"type": "Feature", "id": "Ge5LdeIzxTMDiBdfh0DPHl57Nl8=", "properties": {"ref": "4748", "@spider": "spar_gb", "addr:street_address": "5 Lindsworth Approach", "addr:postcode": "B30 3QH", "addr:country": "GB", "name": "SPAR - Kings Norton", "website": "https://www.spar.co.uk/store-locator/afb12281-spar-kings-norton/", "brand": "SPAR", "brand:wikidata": "Q610492"}, "geometry": {"type": "Point", "coordinates": [-1.91104421089885, 52.4106609555942]}},
{"type": "Feature", "id": "E36BOGRH_f6bLVWZ0Ibtx2mqYk8=", "properties": {"ref": "6123", "@spider": "spar_gb", "addr:street_address": "Solihull Service Station", "addr:city": "Solihull", "addr:postcode": "B90 1JS", "addr:country": "GB", "name": "SPAR Euro Garage Solihull", "website": "https://www.spar.co.uk/store-locator/hal25104-spar-euro-garage-solihull/", "brand": "SPAR", "brand:wikidata": "Q610492"}, "geometry": {"type": "Point", "coordinates": [-1.86188457142298, 52.4057772014878]}},
{"type": "Feature", "id": "GXrI_w4V-gYq4BtmVJcN8eUvAAE=", "properties": {"ref": "5424", "@spider": "spar_gb", "addr:street_address": "SPAR", "addr:city": "Birmingham", "addr:postcode": "B30 1JA", "addr:country": "GB", "name": "SPAR Cotteridge", "website": "https://www.spar.co.uk/store-locator/afb34615-spar-cotteridge/", "brand": "SPAR", "brand:wikidata": "Q610492"}, "geometry": {"type": "Point", "coordinates": [-1.93017564570023, 52.4165532583049]}},
{"type": "Feature", "id": "lphm7AsVoUxnX9bC1h_-nd87uFQ=", "properties": {"ref": "5012", "@spider": "spar_gb", "addr:street_address": "8 Drakes Cross Parade", "addr:city": "Birmingham", "addr:postcode": "B47 5HD", "addr:country": "GB", "name": "SPAR Drakes Cross", "website": "https://www.spar.co.uk/store-locator/afb18544-spar-drakes-cross/", "brand": "SPAR", "brand:wikidata": "Q610492"}, "geometry": {"type": "Point", "coordinates": [-1.88369342107655, 52.3852852280542]}},
{"type": "Feature", "id": "HqtJ3WGagPmfLwOZ5P7ycTZuFCc=", "properties": {"ref": "4666", "@spider": "spar_gb", "addr:street_address": "First Floor, University Centre", "addr:city": "Birmingham", "addr:postcode": "B15 2TT", "addr:country": "GB", "name": "SPAR Birmingham Uni", "website": "https://www.spar.co.uk/store-locator/afb10600-spar-birmingham-uni/", "brand": "SPAR", "brand:wikidata": "Q610492"}, "geometry": {"type": "Point", "coordinates": [-1.93086027513777, 52.4489717135951]}},
{"type": "Feature", "id": "GeC53xdtwDqDZoVvQ7-SghMMR6Q=", "properties": {"ref": "4693", "@spider": "spar_gb", "addr:street_address": "SPAR", "addr:city": "Birmingham", "addr:postcode": "B38 8NA", "addr:country": "GB", "name": "SPAR Redditch Road", "website": "https://www.spar.co.uk/store-locator/afb11305-spar-redditch-road/", "brand": "SPAR", "brand:wikidata": "Q610492"}, "geometry": {"type": "Point", "coordinates": [-1.94882719220716, 52.3966677321915]}},
{"type": "Feature", "id": "mS_6Uq2nRzeXb-bd9zZtBp3q0LM=", "properties": {"ref": "14057", "@spider": "spar_gb", "addr:street_address": "159 Somerford Rd", "addr:city": "Birmingham", "addr:postcode": "B29 5LB", "addr:country": "GB", "name": "SPAR  - Weoley Castle", "website": "https://www.spar.co.uk/store-locator/afb29488-spar-weoley-castle/", "brand": "SPAR", "brand:wikidata": "Q610492"}, "geometry": {"type": "Point", "coordinates": [-1.9702921, 52.4370939]}},
{"type": "Feature", "id": "R2JFYPKtmBPiZ3K3JWrexLE1on8=", "properties": {"ref": "5116", "@spider": "spar_gb", "addr:street_address": "Cranford Filling Station ", "addr:city": "Smethwick ", "addr:postcode": "B66 2RX", "addr:country": "GB", "name": "SPAR - Smethwick", "website": "https://www.spar.co.uk/store-locator/afb20842-spar-smethwick/", "brand": "SPAR", "brand:wikidata": "Q610492"}, "geometry": {"type": "Point", "coordinates": [-1.95082126737719, 52.4938326219487]}},
{"type": "Feature", "id": "YVmVCbCiKMpG89A0PFgKf2fcv0Y=", "properties": {"ref": "6211", "@spider": "spar_gb", "addr:street_address": "30 Birmingham Road", "addr:city": "Birmingham", "addr:postcode": "B71 4JZ", "addr:country": "GB", "name": "SPAR Hawthornes", "website": "https://www.spar.co.uk/store-locator/hal26958-spar-hawthornes/", "brand": "SPAR", "brand:wikidata": "Q610492"}, "geometry": {"type": "Point", "coordinates": [-1.96960378279191, 52.510407325874]}},
{"type": "Feature", "id": "rynyEH0eRkcxasl42cPfakiP-HM=", "properties": {"ref": "5576", "@spider": "spar_gb", "addr:street_address": "417 Rocky Lane", "addr:postcode": "B42 1NL", "addr:country": "GB", "name": "SPAR - Hamstead", "website": "https://www.spar.co.uk/store-locator/afb58921-spar-hamstead/", "brand": "SPAR", "brand:wikidata": "Q610492"}, "geometry": {"type": "Point", "coordinates": [-1.928225124197, 52.5315517747412]}},
{"type": "Feature", "id": "n1lmpsoCtj4IJ1wuy2KoBa4uDZU=", "properties": {"ref": "4699", "@spider": "spar_gb", "addr:street_address": "59 College Road", "addr:postcode": "B44 8DP", "addr:country": "GB", "name": "SPAR - Perry Barr", "website": "https://www.spar.co.uk/store-locator/afb11363-spar-perry-barr/", "brand": "SPAR", "brand:wikidata": "Q610492"}, "geometry": {"type": "Point", "coordinates": [-1.89366263843552, 52.5290806008903]}},
{"type": "Feature", "id": "QO1AOaBufktkk5ooQNi-qpY_Auc=", "properties": {"ref": "5274", "@spider": "spar_gb", "addr:street_address": "61 Marsh Hill", "addr:city": "Birmingham", "addr:postcode": "B23 7DS", "addr:country": "GB", "name": "SPAR - Marsh Hill", "website": "https://www.spar.co.uk/store-locator/afb25392-spar-marsh-hill/", "brand": "SPAR", "brand:wikidata": "Q610492"}, "geometry": {"type": "Point", "coordinates": [-1.8622612, 52.5250407]}},
{"type": "Feature", "id": "_mo-imtfs7ddHstBSZU_Pz6Lems=", "properties": {"ref": "4830", "@spider": "spar_gb", "addr:street_address": "512 Queslett Road", "addr:city": "Birmingham", "addr:postcode": "B43 7EJ", "addr:country": "GB", "name": "SPAR - Queslett Road", "website": "https://www.spar.co.uk/store-locator/afb14983-spar-queslett-road/", "brand": "SPAR", "brand:wikidata": "Q610492"}, "geometry": {"type": "Point", "coordinates": [-1.9002812174559, 52.555138979444]}},
{"type": "Feature", "id": "_j3AtGGgH6Sv10_jLqBblfQCXtI=", "properties": {"ref": "5034", "@spider": "spar_gb", "addr:street_address": "59-61 Birmingham New Road", "addr:city": "Warley", "addr:postcode": "B69 2JS", "addr:country": "GB", "name": "SPAR - Bury Hill", "website": "https://www.spar.co.uk/store-locator/afb19028-spar-bury-hill/", "brand": "SPAR", "brand:wikidata": "Q610492"}, "geometry": {"type": "Point", "coordinates": [-2.03425325831342, 52.5047245011983]}},
{"type": "Feature", "id": "bcTNnie3ibEPGwe4J37BDVtrbzg=", "properties": {"ref": "5577", "@spider": "spar_gb", "addr:street_address": "SPAR", "addr:city": "Birmingham", "addr:postcode": "B26 3QJ", "addr:country": "GB", "name": "SPAR Birmingham Airport", "website": "https://www.spar.co.uk/store-locator/afb59051-spar-birmingham-airport/", "brand": "SPAR", "brand:wikidata": "Q610492"}, "geometry": {"type": "Point", "coordinates": [-1.73106265701026, 52.4512847432173]}},
{"type": "Feature", "id": "wZJn3HIlXmcCqIQbj6K2ttF-0dw=", "properties": {"ref": "6327", "@spider": "spar_gb", "addr:street_address": "Coventry Road ", "addr:city": "Solihull", "addr:postcode": "B92 0EH", "addr:country": "GB", "name": "SPAR Euro Garage Bickenhill", "website": "https://www.spar.co.uk/store-locator/hal28794-spar-euro-garage-bickenhill/", "brand": "SPAR", "brand:wikidata": "Q610492"}, "geometry": {"type": "Point", "coordinates": [-1.72115285233068, 52.4453823367753]}},
{"type": "Feature", "id": "EmVqR3haJKL-qiWa_BWpsV7j81o=", "properties": {"ref": "5408", "@spider": "spar_gb", "addr:street_address": "10-12 Brook Farm Walk", "addr:postcode": "B37 6RX", "addr:country": "GB", "name": "SPAR - Singh Chelmsley Wood", "website": "https://www.spar.co.uk/store-locator/afb29270-spar-singh-chelmsley-wood/", "brand": "SPAR", "brand:wikidata": "Q610492"}, "geometry": {"type": "Point", "coordinates": [-1.72715990577774, 52.4828127471388]}},
{"type": "Feature", "id": "d-eQ5sJQC6SJFdhKI2Hewc76Jy8=", "properties": {"ref": "4854", "@spider": "spar_gb", "addr:street_address": "Unit 7, North Arran Way", "addr:city": "Birmingham", "addr:postcode": "B36 0UG", "addr:country": "GB", "name": "SPAR - Smiths Wood", "website": "https://www.spar.co.uk/store-locator/afb15618-spar-smiths-wood/", "brand": "SPAR", "brand:wikidata": "Q610492"}, "geometry": {"type": "Point", "coordinates": [-1.74872825142578, 52.5016045384487]}},
{"type": "Feature", "id": "UR5FY7vLINbXFv6DO8KCrcSNbYk=", "properties": {"ref": "5583", "@spider": "spar_gb", "addr:street_address": "4-6 Parkfield Drive", "addr:postcode": "B36 9EJ", "addr:country": "GB", "name": "SPAR - Castle Bromwich", "website": "https://www.spar.co.uk/store-locator/afb61141-spar-castle-bromwich/", "brand": "SPAR", "brand:wikidata": "Q610492"}, "geometry": {"type": "Point", "coordinates": [-1.77582447589703, 52.5092643956469]}},
{"type": "Feature", "id": "uPYJK3zKMszjJ2Pm29bSL4l-g48=", "properties": {"ref": "14553", "@spider": "spar_gb", "addr:street_address": "10 Howley Grange Rd", "addr:city": "Halesowen", "addr:postcode": "B62 0HN", "addr:country": "GB", "name": "Spar Prestige Food & Wine", "website": "https://www.spar.co.uk/store-locator/afb29285-spar-prestige-food-wine/", "brand": "SPAR", "brand:wikidata": "Q610492"}, "geometry": {"type": "Point", "coordinates": [-2.0178599, 52.457965]}},
{"type": "Feature", "id": "Jov5Ii3GpX-Z5Df9Up0e54bjz7Q=", "properties": {"ref": "4869", "@spider": "spar_gb", "addr:street_address": "240 Hagley Road", "addr:postcode": "B63 1EF", "addr:country": "GB", "name": "SPAR - Hayley Green", "website": "https://www.spar.co.uk/store-locator/afb15908-spar-hayley-green/", "brand": "SPAR", "brand:wikidata": "Q610492"}, "geometry": {"type": "Point", "coordinates": [-2.08666654879406, 52.4352230738706]}},
{"type": "Feature", "id": "moYjkjbdhZ1ridkyPKY9xcMGv74=", "properties": {"ref": "4874", "@spider": "spar_gb", "addr:street_address": "Widney Road", "addr:city": "Solihull", "addr:postcode": "B93 9DZ", "addr:country": "GB", "name": "EURO GARAGES - SPAR - WIDNEY", "website": "https://www.spar.co.uk/store-locator/afb15972-euro-garages-spar-widney/", "brand": "SPAR", "brand:wikidata": "Q610492"}, "geometry": {"type": "Point", "coordinates": [-1.7518342, 52.3815555]}},
{"type": "Feature", "id": "VJSZ3327jFmXEgRZpUfUZ1J9mBU=", "properties": {"ref": "5276", "@spider": "spar_gb", "addr:street_address": "35 Hobs Road", "addr:postcode": "WS10 9BD", "addr:country": "GB", "name": "SPAR - Wednesbury", "website": "https://www.spar.co.uk/store-locator/afb25528-spar-wednesbury/", "brand": "SPAR", "brand:wikidata": "Q610492"}, "geometry": {"type": "Point", "coordinates": [-2.01022317817496, 52.559872981242]}},
{"type": "Feature", "id": "6wsZ9qiMG7uyxY6OKNGfw2sgGjg=", "properties": {"ref": "4723", "@spider": "spar_gb", "addr:street_address": "SPAR", "addr:city": "Walsall", "addr:postcode": "WS2 9PS", "addr:country": "GB", "name": "SPAR Walsall Manor Hospital", "website": "https://www.spar.co.uk/store-locator/afb11810-spar-walsall-manor-hospital/", "brand": "SPAR", "brand:wikidata": "Q610492"}, "geometry": {"type": "Point", "coordinates": [-1.99918928329475, 52.5821861742435]}},
{"type": "Feature", "id": "CuHwREaEUm2XfAbW7k6Wo_QQM7I=", "properties": {"ref": "5075", "@spider": "spar_gb", "addr:street_address": "SPAR", "addr:city": "Aldridge", "addr:postcode": "WS9 8BD", "addr:country": "GB", "name": "SPAR Aldridge", "website": "https://www.spar.co.uk/store-locator/afb20097-spar-aldridge/", "brand": "SPAR", "brand:wikidata": "Q610492"}, "geometry": {"type": "Point", "coordinates": [-1.92029984395127, 52.6101267485731]}},
{"type": "Feature", "id": "MOlDRWLH0gy5VuYxYLVpr8JwqKA=", "properties": {"ref": "5565", "@spider": "spar_gb", "addr:street_address": "Euro Garages", "addr:city": "Walsall ", "addr:postcode": "WS9 8TH", "addr:country": "GB", "name": "SPAR - Euro Garages - Northgate", "website": "https://www.spar.co.uk/store-locator/afb56931-spar-euro-garages-northgate/", "brand": "SPAR", "brand:wikidata": "Q610492"}, "geometry": {"type": "Point", "coordinates": [-1.92392230947452, 52.6161432692415]}},
{"type": "Feature", "id": "y7WlsLk_0CebL4QeU67JMPCFwU4=", "properties": {"ref": "5391", "@spider": "spar_gb", "addr:street_address": "133 Golden Cross Lane", "addr:city": "Bromsgrove", "addr:postcode": "B61 0LA", "addr:country": "GB", "name": "SPAR - Catshill", "website": "https://www.spar.co.uk/store-locator/afb28798-spar-catshill/", "brand": "SPAR", "brand:wikidata": "Q610492"}, "geometry": {"type": "Point", "coordinates": [-2.0577491, 52.3641147]}},
{"type": "Feature", "id": "mBMglcADNGf1g1bWsZaaeUMWIU0=", "properties": {"ref": "4725", "@spider": "spar_gb", "addr:street_address": "38-42", "addr:city": "Bromsgrove", "addr:postcode": "B61 8LW", "addr:country": "GB", "name": "SPAR Bromsgrove", "website": "https://www.spar.co.uk/store-locator/afb11845-spar-bromsgrove/", "brand": "SPAR", "brand:wikidata": "Q610492"}, "geometry": {"type": "Point", "coordinates": [-2.06716380638543, 52.3398508303389]}},
{"type": "Feature", "id": "7Z0se2BPYIoX9G9qmracF7VkEoE=", "properties": {"ref": "4765", "@spider": "spar_gb", "addr:street_address": "195 Batchley Road", "addr:city": "Redditch", "addr:postcode": "B97 6LB", "addr:country": "GB", "name": "SPAR Batchley", "website": "https://www.spar.co.uk/store-locator/afb14104-spar-batchley/", "brand": "SPAR", "brand:wikidata": "Q610492"}, "geometry": {"type": "Point", "coordinates": [-1.96774655677183, 52.3081752945457]}},
{"type": "Feature", "id": "YwwKXRk_-ZiMOpmmbPdgzwh47xg=", "properties": {"ref": "6328", "@spider": "spar_gb", "addr:street_address": "Watling Street ", "addr:city": "Tamworth ", "addr:postcode": "B78 1SS", "addr:country": "GB", "name": "SPAR Euro Garage Centurion", "website": "https://www.spar.co.uk/store-locator/hal28844-spar-euro-garage-centurion/", "brand": "SPAR", "brand:wikidata": "Q610492"}, "geometry": {"type": "Point", "coordinates": [-1.61137122784297, 52.5970209222236]}},
{"type": "Feature", "id": "mDDgmvlMZGSbFM2N1Nnf5hztCfg=", "properties": {"ref": "4757", "@spider": "spar_gb", "addr:street_address": "3 - 5 Browns Lane", "addr:postcode": "B78 1TR", "addr:country": "GB", "name": "SPAR - Whitmore-Dordon", "website": "https://www.spar.co.uk/store-locator/afb13635-spar-whitmore-dordon/", "brand": "SPAR", "brand:wikidata": "Q610492"}, "geometry": {"type": "Point", "coordinates": [-1.61582616476341, 52.6008111734048]}},
{"type": "Feature", "id": "yU3bkEKAcqU6MPQ13AuC8lg34XQ=", "properties": {"ref": "6325", "@spider": "spar_gb", "addr:street_address": "Junc M42/A5", "addr:city": "Tamworth", "addr:postcode": "B77 5PS", "addr:country": "GB", "name": "SPAR Euro Garage Tamworth", "website": "https://www.spar.co.uk/store-locator/hal28720-spar-euro-garage-tamworth/", "brand": "SPAR", "brand:wikidata": "Q610492"}, "geometry": {"type": "Point", "coordinates": [-1.64104334503276, 52.6081449995458]}},
{"type": "Feature", "id": "mV_XA_DyhVLxCtjHcTUlqXyUl70=", "properties": {"ref": "5437", "@spider": "spar_gb", "addr:street_address": "Bridge End Service Station", "addr:postcode": "B49 6PQ", "addr:country": "GB", "name": "SPAR - Oversley Green", "website": "https://www.spar.co.uk/store-locator/afb42261-spar-oversley-green/", "brand": "SPAR", "brand:wikidata": "Q610492"}, "geometry": {"type": "Point", "coordinates": [-1.87652680185003, 52.2044121956544]}},
{"type": "Feature", "id": "kHoGvw0j9Lew-a9m9irBeP9OKyM=", "properties": {"ref": "4922", "@spider": "spar_gb", "addr:street_address": "Washford Drive ", "addr:postcode": "B98 0HX", "addr:country": "GB", "name": "SPAR - Washford Drive", "website": "https://www.spar.co.uk/store-locator/afb17872-spar-washford-drive/", "brand": "SPAR", "brand:wikidata": "Q610492"}, "geometry": {"type": "Point", "coordinates": [-1.90717772833222, 52.2841933589232]}},
{"type": "Feature", "id": "tP6kA_1LkEZAVo30ISHGyayKHSk=", "properties": {"ref": "5184", "@spider": "spar_gb", "addr:street_address": "Main Street", "addr:city": "South Littleton", "addr:postcode": "WR11 8TJ", "addr:country": "GB", "name": "SPAR - South Littleton", "website": "https://www.spar.co.uk/store-locator/afb23425-spar-south-littleton/", "brand": "SPAR", "brand:wikidata": "Q610492"}, "geometry": {"type": "Point", "coordinates": [-1.88967047127778, 52.114152044538]}},
{"type": "Feature", "id": "te28wVLHpHBHZXnYIy4uxuIbcjw=", "properties": {"ref": "5376", "@spider": "spar_gb", "addr:street_address": "2 Evesham Place", "addr:city": "Stratford upon Avon", "addr:postcode": "CV37 6HT", "addr:country": "GB", "name": "SPAR - Evesham Place Stores", "website": "https://www.spar.co.uk/store-locator/afb28514-spar-evesham-place-stores/", "brand": "SPAR", "brand:wikidata": "Q610492"}, "geometry": {"type": "Point", "coordinates": [-1.7136095, 52.1892613]}},
{"type": "Feature", "id": "6A4RoLpQRDBNm29fh_hDTHJ_I3E=", "properties": {"ref": "14523", "@spider": "spar_gb", "addr:street_address": "52 High St", "addr:city": "Henley-in-Arden", "addr:postcode": "B95 5AN", "addr:country": "GB", "website": "https://www.spar.co.uk/store-locator/afb29549-henley-s-supermarket-ltd/", "brand": "SPAR", "brand:wikidata": "Q610492"}, "geometry": {"type": "Point", "coordinates": [-1.7795198, 52.2942836]}},
{"type": "Feature", "id": "1DHg07xr_eDvL6aH9Twe6XjYdhE=", "properties": {"ref": "5446", "@spider": "spar_gb", "addr:street_address": "16 High Street", "addr:postcode": "WR11 7EW", "addr:country": "GB", "name": "SPAR - Badsey", "website": "https://www.spar.co.uk/store-locator/afb43518-spar-badsey/", "brand": "SPAR", "brand:wikidata": "Q610492"}, "geometry": {"type": "Point", "coordinates": [-1.89935253973175, 52.0880971035175]}},
{"type": "Feature", "id": "6hmjxI-xt24pC697e0D7lXborC0=", "properties": {"ref": "4658", "@spider": "spar_gb", "addr:street_address": "8-12 Main Street", "addr:postcode": "CV37 7AZ", "addr:country": "GB", "name": "SPAR - Tiddington", "website": "https://www.spar.co.uk/store-locator/afb10334-spar-tiddington/", "brand": "SPAR", "brand:wikidata": "Q610492"}, "geometry": {"type": "Point", "coordinates": [-1.67623350377768, 52.2001852183206]}},
{"type": "Feature", "id": "L5U2fMBeV2BLC96gp5qb1ixVfjE=", "properties": {"ref": "5162", "@spider": "spar_gb", "addr:street_address": "96 PERSHORE ROAD ", "addr:city": "EVESHAM", "addr:postcode": "WR11 2PJ", "addr:country": "GB", "name": "SPAR - Evesham", "website": "https://www.spar.co.uk/store-locator/afb23012-spar-evesham/", "brand": "SPAR", "brand:wikidata": "Q610492"}, "geometry": {"type": "Point", "coordinates": [-1.96542346488226, 52.0875594518135]}},
{"type": "Feature", "id": "aoSCRvfeKf-PqZVvK-C6fGQT04E=", "properties": {"ref": "4914", "@spider": "spar_gb", "addr:street_address": "Station Road", "addr:postcode": "WR10 2DJ", "addr:country": "GB", "name": "SPAR - Pershore", "website": "https://www.spar.co.uk/store-locator/afb17440-spar-pershore/", "brand": "SPAR", "brand:wikidata": "Q610492"}, "geometry": {"type": "Point", "coordinates": [-2.07273686241646, 52.1318831223044]}},
{"type": "Feature", "id": "COiQ9HDuo4XsFpYuPV4rbmvc7-s=", "properties": {"ref": "5066", "@spider": "spar_gb", "addr:street_address": "Westlands Supermarket", "addr:postcode": "WR9 9EQ", "addr:country": "GB", "name": "SPAR - Droitwich", "website": "https://www.spar.co.uk/store-locator/afb19662-spar-droitwich/", "brand": "SPAR", "brand:wikidata": "Q610492"}, "geometry": {"type": "Point", "coordinates": [-2.16523269168994, 52.2752402712089]}},
{"type": "Feature", "id": "uKyVptihheTc2HEjQ-StjRveOIM=", "properties": {"ref": "5430", "@spider": "spar_gb", "addr:street_address": "SPAR", "addr:city": "Droitwich", "addr:postcode": "WR9 8PQ", "addr:country": "GB", "name": "SPAR Droitwich", "website": "https://www.spar.co.uk/store-locator/afb38007-spar-droitwich/", "brand": "SPAR", "brand:wikidata": "Q610492"}, "geometry": {"type": "Point", "coordinates": [-2.16399879387575, 52.2586279318794]}},
{"type": "Feature", "id": "Xol_jPx7uXgxvs5H-3BkXOnB0Z0=", "properties": {"ref": "4747", "@spider": "spar_gb", "addr:street_address": "53 Queensway", "addr:postcode": "DY9 9HJ", "addr:country": "GB", "name": "SPAR - Wollescote", "website": "https://www.spar.co.uk/store-locator/afb12275-spar-wollescote/", "brand": "SPAR", "brand:wikidata": "Q610492"}, "geometry": {"type": "Point", "coordinates": [-2.1171181586438, 52.4421190903106]}},
{"type": "Feature", "id": "J7d1vdmva8MAgHDhjg0oTq8rJ7s=", "properties": {"ref": "5051", "@spider": "spar_gb", "addr:street_address": "Spar Stores", "addr:city": "Stourbridge", "addr:postcode": "DY9 0NG", "addr:country": "GB", "name": "SPAR Hagley", "website": "https://www.spar.co.uk/store-locator/afb19269-spar-hagley/", "brand": "SPAR", "brand:wikidata": "Q610492"}, "geometry": {"type": "Point", "coordinates": [-2.14369721710682, 52.4199458314255]}},
{"type": "Feature", "id": "BBwGGq7YiDmhjAeRE1DHeDjWI20=", "properties": {"ref": "5382", "@spider": "spar_gb", "addr:street_address": "Mill Service Station", "addr:city": "Stourbridge", "addr:postcode": "DY9 8EE", "addr:country": "GB", "name": "SPAR - Mill Service Station", "website": "https://www.spar.co.uk/store-locator/afb28647-spar-mill-service-station/", "brand": "SPAR", "brand:wikidata": "Q610492"}, "geometry": {"type": "Point", "coordinates": [-2.1169799, 52.4596191]}},
{"type": "Feature", "id": "00qRGFNhgiqRadHRMxn6qSg65uw=", "properties": {"ref": "5541", "@spider": "spar_gb", "addr:street_address": "Euro Garages", "addr:city": "Stourbridge ", "addr:postcode": "DY8 2JL", "addr:country": "GB", "name": "SPAR - Euro Garages - Stourbridge", "website": "https://www.spar.co.uk/store-locator/afb51310-spar-euro-garages-stourbridge/", "brand": "SPAR", "brand:wikidata": "Q610492"}, "geometry": {"type": "Point", "coordinates": [-2.14081840019965, 52.4467410341904]}},
{"type": "Feature", "id": "37pNOC8xJYXEiUX4KA_0bLobPJc=", "properties": {"ref": "4657", "@spider": "spar_gb", "addr:street_address": "Foster Street East ", "addr:postcode": "DY8 1LP", "addr:country": "GB", "name": "SPAR - Stourbridge Bus Station", "website": "https://www.spar.co.uk/store-locator/afb10306-spar-stourbridge-bus-station/", "brand": "SPAR", "brand:wikidata": "Q610492"}, "geometry": {"type": "Point", "coordinates": [-2.14315768044256, 52.4557731798637]}},
{"type": "Feature", "id": "0Av3Bix6ohpEmfXmL29JcktQCtQ=", "properties": {"ref": "5471", "@spider": "spar_gb", "addr:street_address": "SPAR", "addr:city": "Stourbridge", "addr:postcode": "DY8 3NU", "addr:country": "GB", "name": "SPAR Wollaston", "website": "https://www.spar.co.uk/store-locator/afb45218-spar-wollaston/", "brand": "SPAR", "brand:wikidata": "Q610492"}, "geometry": {"type": "Point", "coordinates": [-2.16540844003991, 52.4597266795273]}},
{"type": "Feature", "id": "VQNydOWtcH5becGnHPfxS_nQmTk=", "properties": {"ref": "5479", "@spider": "spar_gb", "addr:street_address": "SPAR", "addr:city": "Dudley", "addr:postcode": "DY1 2NW", "addr:country": "GB", "name": "SPAR Russells Hall", "website": "https://www.spar.co.uk/store-locator/afb46194-spar-russells-hall/", "brand": "SPAR", "brand:wikidata": "Q610492"}, "geometry": {"type": "Point", "coordinates": [-2.11227325054075, 52.5094766450952]}},
{"type": "Feature", "id": "gYhcHIdoCfl-If1IjrAOO7Ap7gU=", "properties": {"ref": "5483", "@spider": "spar_gb", "addr:street_address": "SPAR", "addr:city": "Gornal Wood", "addr:postcode": "DY3 2PQ", "addr:country": "GB", "name": "SPAR Gornal Wood", "website": "https://www.spar.co.uk/store-locator/afb47258-spar-gornal-wood/", "brand": "SPAR", "brand:wikidata": "Q610492"}, "geometry": {"type": "Point", "coordinates": [-2.1306696279148, 52.5172609667647]}},
{"type": "Feature", "id": "zlk_bhB5rni8lK4l6YIqqtdHOcg=", "properties": {"ref": "5030", "@spider": "spar_gb", "addr:street_address": "617 Birmingham New Road", "addr:city": "Bilston", "addr:postcode": "WV14 9QE", "addr:country": "GB", "name": "SPAR - Roseville", "website": "https://www.spar.co.uk/store-locator/afb19019-spar-roseville/", "brand": "SPAR", "brand:wikidata": "Q610492"}, "geometry": {"type": "Point", "coordinates": [-2.09115760343908, 52.5440609642053]}},
{"type": "Feature", "id": "0ccmWJMcx91I7cNwOGN6hl4Bf40=", "properties": {"ref": "4677", "@spider": "spar_gb", "addr:street_address": "SPAR", "addr:city": "Wordsley", "addr:postcode": "DY8 5PD", "addr:country": "GB", "name": "SPAR Wordsley", "website": "https://www.spar.co.uk/store-locator/afb10912-spar-wordsley/", "brand": "SPAR", "brand:wikidata": "Q610492"}, "geometry": {"type": "Point", "coordinates": [-2.16478010999421, 52.4806112870976]}},
{"type": "Feature", "id": "M90S6zfFVWD-owvc_TXVbTXZN08=", "properties": {"ref": "5550", "@spider": "spar_gb", "addr:street_address": "Euro Garages", "addr:city": "Wolverhampton", "addr:postcode": "WV14 0QJ", "addr:country": "GB", "name": "SPAR - Euro Garages - Millfields", "website": "https://www.spar.co.uk/store-locator/afb53310-spar-euro-garages-millfields/", "brand": "SPAR", "brand:wikidata": "Q610492"}, "geometry": {"type": "Point", "coordinates": [-2.08497341862276, 52.5638971813215]}},
{"type": "Feature", "id": "yh3jbSC1VgsuQ3STczVPsDpmnts=", "properties": {"ref": "4665", "@spider": "spar_gb", "addr:street_address": "SPAR", "addr:city": "Willenhall", "addr:postcode": "WV13 2RN", "addr:country": "GB", "name": "SPAR Bentley", "website": "https://www.spar.co.uk/store-locator/afb10583-spar-bentley/", "brand": "SPAR", "brand:wikidata": "Q610492"}, "geometry": {"type": "Point", "coordinates": [-2.0345688858624, 52.587134431847]}},
{"type": "Feature", "id": "z4uf0guovZYaK6bRnFIbQ70ADcg=", "properties": {"ref": "4645", "@spider": "spar_gb", "addr:street_address": "Lanesfield P.O", "addr:city": "Wolverhampton", "addr:postcode": "WV4 6NR", "addr:country": "GB", "name": "SPAR - Lanesfield", "website": "https://www.spar.co.uk/store-locator/afb10008-spar-lanesfield/", "brand": "SPAR", "brand:wikidata": "Q610492"}, "geometry": {"type": "Point", "coordinates": [-2.10268494493787, 52.5551000334278]}},
{"type": "Feature", "id": "YX9M5AvWfWAtXhqV_YoIBeUFaZ4=", "properties": {"ref": "4671", "@spider": "spar_gb", "addr:street_address": "Exley Neighbourhood Centre", "addr:postcode": "B77 2LA", "addr:country": "GB", "name": "SPAR - Exley Neighbourhood Tamworth", "website": "https://www.spar.co.uk/store-locator/afb10740-spar-exley-neighbourhood-tamworth/", "brand": "SPAR", "brand:wikidata": "Q610492"}, "geometry": {"type": "Point", "coordinates": [-1.68001975341808, 52.6194848542032]}},
{"type": "Feature", "id": "R9uWNlPUaaQW9Wl_OmiNrNxDAns=", "properties": {"ref": "5484", "@spider": "spar_gb", "addr:street_address": "SPAR", "addr:city": "Tamworth", "addr:postcode": "B77 2ED", "addr:country": "GB", "name": "SPAR Glascote Heath", "website": "https://www.spar.co.uk/store-locator/afb47264-spar-glascote-heath/", "brand": "SPAR", "brand:wikidata": "Q610492"}, "geometry": {"type": "Point", "coordinates": [-1.66381183288633, 52.6219661351076]}},
{"type": "Feature", "id": "JSyvU5kOgOSAuUbkbPlsnfQ65IA=", "properties": {"ref": "6212", "@spider": "spar_gb", "addr:street_address": "Upper Gungate", "addr:city": "Staffordshire", "addr:postcode": "B79 7NU", "addr:country": "GB", "name": "SPAR Tamworth", "website": "https://www.spar.co.uk/store-locator/hal26964-spar-tamworth/", "brand": "SPAR", "brand:wikidata": "Q610492"}, "geometry": {"type": "Point", "coordinates": [-1.69425364758726, 52.6372142678863]}},
{"type": "Feature", "id": "uQKX0mnJvjX7K4tWXfn89v0GJ30=", "properties": {"ref": "5056", "@spider": "spar_gb", "addr:street_address": "Paul & Sons Convenience Stores Ltd", "addr:postcode": "B79 8JA", "addr:country": "GB", "name": "SPAR - Masefield Drive Tamworth", "website": "https://www.spar.co.uk/store-locator/afb19422-spar-masefield-drive-tamworth/", "brand": "SPAR", "brand:wikidata": "Q610492"}, "geometry": {"type": "Point", "coordinates": [-1.7016880954262, 52.6434900633532]}},
{"type": "Feature", "id": "8fIkCilFy5NZd4ZUWAy-Mta5GHA=", "properties": {"ref": "5486", "@spider": "spar_gb", "addr:street_address": "SPAR", "addr:city": "Pelsall", "addr:postcode": "WS3 4LX", "addr:country": "GB", "name": "SPAR Pelsall", "website": "https://www.spar.co.uk/store-locator/afb47314-spar-pelsall/", "brand": "SPAR", "brand:wikidata": "Q610492"}, "geometry": {"type": "Point", "coordinates": [-1.96825139495322, 52.6295940148456]}},
{"type": "Feature", "id": "io3PnQ9g6nQeOCNekwsRl2X_BRY=", "properties": {"ref": "5305", "@spider": "spar_gb", "addr:street_address": "51 Well Lane", "addr:city": "Walsall", "addr:postcode": "WS3 1JR", "addr:country": "GB", "name": "SPAR - The Oak Supermarket", "website": "https://www.spar.co.uk/store-locator/afb26977-spar-the-oak-supermarket/", "brand": "SPAR", "brand:wikidata": "Q610492"}, "geometry": {"type": "Point", "coordinates": [-1.9854306, 52.6122599]}},
{"type": "Feature", "id": "PmcnHXkWvRtDGVTVdmdG8TAhXwo=", "properties": {"ref": "5425", "@spider": "spar_gb", "addr:street_address": "SPAR", "addr:city": "Tamworth", "addr:postcode": "B77 4JA", "addr:country": "GB", "name": "SPAR Stonydelph", "website": "https://www.spar.co.uk/store-locator/afb35028-spar-stonydelph/", "brand": "SPAR", "brand:wikidata": "Q610492"}, "geometry": {"type": "Point", "coordinates": [-1.65089202992169, 52.6175597610882]}},
{"type": "Feature", "id": "YFwQR9ad0T6Magg4HCTnI_tTFQo=", "properties": {"ref": "14050", "@spider": "spar_gb", "addr:street_address": "4ew", "addr:city": "Tamworth", "addr:postcode": "B77 4GG", "addr:country": "GB", "name": "Amington Convenience Limited", "website": "https://www.spar.co.uk/store-locator/afb29367-amington-convenience-limited/", "brand": "SPAR", "brand:wikidata": "Q610492"}, "geometry": {"type": "Point", "coordinates": [-1.6538436, 52.6304444]}},
{"type": "Feature", "id": "CbpKPSjHkvjZIwvobY9sJji_NzU=", "properties": {"ref": "4751", "@spider": "spar_gb", "addr:street_address": "2 - 4 Bridge Street", "addr:postcode": "B78 1DT", "addr:country": "GB", "name": "SPAR -  Whitmore-Polesworth", "website": "https://www.spar.co.uk/store-locator/afb12927-spar-whitmore-polesworth/", "brand": "SPAR", "brand:wikidata": "Q610492"}, "geometry": {"type": "Point", "coordinates": [-1.61491072703056, 52.6193451951316]}},
{"type": "Feature", "id": "MjuWy7VI_ErXv9apeX7Z9TTBsLc=", "properties": {"ref": "4722", "@spider": "spar_gb", "addr:street_address": "SPAR", "addr:city": "Coventry", "addr:postcode": "CV4 9AE", "addr:country": "GB", "name": "SPAR Bannerbrook", "website": "https://www.spar.co.uk/store-locator/afb11809-spar-bannerbrook/", "brand": "SPAR", "brand:wikidata": "Q610492"}, "geometry": {"type": "Point", "coordinates": [-1.59809458831154, 52.411612297523]}},
{"type": "Feature", "id": "Vb_T5dmxLNF3eMqziM1Csf1S-dM=", "properties": {"ref": "5327", "@spider": "spar_gb", "addr:street_address": "96 Droitwich Road", "addr:postcode": "WR3 8RA", "addr:country": "GB", "name": "SPAR Fernhill Heath", "website": "https://www.spar.co.uk/store-locator/afb27518-spar-fernhill-heath/", "brand": "SPAR", "brand:wikidata": "Q610492"}, "geometry": {"type": "Point", "coordinates": [-2.1904559, 52.2301816]}},
{"type": "Feature", "id": "WZolYCOseWeKhoSSZYHrqoLleCY=", "properties": {"ref": "5692", "@spider": "spar_gb", "addr:street_address": "Bill the Butcher", "addr:city": "Bruton", "addr:postcode": "BA10 0AB", "addr:country": "GB", "name": "SPAR Bruton", "website": "https://www.spar.co.uk/store-locator/awl23854-spar-bruton/", "brand": "SPAR", "brand:wikidata": "Q610492"}, "geometry": {"type": "Point", "coordinates": [-2.45409, 51.11241]}},
{"type": "Feature", "id": "gKaV9FzWY_guL05Xu0nKbFYxTN8=", "properties": {"ref": "5847", "@spider": "spar_gb", "addr:street_address": "Forge Garage", "addr:city": "Gillingham", "addr:postcode": "SP8 5BD", "addr:country": "GB", "name": "SPAR Forge Grage, Bourton", "website": "https://www.spar.co.uk/store-locator/awl28062-spar-forge-grage-bourton/", "brand": "SPAR", "brand:wikidata": "Q610492"}, "geometry": {"type": "Point", "coordinates": [-2.3221653, 51.0753696]}},
{"type": "Feature", "id": "lKuXnEPrzmDuhnBgn9eGV6I2X3Q=", "properties": {"ref": "5730", "@spider": "spar_gb", "addr:street_address": "SPAR", "addr:city": "Frome", "addr:postcode": "BA11 4NZ", "addr:country": "GB", "name": "SPAR Euro Garage Nunney Catch", "website": "https://www.spar.co.uk/store-locator/awl26039-spar-euro-garage-nunney-catch/", "brand": "SPAR", "brand:wikidata": "Q610492"}, "geometry": {"type": "Point", "coordinates": [-2.37676, 51.2012]}},
{"type": "Feature", "id": "czAPvkX8K8vrqGpVUMw_9gD7AQs=", "properties": {"ref": "5616", "@spider": "spar_gb", "addr:street_address": "Market Place", "addr:city": "Frome", "addr:postcode": "BA11 4LY", "addr:country": "GB", "name": "SPAR Market Place, Nunney", "website": "https://www.spar.co.uk/store-locator/awl11988-spar-market-place-nunney/", "brand": "SPAR", "brand:wikidata": "Q610492"}, "geometry": {"type": "Point", "coordinates": [-2.379, 51.20919]}},
{"type": "Feature", "id": "HvFTdjmxlzD4t9JM6_acxGVH5_U=", "properties": {"ref": "5891", "@spider": "spar_gb", "addr:street_address": "Rodden Road", "addr:city": "Frome", "addr:postcode": "BA11 2AE", "addr:country": "GB", "name": "SPAR Rodden Road", "website": "https://www.spar.co.uk/store-locator/awl40030-spar-rodden-road/", "brand": "SPAR", "brand:wikidata": "Q610492"}, "geometry": {"type": "Point", "coordinates": [-2.313127, 51.235043]}},
{"type": "Feature", "id": "QzcRFeyOmut8RIlKhCOQDX_6I_4=", "properties": {"ref": "5670", "@spider": "spar_gb", "addr:street_address": "SPAR Riverside Garage", "addr:city": "Gillingham", "addr:postcode": "SP8 5RJ", "addr:country": "GB", "name": "SPAR Riverside Garage", "website": "https://www.spar.co.uk/store-locator/awl22279-spar-riverside-garage/", "brand": "SPAR", "brand:wikidata": "Q610492"}, "geometry": {"type": "Point", "coordinates": [-2.30178, 51.00329]}},
{"type": "Feature", "id": "5gghKCW5kB1RlCtyUXIEFjWsU68=", "properties": {"ref": "5732", "@spider": "spar_gb", "addr:street_address": "SPAR", "addr:city": "Warminster", "addr:postcode": "BA12 6AQ", "addr:country": "GB", "name": "SPAR Euro Garage Willoughby Hedge", "website": "https://www.spar.co.uk/store-locator/awl26051-spar-euro-garage-willoughby-hedge/", "brand": "SPAR", "brand:wikidata": "Q610492"}, "geometry": {"type": "Point", "coordinates": [-2.18558, 51.10153]}},
{"type": "Feature", "id": "S2yZu3vvqi9C8w2JlCLOWtmXqCA=", "properties": {"ref": "5832", "@spider": "spar_gb", "addr:street_address": "Warninster Service Area", "addr:city": "Warminster", "addr:postcode": "BA12 7RA", "addr:country": "GB", "name": "SPAR Euro Garage Bath Road", "website": "https://www.spar.co.uk/store-locator/awl27899-spar-euro-garage-bath-road/", "brand": "SPAR", "brand:wikidata": "Q610492"}, "geometry": {"type": "Point", "coordinates": [-2.1999907, 51.2178683]}},
{"type": "Feature", "id": "pdBik_GTnaMuxEjthbhW2XlzLk0=", "properties": {"ref": "5731", "@spider": "spar_gb", "addr:street_address": "East Street", "addr:city": "Warminster", "addr:postcode": "BA12 9BJ", "addr:country": "GB", "name": "SPAR Euro Garage Warminster East", "website": "https://www.spar.co.uk/store-locator/awl26045-spar-euro-garage-warminster-east/", "brand": "SPAR", "brand:wikidata": "Q610492"}, "geometry": {"type": "Point", "coordinates": [-2.17646, 51.20317]}},
{"type": "Feature", "id": "XVvXldIzEdNhHzyDtLV6z8YuonY=", "properties": {"ref": "5702", "@spider": "spar_gb", "addr:street_address": "New Street", "addr:city": "Marnhull", "addr:postcode": "DT10 1PX", "addr:country": "GB", "name": "SPAR Marnhull", "website": "https://www.spar.co.uk/store-locator/awl24483-spar-marnhull/", "brand": "SPAR", "brand:wikidata": "Q610492"}, "geometry": {"type": "Point", "coordinates": [-2.31974, 50.96538]}},
{"type": "Feature", "id": "-JoDYIJrIg03bIOtfTKAnXMMlpM=", "properties": {"ref": "5801", "@spider": "spar_gb", "addr:street_address": "2 Battle Walk", "addr:city": "Bath", "addr:postcode": "BA1 9AX", "addr:country": "GB", "name": "SPAR Battle Walk", "website": "https://www.spar.co.uk/store-locator/awl27404-spar-battle-walk/", "brand": "SPAR", "brand:wikidata": "Q610492"}, "geometry": {"type": "Point", "coordinates": [-2.3756666, 51.4059322]}},
{"type": "Feature", "id": "XNAYTfDAEOWbT8A1Um-7SBAzqWc=", "properties": {"ref": "5829", "@spider": "spar_gb", "addr:street_address": "280 High Street", "addr:city": "Bath", "addr:postcode": "BA1 7RA", "addr:country": "GB", "name": "SPAR Batheaston", "website": "https://www.spar.co.uk/store-locator/awl27860-spar-batheaston/", "brand": "SPAR", "brand:wikidata": "Q610492"}, "geometry": {"type": "Point", "coordinates": [-2.3204914, 51.4055625]}},
{"type": "Feature", "id": "nb04g5mhNFdTlPr7lenP7yWVxYY=", "properties": {"ref": "5839", "@spider": "spar_gb", "addr:street_address": "6 - 8 brookside House", "addr:city": "Bath", "addr:postcode": "BA1 4BY", "addr:country": "GB", "name": "SPAR Brookside House", "website": "https://www.spar.co.uk/store-locator/awl27978-spar-brookside-house/", "brand": "SPAR", "brand:wikidata": "Q610492"}, "geometry": {"type": "Point", "coordinates": [-2.3927459, 51.3965962]}},
{"type": "Feature", "id": "Oh-4wdpgL4vLZQEijJF_x-ZW450=", "properties": {"ref": "5828", "@spider": "spar_gb", "addr:street_address": "2 Rivers Place", "addr:city": "Bath", "addr:postcode": "BA1 2RS", "addr:country": "GB", "name": "SPAR Julian Road", "website": "https://www.spar.co.uk/store-locator/awl27853-spar-julian-road/", "brand": "SPAR", "brand:wikidata": "Q610492"}, "geometry": {"type": "Point", "coordinates": [-2.3642434, 51.3878405]}},
{"type": "Feature", "id": "RbeHptbe9zWm3JHwAM0sm98kU-0=", "properties": {"ref": "5806", "@spider": "spar_gb", "addr:street_address": "21 - 23 Holcombe Road", "addr:city": "Bathampton", "addr:postcode": "BA2 6UL", "addr:country": "GB", "name": "SPAR Bathampton", "website": "https://www.spar.co.uk/store-locator/awl27491-spar-bathampton/", "brand": "SPAR", "brand:wikidata": "Q610492"}, "geometry": {"type": "Point", "coordinates": [-2.3214349, 51.3933211]}},
{"type": "Feature", "id": "YgAh6aNJ8qV-xZC6kxxfEtFNMmo=", "properties": {"ref": "5699", "@spider": "spar_gb", "addr:street_address": "6 Chelsea Road", "addr:city": "Bath", "addr:postcode": "BA1 3DU", "addr:country": "GB", "name": "SPAR Goss Chelsea Road", "website": "https://www.spar.co.uk/store-locator/awl24238-spar-goss-chelsea-road/", "brand": "SPAR", "brand:wikidata": "Q610492"}, "geometry": {"type": "Point", "coordinates": [-2.38867, 51.38498]}},
{"type": "Feature", "id": "YVy5j-xL8YtEueWfD8i-iXfCIDA=", "properties": {"ref": "5695", "@spider": "spar_gb", "addr:street_address": "SPAR", "addr:city": "Bath", "addr:postcode": "BA2 7HY", "addr:country": "GB", "name": "SPAR Haring Monkton Combe", "website": "https://www.spar.co.uk/store-locator/awl23910-spar-haring-monkton-combe/", "brand": "SPAR", "brand:wikidata": "Q610492"}, "geometry": {"type": "Point", "coordinates": [-2.31346, 51.35988]}},
{"type": "Feature", "id": "vHcN2Rjc8cPUCXMnqY4wRisY9Uo=", "properties": {"ref": "5783", "@spider": "spar_gb", "addr:street_address": "26 Tower Road South", "addr:city": "Bristol", "addr:postcode": "BS30 8BJ", "addr:country": "GB", "name": "SPAR Warmley", "website": "https://www.spar.co.uk/store-locator/awl27115-spar-warmley/", "brand": "SPAR", "brand:wikidata": "Q610492"}, "geometry": {"type": "Point", "coordinates": [-2.47775, 51.45119]}},
{"type": "Feature", "id": "jc3n57zZ4x7c0gBnxzz_rBzgHkA=", "properties": {"ref": "5767", "@spider": "spar_gb", "addr:street_address": "SPAR", "addr:city": "Bristol", "addr:postcode": "BS16 9RB", "addr:country": "GB", "name": "SPAR Pucklechurch", "website": "https://www.spar.co.uk/store-locator/awl26833-spar-pucklechurch/", "brand": "SPAR", "brand:wikidata": "Q610492"}, "geometry": {"type": "Point", "coordinates": [-2.4341, 51.48625]}},
{"type": "Feature", "id": "ay-7OXHkWV-VNmtmUapIJBO9BcM=", "properties": {"ref": "5892", "@spider": "spar_gb", "addr:street_address": "71 Queens Road", "addr:city": "Keynsham", "addr:postcode": "BS31 2NW", "addr:country": "GB", "name": "SPAR Queens Road", "website": "https://www.spar.co.uk/store-locator/awl40035-spar-queens-road/", "brand": "SPAR", "brand:wikidata": "Q610492"}, "geometry": {"type": "Point", "coordinates": [-2.5083313, 51.4089449]}},
{"type": "Feature", "id": "3z8TrAR3YtwMTEY7XlEX-JG9UjQ=", "properties": {"ref": "5804", "@spider": "spar_gb", "addr:street_address": "Windsor House", "addr:city": "High Littleton", "addr:postcode": "BS39 6JD", "addr:country": "GB", "name": "SPAR High Littleton", "website": "https://www.spar.co.uk/store-locator/awl27479-spar-high-littleton/", "brand": "SPAR", "brand:wikidata": "Q610492"}, "geometry": {"type": "Point", "coordinates": [-2.5104924, 51.3237235]}},
{"type": "Feature", "id": "8cLNZiE1I2a_0l4Jpz57Fg8Hxmc=", "properties": {"ref": "5729", "@spider": "spar_gb", "addr:street_address": "Church Lane", "addr:city": "Midsomer Norton", "addr:postcode": "BA3 2JL", "addr:country": "GB", "name": "SPAR Euro Garage Norton", "website": "https://www.spar.co.uk/store-locator/awl26022-spar-euro-garage-norton/", "brand": "SPAR", "brand:wikidata": "Q610492"}, "geometry": {"type": "Point", "coordinates": [-2.48586, 51.28569]}},
{"type": "Feature", "id": "PUKj0_G03b-45VJ37rYe1k2JIaw=", "properties": {"ref": "5620", "@spider": "spar_gb", "addr:street_address": "Bath Road", "addr:city": "Devizes", "addr:postcode": "SN10 1QG", "addr:country": "GB", "name": "SPAR Devizes", "website": "https://www.spar.co.uk/store-locator/awl12174-spar-devizes/", "brand": "SPAR", "brand:wikidata": "Q610492"}, "geometry": {"type": "Point", "coordinates": [-2.01482, 51.35179]}},
{"type": "Feature", "id": "ARDlqDrQhCqgvzfZlnQpJ2zEsKo=", "properties": {"ref": "5838", "@spider": "spar_gb", "addr:street_address": "Church Road", "addr:city": "Calne", "addr:postcode": "SN11 9PA", "addr:country": "GB", "name": "SPAR Derry Hill", "website": "https://www.spar.co.uk/store-locator/awl27961-spar-derry-hill/", "brand": "SPAR", "brand:wikidata": "Q610492"}, "geometry": {"type": "Point", "coordinates": [-2.0621562, 51.434591]}},
{"type": "Feature", "id": "WqvJsU9spC22j-5L2QZUU1EBbQ4=", "properties": {"ref": "5719", "@spider": "spar_gb", "addr:street_address": "Reckleford", "addr:city": "Yeovil", "addr:postcode": "BA21 4EH", "addr:country": "GB", "name": "SPAR Yeovil Motors", "website": "https://www.spar.co.uk/store-locator/awl25734-spar-yeovil-motors/", "brand": "SPAR", "brand:wikidata": "Q610492"}, "geometry": {"type": "Point", "coordinates": [-2.62922, 50.94401]}},
{"type": "Feature", "id": "zzTvhv4VjwBrXK61uIg-n6ZHyW8=", "properties": {"ref": "5888", "@spider": "spar_gb", "addr:street_address": "59 West Coker Road", "addr:city": "Yeovil", "addr:postcode": "BA20 2LZ", "addr:country": "GB", "name": "SPAR West Coker Road", "website": "https://www.spar.co.uk/store-locator/awl40015-spar-west-coker-road/", "brand": "SPAR", "brand:wikidata": "Q610492"}, "geometry": {"type": "Point", "coordinates": [-2.6479728, 50.9300456]}},
{"type": "Feature", "id": "X8IgSvXbQHLcv-eyLigJrQzIAVQ=", "properties": {"ref": "5708", "@spider": "spar_gb", "addr:street_address": "2 Sunnyside Court", "addr:city": "Sherborne", "addr:postcode": "DT9 6LF", "addr:country": "GB", "name": "SPAR Yetminister", "website": "https://www.spar.co.uk/store-locator/awl24789-spar-yetminister/", "brand": "SPAR", "brand:wikidata": "Q610492"}, "geometry": {"type": "Point", "coordinates": [-2.58167, 50.89572]}},
{"type": "Feature", "id": "aVPPzzrpM9mbMwj3huDqb4juoa4=", "properties": {"ref": "5834", "@spider": "spar_gb", "addr:street_address": "A303 -A37 Roundabout", "addr:city": "Yeovil", "addr:postcode": "BA22 8JG", "addr:country": "GB", "name": "SPAR Euro Garage Podimore", "website": "https://www.spar.co.uk/store-locator/awl27910-spar-euro-garage-podimore/", "brand": "SPAR", "brand:wikidata": "Q610492"}, "geometry": {"type": "Point", "coordinates": [-2.6597803, 51.0230491]}},
{"type": "Feature", "id": "XMzvmziUUN0A7rLj8c-PaQHe0lI=", "properties": {"ref": "5817", "@spider": "spar_gb", "addr:street_address": "The Stores", "addr:city": "Sherborne", "addr:postcode": "DT9 4DW", "addr:country": "GB", "name": "SPAR Simons Road", "website": "https://www.spar.co.uk/store-locator/awl27716-spar-simons-road/", "brand": "SPAR", "brand:wikidata": "Q610492"}, "geometry": {"type": "Point", "coordinates": [-2.5155546, 50.954737]}},
{"type": "Feature", "id": "T6k_Jn7JEKHmn_pxUWjVKfjAO9I=", "properties": {"ref": "5727", "@spider": "spar_gb", "addr:street_address": "SPAR", "addr:city": "South Petherton", "addr:postcode": "TA13 5JG", "addr:country": "GB", "name": "SPAR Euro Garage South Petherton", "website": "https://www.spar.co.uk/store-locator/awl26000-spar-euro-garage-south-petherton/", "brand": "SPAR", "brand:wikidata": "Q610492"}, "geometry": {"type": "Point", "coordinates": [-2.80399, 50.9413]}},
{"type": "Feature", "id": "MOoHNyIo66jtAqWNkKUzq10FxCo=", "properties": {"ref": "5794", "@spider": "spar_gb", "addr:street_address": "Mosterton Village shop", "addr:city": "Mosterton", "addr:postcode": "DT8 3LT", "addr:country": "GB", "name": "SPAR Orchard Way", "website": "https://www.spar.co.uk/store-locator/awl27281-spar-orchard-way/", "brand": "SPAR", "brand:wikidata": "Q610492"}, "geometry": {"type": "Point", "coordinates": [-2.77215580000006, 50.8447622]}},
{"type": "Feature", "id": "RcARdpqFp2WFGwgNg4ojrPUWIkQ=", "properties": {"ref": "5855", "@spider": "spar_gb", "addr:street_address": "39-41 Clay Lane", "addr:city": "Beaminster", "addr:postcode": "DT8 3BX", "addr:country": "GB", "name": "SPAR Beaminster", "website": "https://www.spar.co.uk/store-locator/awl28182-spar-beaminster/", "brand": "SPAR", "brand:wikidata": "Q610492"}, "geometry": {"type": "Point", "coordinates": [-2.74809, 50.81014]}},
{"type": "Feature", "id": "Psg9QnReMOu8D2quNibCDipGRdM=", "properties": {"ref": "5761", "@spider": "spar_gb", "addr:street_address": "SPAR ", "addr:city": "Sturminster Newton", "addr:postcode": "DT10 2BH", "addr:country": "GB", "name": "SPAR Red Barn", "website": "https://www.spar.co.uk/store-locator/awl26509-spar-red-barn/", "brand": "SPAR", "brand:wikidata": "Q610492"}, "geometry": {"type": "Point", "coordinates": [-2.3648, 50.88157]}},
{"type": "Feature", "id": "nOSmYi42JUHY5iWvzCuEFDMLj7A=", "properties": {"ref": "5912", "@spider": "spar_gb", "addr:street_address": "SPAR Maiden Newton", "addr:city": "Maiden Newton", "addr:postcode": "DT2 0BA", "addr:country": "GB", "name": "SPAR Maiden Newton", "website": "https://www.spar.co.uk/store-locator/awl40155-spar-maiden-newton/", "brand": "SPAR", "brand:wikidata": "Q610492"}, "geometry": {"type": "Point", "coordinates": [-2.56976, 50.7763]}},
{"type": "Feature", "id": "OOkLK6OBVTKOPXJ8zDYPsjNdS7Y=", "properties": {"ref": "5629", "@spider": "spar_gb", "addr:street_address": "59 Station Road", "addr:city": "Ilminster", "addr:postcode": "TA19 9BG", "addr:country": "GB", "name": "SPAR Ilminster", "website": "https://www.spar.co.uk/store-locator/awl14019-spar-ilminster/", "brand": "SPAR", "brand:wikidata": "Q610492"}, "geometry": {"type": "Point", "coordinates": [-2.92264, 50.92974]}},
{"type": "Feature", "id": "gazTmMXNfKG4UTBVMuD5lewO_gI=", "properties": {"ref": "5833", "@spider": "spar_gb", "addr:street_address": "Southfields Roundabout", "addr:city": "Illminster", "addr:postcode": "TA19 9FF", "addr:country": "GB", "name": "SPAR Euro Garage Illminster", "website": "https://www.spar.co.uk/store-locator/awl27903-spar-euro-garage-illminster/", "brand": "SPAR", "brand:wikidata": "Q610492"}, "geometry": {"type": "Point", "coordinates": [-2.9368376, 50.9334652]}},
{"type": "Feature", "id": "n82PU-tLOhXaM-YAmtPSU3DwwJM=", "properties": {"ref": "4756", "@spider": "spar_gb", "addr:street_address": "19 - 21", "addr:city": "Wells", "addr:postcode": "BA5 2DZ", "addr:country": "GB", "name": "SPAR Wells", "website": "https://www.spar.co.uk/store-locator/afb13560-spar-wells/", "brand": "SPAR", "brand:wikidata": "Q610492"}, "geometry": {"type": "Point", "coordinates": [-2.65322007901516, 51.2075569323193]}},
{"type": "Feature", "id": "hk-hjGhIo0Jmamb6z2ZY_PK89dM=", "properties": {"ref": "5728", "@spider": "spar_gb", "addr:street_address": "SPAR", "addr:city": "Wells", "addr:postcode": "BA5 2PT", "addr:country": "GB", "name": "SPAR Euro Garage Wells", "website": "https://www.spar.co.uk/store-locator/awl26016-spar-euro-garage-wells/", "brand": "SPAR", "brand:wikidata": "Q610492"}, "geometry": {"type": "Point", "coordinates": [-2.65198, 51.20872]}},
{"type": "Feature", "id": "KZvjZ4C-rsAYFEwqmydQgYW5Oxk=", "properties": {"ref": "5676", "@spider": "spar_gb", "addr:street_address": "Brent Knoll Garage", "addr:city": "Brent Knoll", "addr:postcode": "TA9 4HH", "addr:country": "GB", "name": "SPAR Brent Knoll Garage", "website": "https://www.spar.co.uk/store-locator/awl22749-spar-brent-knoll-garage/", "brand": "SPAR", "brand:wikidata": "Q610492"}, "geometry": {"type": "Point", "coordinates": [-2.9454, 51.24398]}},
{"type": "Feature", "id": "tJQFhdkbW7tuxhzBcZODE7-Rm38=", "properties": {"ref": "5709", "@spider": "spar_gb", "addr:street_address": "Buncombes Garage", "addr:city": "Highbridge", "addr:postcode": "TA9 3DE", "addr:country": "GB", "name": "SPAR Highbridge", "website": "https://www.spar.co.uk/store-locator/awl24800-spar-highbridge/", "brand": "SPAR", "brand:wikidata": "Q610492"}, "geometry": {"type": "Point", "coordinates": [-2.97905, 51.21829]}},
{"type": "Feature", "id": "GVEzNNMQRd1CTq6LAsvQ25ocvRI=", "properties": {"ref": "5764", "@spider": "spar_gb", "addr:street_address": "Sedgemoor Services", "addr:city": "Axbridge", "addr:postcode": "BS26 2UF", "addr:country": "GB", "name": "SPAR Roadchef Sedgemoor Services", "website": "https://www.spar.co.uk/store-locator/awl26573-spar-roadchef-sedgemoor-services/", "brand": "SPAR", "brand:wikidata": "Q610492"}, "geometry": {"type": "Point", "coordinates": [-2.91919, 51.26928]}},
{"type": "Feature", "id": "MUceEUVFcxVDWVLfuUaVrxZt25I=", "properties": {"ref": "5793", "@spider": "spar_gb", "addr:street_address": "7 Ashley Close", "addr:city": "Winscombe", "addr:postcode": "BS25 1DB", "addr:country": "GB", "name": "SPAR Winscombe", "website": "https://www.spar.co.uk/store-locator/awl27275-spar-winscombe/", "brand": "SPAR", "brand:wikidata": "Q610492"}, "geometry": {"type": "Point", "coordinates": [-2.8321, 51.31321]}},
{"type": "Feature", "id": "wK2vhJRXTlySPrORF4GfLEhDpb4=", "properties": {"ref": "5697", "@spider": "spar_gb", "addr:street_address": "SPAR", "addr:city": "Cannington", "addr:postcode": "TA5 2HE", "addr:country": "GB", "name": "SPAR Cannington", "website": "https://www.spar.co.uk/store-locator/awl24194-spar-cannington/", "brand": "SPAR", "brand:wikidata": "Q610492"}, "geometry": {"type": "Point", "coordinates": [-3.06502, 51.15112]}},
{"type": "Feature", "id": "1I1sO_kkb0JQMjkJYcTdJ3H5eNk=", "properties": {"ref": "5897", "@spider": "spar_gb", "addr:street_address": "Wick Road", "addr:city": "Bishop Sutton", "addr:postcode": "BS39 5XQ", "addr:country": "GB", "name": "SPAR Wick Road", "website": "https://www.spar.co.uk/store-locator/awl40065-spar-wick-road/", "brand": "SPAR", "brand:wikidata": "Q610492"}, "geometry": {"type": "Point", "coordinates": [-2.5999966, 51.3313273]}},
{"type": "Feature", "id": "G-7Ce6f9Lw_p05YVi2wgMLyg9SQ=", "properties": {"ref": "5668", "@spider": "spar_gb", "addr:street_address": "SPAR", "addr:city": "Winford", "addr:postcode": "BS40 8HJ", "addr:country": "GB", "name": "SPAR Winford", "website": "https://www.spar.co.uk/store-locator/awl22046-spar-winford/", "brand": "SPAR", "brand:wikidata": "Q610492"}, "geometry": {"type": "Point", "coordinates": [-2.63618, 51.36964]}},
{"type": "Feature", "id": "JzHj6p82X8a9rlvlrgz2KIIWlr4=", "properties": {"ref": "5830", "@spider": "spar_gb", "addr:street_address": "The Cross Stores", "addr:city": "Child Okeford", "addr:postcode": "DT11 8ED", "addr:country": "GB", "name": "SPAR Child Okeford", "website": "https://www.spar.co.uk/store-locator/awl27876-spar-child-okeford/", "brand": "SPAR", "brand:wikidata": "Q610492"}, "geometry": {"type": "Point", "coordinates": [-2.2367396, 50.913859]}},
{"type": "Feature", "id": "wFlIhEco1XCEdM8mYIpW9d9nOEM=", "properties": {"ref": "5733", "@spider": "spar_gb", "addr:street_address": "Ivy Cross", "addr:city": "Shaftesbury ", "addr:postcode": "SP7 8DS", "addr:country": "GB", "name": "SPAR Euro Garage Ivy Cross", "website": "https://www.spar.co.uk/store-locator/awl26068-spar-euro-garage-ivy-cross/", "brand": "SPAR", "brand:wikidata": "Q610492"}, "geometry": {"type": "Point", "coordinates": [-2.19277, 51.01058]}},
{"type": "Feature", "id": "K4WGjL2uHnaxHn4wZ6urehjw5Tk=", "properties": {"ref": "6383", "@spider": "spar_gb", "addr:street_address": "71 - 95 Whalley Range ", "addr:postcode": "BB1 6EE", "addr:country": "GB", "name": "SPAR Whalley Range KQF", "website": "https://www.spar.co.uk/store-locator/hal29858-spar-whalley-range-kqf/", "brand": "SPAR", "brand:wikidata": "Q610492"}, "geometry": {"type": "Point", "coordinates": [-2.47727204092571, 53.7558695180629]}},
{"type": "Feature", "id": "2JCMSpUQNvZs2aer-r2RPiwcnlg=", "properties": {"ref": "14591", "@spider": "spar_gb", "addr:street_address": "Unit 3", "addr:postcode": "BB2 2ES", "addr:country": "GB", "name": "EURO Grocers", "website": "https://www.spar.co.uk/store-locator/hal23461-euro-grocers/", "brand": "SPAR", "brand:wikidata": "Q610492"}, "geometry": {"type": "Point", "coordinates": [-2.4897246, 53.7441869]}},
{"type": "Feature", "id": "O4QFwlkidYwN3aVF8NWrAJiQigQ=", "properties": {"ref": "6046", "@spider": "spar_gb", "addr:street_address": "223 Shadsworth Road", "addr:postcode": "BB1 2HR", "addr:country": "GB", "name": "SPAR Store", "website": "https://www.spar.co.uk/store-locator/hal22380-spar-store/", "brand": "SPAR", "brand:wikidata": "Q610492"}, "geometry": {"type": "Point", "coordinates": [-2.45253869999999, 53.7389082]}},
{"type": "Feature", "id": "fCmqOxlrgCY2fjTzeztchekl4sc=", "properties": {"ref": "6150", "@spider": "spar_gb", "addr:street_address": "Whalley Banks", "addr:city": "Blackburn", "addr:postcode": "BB2 1NT", "addr:country": "GB", "name": "SPAR Whalley Banks", "website": "https://www.spar.co.uk/store-locator/hal25684-spar-whalley-banks/", "brand": "SPAR", "brand:wikidata": "Q610492"}, "geometry": {"type": "Point", "coordinates": [-2.49194604146084, 53.7435593470743]}},
{"type": "Feature", "id": "HGMVyP66avo9JPTkeELekxlRGfs=", "properties": {"ref": "5959", "@spider": "spar_gb", "addr:street_address": "1A", "addr:city": "Blackburn", "addr:postcode": "BB6 8EL", "addr:country": "GB", "name": "SPAR Portland Road", "website": "https://www.spar.co.uk/store-locator/hal12486-spar-portland-road/", "brand": "SPAR", "brand:wikidata": "Q610492"}, "geometry": {"type": "Point", "coordinates": [-2.4517938291972, 53.7998210962031]}},
{"type": "Feature", "id": "srHwVyZOLF_qZ5Vyfk9dVCbbm-k=", "properties": {"ref": "6174", "@spider": "spar_gb", "addr:street_address": "Beehive Service Station", "addr:city": "Blackburn", "addr:postcode": "BB1 2PX", "addr:country": "GB", "name": "SPAR Beehive", "website": "https://www.spar.co.uk/store-locator/hal26334-spar-beehive/", "brand": "SPAR", "brand:wikidata": "Q610492"}, "geometry": {"type": "Point", "coordinates": [-2.45066065371636, 53.7309586328001]}},
{"type": "Feature", "id": "jOl1Lzx1cSVZh6qKDBpMBZxQjEU=", "properties": {"ref": "5954", "@spider": "spar_gb", "addr:street_address": "97-103", "addr:city": "Accrington", "addr:postcode": "BB5 4QG", "addr:country": "GB", "name": "SPAR Oswaldtwistle", "website": "https://www.spar.co.uk/store-locator/hal12139-spar-oswaldtwistle/", "brand": "SPAR", "brand:wikidata": "Q610492"}, "geometry": {"type": "Point", "coordinates": [-2.40638592121036, 53.7452014164785]}},
{"type": "Feature", "id": "SD8LME7EuwgWqZj8lpN99IgUaOk=", "properties": {"ref": "5950", "@spider": "spar_gb", "addr:street_address": "New Chapel Street", "addr:city": "Blackburn", "addr:postcode": "BB2 4DT", "addr:country": "GB", "name": "SPAR Bridge Chapel Street", "website": "https://www.spar.co.uk/store-locator/hal11710-spar-bridge-chapel-street/", "brand": "SPAR", "brand:wikidata": "Q610492"}, "geometry": {"type": "Point", "coordinates": [-2.50284062481245, 53.7340765570154]}},
{"type": "Feature", "id": "Jy0MxoVaJKxHgxyS2fnTtOK12jc=", "properties": {"ref": "6379", "@spider": "spar_gb", "addr:street_address": "Longsight Road", "addr:postcode": "BB2 7HZ", "addr:country": "GB", "name": "SPAR Pennine Service Station", "website": "https://www.spar.co.uk/store-locator/hal29785-spar-pennine-service-station/", "brand": "SPAR", "brand:wikidata": "Q610492"}, "geometry": {"type": "Point", "coordinates": [-2.53838132886081, 53.7797615856539]}},
{"type": "Feature", "id": "vsd3dh9IF_ieIgtNDi9b22eCV5w=", "properties": {"ref": "6078", "@spider": "spar_gb", "addr:street_address": "Windmill Petrol Station", "addr:city": "Blackburn", "addr:postcode": "BB2 7PU", "addr:country": "GB", "name": "SPAR Windmill Petrol Station", "website": "https://www.spar.co.uk/store-locator/hal23825-spar-windmill-petrol-station/", "brand": "SPAR", "brand:wikidata": "Q610492"}, "geometry": {"type": "Point", "coordinates": [-2.55495831134973, 53.7698260083408]}},
{"type": "Feature", "id": "wi1kJZMpCHpZLGeVFJxCret1YZA=", "properties": {"ref": "14065", "@spider": "spar_gb", "addr:street_address": "SPAR", "addr:city": "Bristol", "addr:postcode": "BS40 5QA", "addr:country": "GB", "name": "SPAR Wrington", "website": "https://www.spar.co.uk/store-locator/awl40185-spar-wrington/", "brand": "SPAR", "brand:wikidata": "Q610492"}, "geometry": {"type": "Point", "coordinates": [-2.762886, 51.3630648]}},
{"type": "Feature", "id": "QZz3WSBdgEh8ek0gIj08avQN5bQ=", "properties": {"ref": "6114", "@spider": "spar_gb", "addr:street_address": "Colne Road", "addr:city": "Barnoldswick", "addr:postcode": "BB18 6TG", "addr:country": "GB", "name": "SPAR Colne Road", "website": "https://www.spar.co.uk/store-locator/hal24951-spar-colne-road/", "brand": "SPAR", "brand:wikidata": "Q610492"}, "geometry": {"type": "Point", "coordinates": [-2.1515, 53.897378]}},
{"type": "Feature", "id": "2HOladIEmqCqabvjjpo-1uVGl2U=", "properties": {"ref": "6116", "@spider": "spar_gb", "addr:street_address": "Kelbrook Road Service Station", "addr:city": "Barnoldswick", "addr:postcode": "BB18 5BX", "addr:country": "GB", "name": "SPAR Kelbrook Road", "website": "https://www.spar.co.uk/store-locator/hal24976-spar-kelbrook-road/", "brand": "SPAR", "brand:wikidata": "Q610492"}, "geometry": {"type": "Point", "coordinates": [-2.18220146358374, 53.9124692985659]}},
{"type": "Feature", "id": "6JXhKmxA-fZ4_m_Wp2Uv9-_4tfI=", "properties": {"ref": "6185", "@spider": "spar_gb", "addr:street_address": "Strand Garage", "addr:city": "Barnoldswick", "addr:postcode": "BB18 5EG", "addr:country": "GB", "name": "SPAR Strand", "website": "https://www.spar.co.uk/store-locator/hal26702-spar-strand/", "brand": "SPAR", "brand:wikidata": "Q610492"}, "geometry": {"type": "Point", "coordinates": [-2.18687575730301, 53.9194456196726]}},
{"type": "Feature", "id": "7rVcPzUT8rZEilMLuDyObfeu8tQ=", "properties": {"ref": "6103", "@spider": "spar_gb", "addr:street_address": "Colne Service Station", "addr:city": "Colne", "addr:postcode": "BB8 8LF", "addr:country": "GB", "name": "SPAR Euro Garage Colne", "website": "https://www.spar.co.uk/store-locator/hal24612-spar-euro-garage-colne/", "brand": "SPAR", "brand:wikidata": "Q610492"}, "geometry": {"type": "Point", "coordinates": [-2.19626175310206, 53.8463055359405]}},