{"type":"FeatureCollection","features":[{"type": "Feature", "id": "hMPXbFK1MiKvNTh-rQKQiZnGe3A=", "properties": {"ref": "300001", "@spider": "two_men_and_truck", "addr:full": "2260A Industrial St.", "addr:city": "Burlington", "addr:state": "ON", "addr:postcode": "L7P 1A1", "addr:country": "CA", "name": "Hamilton & Halton", "phone": "905.981.5000", "website": "https://twomenandatruck.ca/movers/on/hamilton-halton", "brand": "Two Men and a Truck", "brand:wikidata": "Q7859087"}, "geometry": {"type": "Point", "coordinates": [-79.813828, 43.34795]}},
{"type": "Feature", "id": "Q6nZwkCAVRE6LAe_-v7oBLcZp5s=", "properties": {"ref": "300002", "@spider": "two_men_and_truck", "addr:full": "44 Belleisle Ct", "addr:city": "London", "addr:state": "ON", "addr:postcode": "N5V 4L2", "addr:country": "CA", "name": "London", "phone": "519.963.3138", "website": "https://twomenandatruck.ca/movers/on/london", "brand": "Two Men and a Truck", "brand:wikidata": "Q7859087"}, "geometry": {"type": "Point", "coordinates": [-81.14616, 43.00321]}},
{"type": "Feature", "id": "_xDcgWl_HtvVWPxLG5Szk9Gtmzw=", "properties": {"ref": "300003", "@spider": "two_men_and_truck", "addr:full": "5285 Creekbank Rd", "addr:city": "Mississauga", "addr:state": "ON", "addr:postcode": "L4W 1N3", "addr:country": "CA", "name": "Mississauga", "phone": "905.855.0002", "website": "https://twomenandatruck.ca/movers/on/mississauga", "brand": "Two Men and a Truck", "brand:wikidata": "Q7859087"}, "geometry": {"type": "Point", "coordinates": [-79.620437, 43.64899]}},
{"type": "Feature", "id": "1rRfd3jiQtE__7492ujiKy0iKGg=", "properties": {"ref": "300005", "@spider": "two_men_and_truck", "addr:full": "730 Wilson Rd S", "addr:city": "Oshawa", "addr:state": "ON", "addr:postcode": "L1H 6E8", "addr:country": "CA", "name": "Oshawa", "phone": "905.674.6103", "website": "https://twomenandatruck.ca/movers/on/oshawa", "brand": "Two Men and a Truck", "brand:wikidata": "Q7859087"}, "geometry": {"type": "Point", "coordinates": [-78.834895, 43.880244]}},
{"type": "Feature", "id": "gZA8JKli0fAgxSJOMkbJueAymkI=", "properties": {"ref": "300026", "@spider": "two_men_and_truck", "addr:full": "347 Pido Rd", "addr:city": "Peterborough", "addr:state": "ON", "addr:postcode": "K9J6X7", "addr:country": "CA", "name": "Peterborough", "phone": "705.201.5208", "website": "https://twomenandatruck.ca/movers/on/peterborough", "brand": "Two Men and a Truck", "brand:wikidata": "Q7859087"}, "geometry": {"type": "Point", "coordinates": [-78.293106, 44.274388]}},
{"type": "Feature", "id": "9fm4Hlyf0FiObM3O80MFmfjRh6o=", "properties": {"ref": "300031", "@spider": "two_men_and_truck", "addr:full": "133 The West Mall", "addr:city": "Etobicoke", "addr:state": "ON", "addr:postcode": "M9C 1C2", "addr:country": "CA", "name": "Etobicoke", "phone": "416.503.2636", "website": "https://twomenandatruck.ca/movers/on/etobicoke", "brand": "Two Men and a Truck", "brand:wikidata": "Q7859087"}, "geometry": {"type": "Point", "coordinates": [-79.562094, 43.619904]}},
{"type": "Feature", "id": "R7lCZSg-M665N88EBUiMciQQ2nE=", "properties": {"ref": "300007", "@spider": "two_men_and_truck", "addr:full": "954 Dillingham Rd", "addr:city": "Pickering", "addr:state": "ON", "addr:postcode": "L1W 1Z6", "addr:country": "CA", "name": "Toronto East", "phone": "416-642-7655", "website": "https://twomenandatruck.ca/movers/on/east-toronto-scarborough-markham-pickering", "brand": "Two Men and a Truck", "brand:wikidata": "Q7859087"}, "geometry": {"type": "Point", "coordinates": [-79.069896, 43.829105]}},
{"type": "Feature", "id": "vGabSML7A_skWaYWsCkRcUB5rFg=", "properties": {"ref": "300008", "@spider": "two_men_and_truck", "addr:full": "153 Bridgeland Ave", "addr:city": "Toronto", "addr:state": "ON", "addr:postcode": "M6A 2Y6", "addr:country": "CA", "name": "Midtown & Downtown Toronto", "phone": "416.854.7116", "website": "https://twomenandatruck.ca/movers/on/midtown-downtown-toronto", "brand": "Two Men and a Truck", "brand:wikidata": "Q7859087"}, "geometry": {"type": "Point", "coordinates": [-79.463944, 43.724467]}},
{"type": "Feature", "id": "v_1OEtXe0AWWgAWdB_AqCSGuUMo=", "properties": {"ref": "300010", "@spider": "two_men_and_truck", "addr:full": "68 Eastern Ave", "addr:city": "Brampton", "addr:state": "ON", "addr:postcode": "L6W 1X8", "addr:country": "CA", "name": "Brampton", "phone": "905.799.2636", "website": "https://twomenandatruck.ca/movers/on/brampton", "brand": "Two Men and a Truck", "brand:wikidata": "Q7859087"}, "geometry": {"type": "Point", "coordinates": [-79.74607, 43.69571]}},
{"type": "Feature", "id": "u_MACSsjUmwjE4ZSszzHvrjFsmw=", "properties": {"ref": "300110", "@spider": "two_men_and_truck", "addr:full": "Dispatch Location Only", "addr:city": "Orangeville", "addr:state": "ON", "addr:postcode": "L9W 0B3", "addr:country": "CA", "name": "Orangeville", "phone": "905.799.2636", "website": "https://twomenandatruck.ca/movers/on/orangeville", "brand": "Two Men and a Truck", "brand:wikidata": "Q7859087"}, "geometry": {"type": "Point", "coordinates": [-80.113927, 43.904618]}},
{"type": "Feature", "id": "biLHMuXUC7M870pnqX7v9ADHz9Q=", "properties": {"ref": "300011", "@spider": "two_men_and_truck", "addr:full": "110 Saunders Rd", "addr:city": "Barrie", "addr:state": "ON", "addr:postcode": "L4N 9A8", "addr:country": "CA", "name": "Barrie & Central Ontario", "phone": "705.720.2636", "website": "https://twomenandatruck.ca/movers/on/barrie-central-ontario", "brand": "Two Men and a Truck", "brand:wikidata": "Q7859087"}, "geometry": {"type": "Point", "coordinates": [-79.682953, 44.332476]}},
{"type": "Feature", "id": "CiCONM1X3t_N3kmzK1woEJIligU=", "properties": {"ref": "300012", "@spider": "two_men_and_truck", "addr:full": "17665 Leslie St", "addr:city": "Newmarket", "addr:state": "ON", "addr:postcode": "L3Y 3E3", "addr:country": "CA", "name": "Newmarket & Aurora", "phone": "905.952.2229", "website": "https://twomenandatruck.ca/movers/on/newmarket-aurora", "brand": "Two Men and a Truck", "brand:wikidata": "Q7859087"}, "geometry": {"type": "Point", "coordinates": [-79.431787, 44.070335]}},
{"type": "Feature", "id": "UAaxJafffqtn8fZtlkbzYNOmH2Q=", "properties": {"ref": "300014", "@spider": "two_men_and_truck", "addr:full": "2487 Kaladar Ave", "addr:city": "Ottawa", "addr:state": "ON", "addr:postcode": "K1V 8B9", "addr:country": "CA", "name": "Ottawa", "phone": "613.723.2636", "website": "https://twomenandatruck.ca/movers/on/ottawa", "brand": "Two Men and a Truck", "brand:wikidata": "Q7859087"}, "geometry": {"type": "Point", "coordinates": [-75.669034, 45.374908]}},
{"type": "Feature", "id": "5RnYJRhqUjA73DCds82rHHuYcag=", "properties": {"ref": "300015", "@spider": "two_men_and_truck", "addr:full": "5285 Creekbank Rd", "addr:city": "Mississauga", "addr:state": "ON", "addr:postcode": "L4W 1N3", "addr:country": "CA", "name": "Woodbridge & Vaughan", "phone": "289.536.2636", "website": "https://twomenandatruck.ca/movers/on/woodbridge-vaughan", "brand": "Two Men and a Truck", "brand:wikidata": "Q7859087"}, "geometry": {"type": "Point", "coordinates": [-79.620437, 43.64899]}},
{"type": "Feature", "id": "m4LGVPsJllZS-bbIXUe5SF9BwXs=", "properties": {"ref": "300016", "@spider": "two_men_and_truck", "addr:full": "245 Yorkland Blvd", "addr:city": "Toronto", "addr:state": "ON", "addr:postcode": "M2J 4W9", "addr:country": "CA", "name": "Richmond Hill & Thornhill", "phone": " \u200b416-642-7669", "website": "https://twomenandatruck.ca/movers/on/richmond-hill-thornhill", "brand": "Two Men and a Truck", "brand:wikidata": "Q7859087"}, "geometry": {"type": "Point", "coordinates": [-79.336967, 43.772613]}},
{"type": "Feature", "id": "DYeZZI6elaYekxxWZB4zxZt8RDY=", "properties": {"ref": "300019", "@spider": "two_men_and_truck", "addr:full": "161 Bartley Dr", "addr:city": "Toronto", "addr:state": "ON", "addr:postcode": "M4A1E6", "addr:country": "CA", "name": "Toronto Beaches", "phone": "416.854.7116", "website": "https://twomenandatruck.ca/movers/on/toronto-beaches", "brand": "Two Men and a Truck", "brand:wikidata": "Q7859087"}, "geometry": {"type": "Point", "coordinates": [-79.309703, 43.721111]}},
{"type": "Feature", "id": "FlwQ9iIoSEjfuPdB45iXNtrCJ08=", "properties": {"ref": "300020", "@spider": "two_men_and_truck", "addr:full": "225 Sheldon Dr", "addr:city": "Cambridge", "addr:state": "ON", "addr:postcode": "N1T 1A1", "addr:country": "CA", "name": "Kitchener, Cambridge, Waterloo", "phone": "519.620.7870", "website": "https://twomenandatruck.ca/movers/on/kitchener-cambridge-waterloo", "brand": "Two Men and a Truck", "brand:wikidata": "Q7859087"}, "geometry": {"type": "Point", "coordinates": [-80.304973, 43.406124]}},
{"type": "Feature", "id": "T4EvLpqAi7Xih7PKGJ20M1R0_Qc=", "properties": {"ref": "300021", "@spider": "two_men_and_truck", "addr:full": "5 Neilson Ave", "addr:city": "St.Catharines", "addr:state": "ON", "addr:postcode": "L2M 5V9", "addr:country": "CA", "name": "St. Catharines and Niagara", "phone": "905.641.2636", "website": "https://twomenandatruck.ca/movers/on/stcatharines-niagara", "brand": "Two Men and a Truck", "brand:wikidata": "Q7859087"}, "geometry": {"type": "Point", "coordinates": [-79.215206, 43.170833]}},
{"type": "Feature", "id": "3TIhO7dH8ItYH_y_M0E_jnOCfr0=", "properties": {"ref": "300023", "@spider": "two_men_and_truck", "addr:full": "210 Joseph Zatzman Dr", "addr:city": "Dartmouth", "addr:state": "NS", "addr:postcode": "B3B 1P4", "addr:country": "CA", "name": "Halifax & Mainland Nova Scotia", "phone": "902.444.2636", "website": "https://twomenandatruck.ca/movers/ns/halifax", "brand": "Two Men and a Truck", "brand:wikidata": "Q7859087"}, "geometry": {"type": "Point", "coordinates": [-63.601604, 44.714711]}},
{"type": "Feature", "id": "9Am8PqS-IyR6SZ4bBusUuqTtpkM=", "properties": {"ref": "300027", "@spider": "two_men_and_truck", "addr:full": "2010 30 Ave NE", "addr:city": "Calgary", "addr:state": "AB", "addr:postcode": "T2E 7K9", "addr:country": "CA", "name": "Calgary", "phone": "\u200b587-579-2636", "website": "https://twomenandatruck.ca/movers/ab/calgary", "brand": "Two Men and a Truck", "brand:wikidata": "Q7859087"}, "geometry": {"type": "Point", "coordinates": [-114.010642, 51.080305]}},
{"type": "Feature", "id": "sAhEftc9l_aCOC5uxABtZyJszWs=", "properties": {"ref": "300028", "@spider": "two_men_and_truck", "addr:full": "6710 78th Ave NW", "addr:city": "Edmonton", "addr:state": "AB", "addr:postcode": "T6B 2J5", "addr:country": "CA", "name": "Edmonton ", "phone": "\u200b780-391-7000", "website": "https://twomenandatruck.ca/movers/ab/edmonton", "brand": "Two Men and a Truck", "brand:wikidata": "Q7859087"}, "geometry": {"type": "Point", "coordinates": [-113.429573, 53.514786]}},
{"type": "Feature", "id": "hKcuqk4iPVaklP_6Q_Eaue6DHv8=", "properties": {"ref": "300030", "@spider": "two_men_and_truck", "addr:full": "96 Durand Rd", "addr:city": "Winnipeg", "addr:state": "MB", "addr:postcode": "R2J 3T2", "addr:country": "CA", "name": "Winnipeg", "phone": "204-918-7707", "website": "https://twomenandatruck.ca/movers/mb/winnipeg", "brand": "Two Men and a Truck", "brand:wikidata": "Q7859087"}, "geometry": {"type": "Point", "coordinates": [-97.03998, 49.883144]}},
{"type": "Feature", "id": "hAjtc_gU_8DMFRrKACgqPAsmhAg=", "properties": {"ref": "300032", "@spider": "two_men_and_truck", "addr:full": "701 Cynthia St", "addr:city": "Saskatoon", "addr:state": "SK", "addr:postcode": "S7L 6B7", "addr:country": "CA", "name": "Saskatoon", "phone": "306.954.9000", "website": "https://twomenandatruck.ca/movers/sk/saskatoon", "brand": "Two Men and a Truck", "brand:wikidata": "Q7859087"}, "geometry": {"type": "Point", "coordinates": [-106.675666, 52.158537]}},
{"type": "Feature", "id": "EnjW3ucoxyIeVvdXvyx1fDlqf2A=", "properties": {"ref": "300033", "@spider": "two_men_and_truck", "addr:full": "2825 Lauzon Parkway, #202", "addr:city": "Windsor", "addr:state": "ON", "addr:postcode": "N8T 3H5", "addr:country": "CA", "name": "Windsor & Sarnia", "phone": "519-419-5755", "website": "https://twomenandatruck.ca/movers/on/windsor-sarnia", "brand": "Two Men and a Truck", "brand:wikidata": "Q7859087"}, "geometry": {"type": "Point", "coordinates": [-82.934664, 42.305879]}},
{"type": "Feature", "id": "YLRFUTCvw9GLmNXJ0i8S_IfV9TQ=", "properties": {"ref": "300034", "@spider": "two_men_and_truck", "addr:full": "1506B Ross Ave E", "addr:city": "Regina", "addr:state": "SK", "addr:postcode": "S4N 7A3", "addr:country": "CA", "name": "Regina", "phone": "306-954-9000", "website": "https://twomenandatruck.ca/movers/sk/regina", "brand": "Two Men and a Truck", "brand:wikidata": "Q7859087"}, "geometry": {"type": "Point", "coordinates": [-104.56425216623, 50.465893669985]}},
{"type": "Feature", "id": "xH3ZhdXEJyofK3r_eRuKlJ-Xp-M=", "properties": {"ref": "300035", "@spider": "two_men_and_truck", "addr:full": "30 Reeves St.", "addr:city": "Sydney", "addr:state": "NS", "addr:postcode": "B1P 3C5", "addr:country": "CA", "name": "Cape Breton", "phone": "902-270-5227", "website": "https://twomenandatruck.ca/movers/ns/cape-breton", "brand": "Two Men and a Truck", "brand:wikidata": "Q7859087"}, "geometry": {"type": "Point", "coordinates": [-60.15859, 46.14369]}},
{"type": "Feature", "id": "l25ozkEf8dqYS6vuHfNPx-QpfDA=", "properties": {"ref": "300036", "@spider": "two_men_and_truck", "addr:full": "636 Norris Ct", "addr:city": "Kingston", "addr:state": "ON", "addr:postcode": "K7P 2R9", "addr:country": "CA", "name": "Kingston", "phone": "613-634-0600", "website": "https://twomenandatruck.ca/movers/on/kingston", "brand": "Two Men and a Truck", "brand:wikidata": "Q7859087"}, "geometry": {"type": "Point", "coordinates": [-76.567706144294, 44.263893044476]}},
{"type": "Feature", "id": "A9fb8v7jxg1BBe5y2Kk_34w7wnI=", "properties": {"ref": "100001", "@spider": "two_men_and_truck", "addr:full": "1200 Keystone Ave", "addr:city": "Lansing", "addr:state": "MI", "addr:postcode": "48911", "addr:country": "US", "name": "Lansing", "phone": "517.485.4545", "website": "https://twomenandatruck.com/movers/mi/lansing", "brand": "Two Men and a Truck", "brand:wikidata": "Q7859087"}, "geometry": {"type": "Point", "coordinates": [-84.533986, 42.673899]}},
{"type": "Feature", "id": "CqR1Zs81oP5O6GQIKjBsHSNcYmY=", "properties": {"ref": "100002", "@spider": "two_men_and_truck", "addr:full": "34113 Doreka Drive", "addr:city": "Fraser", "addr:state": "MI", "addr:postcode": "48026", "addr:country": "US", "name": "Macomb", "phone": "586.415.8115", "website": "https://twomenandatruck.com/movers/mi/sterling-heights", "brand": "Two Men and a Truck", "brand:wikidata": "Q7859087"}, "geometry": {"type": "Point", "coordinates": [-82.936815, 42.547256]}},
{"type": "Feature", "id": "_cNB1zwj0R-W42Xh9m9neFY81Bs=", "properties": {"ref": "100003", "@spider": "two_men_and_truck", "addr:full": "1420 Lloyd Road", "addr:city": "Wickliffe", "addr:state": "OH", "addr:postcode": "44092", "addr:country": "US", "name": "Cleveland", "phone": "440.943.3900", "website": "https://twomenandatruck.com/movers/oh/cleveland", "brand": "Two Men and a Truck", "brand:wikidata": "Q7859087"}, "geometry": {"type": "Point", "coordinates": [-81.477395, 41.605622]}},
{"type": "Feature", "id": "pGHLdbinFbxyIqFVOBucjRZoKRg=", "properties": {"ref": "100004", "@spider": "two_men_and_truck", "addr:full": "16120 Brookpark Rd", "addr:city": "Cleveland", "addr:state": "OH", "addr:postcode": "44135", "addr:country": "US", "name": "Brook Park", "phone": "216.267.6700", "website": "https://twomenandatruck.com/movers/oh/brook-park", "brand": "Two Men and a Truck", "brand:wikidata": "Q7859087"}, "geometry": {"type": "Point", "coordinates": [-81.810679, 41.419167]}},
{"type": "Feature", "id": "pjF_Toob0dvalViL6-ymuhixbnk=", "properties": {"ref": "100005", "@spider": "two_men_and_truck", "addr:full": "3220 Fillmore Ridge Heights", "addr:city": "Colorado Springs", "addr:state": "CO", "addr:postcode": "80907", "addr:country": "US", "name": "Colorado Springs", "phone": "719.576.6683", "website": "https://twomenandatruck.com/movers/co/colorado-springs", "brand": "Two Men and a Truck", "brand:wikidata": "Q7859087"}, "geometry": {"type": "Point", "coordinates": [-104.840295, 38.877282]}},
{"type": "Feature", "id": "UiL1gCZvH3OCLJc_mtO0v4ba69o=", "properties": {"ref": "100006", "@spider": "two_men_and_truck", "addr:full": "3221 N Elizabeth St", "addr:city": "Pueblo", "addr:state": "CO", "addr:postcode": "81008", "addr:country": "US", "name": "Pueblo", "phone": "719.543.9000", "website": "https://twomenandatruck.com/movers/co/pueblo", "brand": "Two Men and a Truck", "brand:wikidata": "Q7859087"}, "geometry": {"type": "Point", "coordinates": [-104.61561, 38.303644]}},
{"type": "Feature", "id": "odBu7KZw-FKXPJ2AfPuzhcDVO8w=", "properties": {"ref": "100007", "@spider": "two_men_and_truck", "addr:full": "N941 Craftsmen Drive", "addr:city": "Greenville", "addr:state": "WI", "addr:postcode": "54942", "addr:country": "US", "name": "Appleton", "phone": "920.757.4040", "website": "https://twomenandatruck.com/movers/wi/appleton", "brand": "Two Men and a Truck", "brand:wikidata": "Q7859087"}, "geometry": {"type": "Point", "coordinates": [-88.519785, 44.274701]}},
{"type": "Feature", "id": "55gG1kx5ow9iXZ6lB9wZAANZE4k=", "properties": {"ref": "100008", "@spider": "two_men_and_truck", "addr:full": "11431 US HWY 301 N", "addr:city": "Thonotosassa", "addr:state": "FL", "addr:postcode": "33592", "addr:country": "US", "name": "Tampa", "phone": "813.988.7388", "website": "https://twomenandatruck.com/movers/fl/tampa/thonotosassa", "brand": "Two Men and a Truck", "brand:wikidata": "Q7859087"}, "geometry": {"type": "Point", "coordinates": [-82.334001, 28.051359]}},
{"type": "Feature", "id": "hx8jYtVS2IY-N65caNA0P44omrM=", "properties": {"ref": "100009", "@spider": "two_men_and_truck", "addr:full": "1101 N Howard Ave", "addr:city": "Tampa", "addr:state": "FL", "addr:postcode": "33607", "addr:country": "US", "name": "South Tampa", "phone": "813.374.0209", "website": "https://twomenandatruck.com/movers/fl/tampa/south", "brand": "Two Men and a Truck", "brand:wikidata": "Q7859087"}, "geometry": {"type": "Point", "coordinates": [-82.482768, 27.952962]}},
{"type": "Feature", "id": "rt7dsAgyylssU5pn3a9ibquF1LA=", "properties": {"ref": "100010", "@spider": "two_men_and_truck", "addr:full": "11928 Sheldon Rd", "addr:city": "Tampa", "addr:state": "FL", "addr:postcode": "33626", "addr:country": "US", "name": "West Tampa", "phone": "813.920.6683", "website": "https://twomenandatruck.com/movers/fl/tampa/westchase", "brand": "Two Men and a Truck", "brand:wikidata": "Q7859087"}, "geometry": {"type": "Point", "coordinates": [-82.584321, 28.057619]}},
{"type": "Feature", "id": "nt4IWG6n-Mvwihs-6wea6keHcIg=", "properties": {"ref": "100011", "@spider": "two_men_and_truck", "addr:full": "3817 Kipp Street", "addr:city": "Madison", "addr:state": "WI", "addr:postcode": "53718", "addr:country": "US", "name": "Madison", "phone": "608.278.0800", "website": "https://twomenandatruck.com/movers/wi/madison", "brand": "Two Men and a Truck", "brand:wikidata": "Q7859087"}, "geometry": {"type": "Point", "coordinates": [-89.284319, 43.043591]}},
{"type": "Feature", "id": "m6KyTe3L1HHNiGQZVvgpJ-YPKIg=", "properties": {"ref": "100012", "@spider": "two_men_and_truck", "addr:full": "5083 Westerville Rd.", "addr:city": "Columbus", "addr:state": "OH", "addr:postcode": "43231", "addr:country": "US", "name": "Columbus", "phone": "614.224.6683", "website": "https://twomenandatruck.com/movers/oh/columbus", "brand": "Two Men and a Truck", "brand:wikidata": "Q7859087"}, "geometry": {"type": "Point", "coordinates": [-82.929457, 40.07604]}},
{"type": "Feature", "id": "t7_KjkzOipc2AFeOJONndvVbz_Y=", "properties": {"ref": "100013", "@spider": "two_men_and_truck", "addr:full": "2414 Advanced Business Center Dr", "addr:city": "Columbus", "addr:state": "OH", "addr:postcode": "43228", "addr:country": "US", "name": "Columbus West", "phone": "614.224.6683", "website": "https://twomenandatruck.com/movers/oh/columbus-west", "brand": "Two Men and a Truck", "brand:wikidata": "Q7859087"}, "geometry": {"type": "Point", "coordinates": [-83.135993, 40.002004]}},
{"type": "Feature", "id": "_Namt-tfTEwQUoLrGFMNFTIkBP4=", "properties": {"ref": "100014", "@spider": "two_men_and_truck", "addr:full": "126 Atlas Ct", "addr:city": "Columbia", "addr:state": "SC", "addr:postcode": "29209", "addr:country": "US", "name": "Columbia", "phone": "803.731.7775", "website": "https://twomenandatruck.com/movers/sc/columbia", "brand": "Two Men and a Truck", "brand:wikidata": "Q7859087"}, "geometry": {"type": "Point", "coordinates": [-80.95073, 33.955]}},
{"type": "Feature", "id": "NCVk7EZqAFfxlUTq8cBJPG0NMoQ=", "properties": {"ref": "100015", "@spider": "two_men_and_truck", "addr:full": "105 Garfield Ave.", "addr:city": "Bay City", "addr:state": "MI", "addr:postcode": "48708", "addr:country": "US", "name": "Bay City", "phone": "989.895.5252", "website": "https://twomenandatruck.com/movers/mi/bay-city", "brand": "Two Men and a Truck", "brand:wikidata": "Q7859087"}, "geometry": {"type": "Point", "coordinates": [-83.890228, 43.58916]}},
{"type": "Feature", "id": "g8RZ1Zoj_CwKcGG95_9zcx9uhF8=", "properties": {"ref": "100016", "@spider": "two_men_and_truck", "addr:full": "10966 Gravois Industrial Court", "addr:city": "St. Louis", "addr:state": "MO", "addr:postcode": "63128", "addr:country": "US", "name": "St. Louis", "phone": "314.963.7766", "website": "https://twomenandatruck.com/movers/mo/st-louis", "brand": "Two Men and a Truck", "brand:wikidata": "Q7859087"}, "geometry": {"type": "Point", "coordinates": [-90.411341, 38.512361]}},
{"type": "Feature", "id": "UO8MxpdJuoV3bLDUa3ZGTNsLNrA=", "properties": {"ref": "100017", "@spider": "two_men_and_truck", "addr:full": "2081 Exchange Dr", "addr:city": "St Charles", "addr:state": "MO", "addr:postcode": "63303", "addr:country": "US", "name": "St. Charles", "phone": "314.963.7766", "website": "https://twomenandatruck.com/movers/mo/st-charles", "brand": "Two Men and a Truck", "brand:wikidata": "Q7859087"}, "geometry": {"type": "Point", "coordinates": [-90.53203, 38.7569]}},
{"type": "Feature", "id": "JUec33wzHoUcS0-fAvsaEysIaMI=", "properties": {"ref": "100018", "@spider": "two_men_and_truck", "addr:full": "2704 Patterson St", "addr:city": "Greensboro", "addr:state": "NC", "addr:postcode": "27407", "addr:country": "US", "name": "Greensboro", "phone": "336.297.1500", "website": "https://twomenandatruck.com/movers/nc/greensboro", "brand": "Two Men and a Truck", "brand:wikidata": "Q7859087"}, "geometry": {"type": "Point", "coordinates": [-79.83567, 36.058971]}},
{"type": "Feature", "id": "oOEqIbVUnolrRZBJuo4lG1c7r-U=", "properties": {"ref": "100019", "@spider": "two_men_and_truck", "addr:full": "4512 S 68th", "addr:city": "Omaha", "addr:state": "NE", "addr:postcode": "68117", "addr:country": "US", "name": "Omaha", "phone": "402.597.6683", "website": "https://twomenandatruck.com/movers/ne/omaha", "brand": "Two Men and a Truck", "brand:wikidata": "Q7859087"}, "geometry": {"type": "Point", "coordinates": [-96.018216, 41.214368]}},
{"type": "Feature", "id": "L0iEd7vO_UGtaQ8eAymqN5Uzwbo=", "properties": {"ref": "100020", "@spider": "two_men_and_truck", "addr:full": "4801 Alabama Avenue", "addr:city": "Nashville", "addr:state": "TN", "addr:postcode": "37209", "addr:country": "US", "name": "Nashville", "phone": "615.248.6288", "website": "https://twomenandatruck.com/movers/tn/nashville", "brand": "Two Men and a Truck", "brand:wikidata": "Q7859087"}, "geometry": {"type": "Point", "coordinates": [-86.845017, 36.152996]}},
{"type": "Feature", "id": "wHOd1W-6Pvt35It9UDPxwnL-eK4=", "properties": {"ref": "100022", "@spider": "two_men_and_truck", "addr:full": "1511 E Market Street", "addr:city": "Akron", "addr:state": "OH", "addr:postcode": "44305", "addr:country": "US", "name": "Akron", "phone": "330.794.6683", "website": "https://twomenandatruck.com/movers/oh/akron", "brand": "Two Men and a Truck", "brand:wikidata": "Q7859087"}, "geometry": {"type": "Point", "coordinates": [-81.473834, 41.063336]}},
{"type": "Feature", "id": "H7JsDxZeD0HnxxsTwTr7chMCsHs=", "properties": {"ref": "100023", "@spider": "two_men_and_truck", "addr:full": "9301 E 47th St", "addr:city": "Kansas City", "addr:state": "MO", "addr:postcode": "64133", "addr:country": "US", "name": "Kansas City", "phone": "\u200b816.393.0441", "website": "https://twomenandatruck.com/movers/mo/kansas-city", "brand": "Two Men and a Truck", "brand:wikidata": "Q7859087"}, "geometry": {"type": "Point", "coordinates": [-94.472432, 39.035077]}},
{"type": "Feature", "id": "cMq-1GvoW6hyB32foCA2DygcqPw=", "properties": {"ref": "100024", "@spider": "two_men_and_truck", "addr:full": "2601 104th St #400", "addr:city": "Urbandale", "addr:state": "IA", "addr:postcode": "50322", "addr:country": "US", "name": "Des Moines", "phone": "515.276.7170", "website": "https://twomenandatruck.com/movers/ia/des-moines", "brand": "Two Men and a Truck", "brand:wikidata": "Q7859087"}, "geometry": {"type": "Point", "coordinates": [-93.76056, 41.61895]}},
{"type": "Feature", "id": "HCSTH3G0XlqAoX65eMVx9hMo2h4=", "properties": {"ref": "100025", "@spider": "two_men_and_truck", "addr:full": "8215 Stephanie Drive", "addr:city": "Huntsville", "addr:state": "AL", "addr:postcode": "35802", "addr:country": "US", "name": "Huntsville ", "phone": "256.885.2515", "website": "https://twomenandatruck.com/movers/al/huntsville", "brand": "Two Men and a Truck", "brand:wikidata": "Q7859087"}, "geometry": {"type": "Point", "coordinates": [-86.56756, 34.656576]}},
{"type": "Feature", "id": "_D5eMCQWYpr56sp8WL0pMAqfufM=", "properties": {"ref": "100026", "@spider": "two_men_and_truck", "addr:full": "9450 Philips Hwy", "addr:city": "Jacksonville", "addr:state": "FL", "addr:postcode": "32256", "addr:country": "US", "name": "Jacksonville", "phone": "904.745.0705", "website": "https://twomenandatruck.com/movers/fl/jacksonville", "brand": "Two Men and a Truck", "brand:wikidata": "Q7859087"}, "geometry": {"type": "Point", "coordinates": [-81.568148, 30.193687]}},
{"type": "Feature", "id": "RO8JvBnvFewmNh9sUGK-8QRA-6Y=", "properties": {"ref": "100027", "@spider": "two_men_and_truck", "addr:full": "7225 W 95th St", "addr:city": "Overland Park", "addr:state": "KS", "addr:postcode": "66212", "addr:country": "US", "name": "Kansas City", "phone": "\u200b816.393.0441", "website": "https://twomenandatruck.com/movers/ks/kansas-city", "brand": "Two Men and a Truck", "brand:wikidata": "Q7859087"}, "geometry": {"type": "Point", "coordinates": [-94.67065, 38.95602]}},
{"type": "Feature", "id": "xwvfJ12_iI8nM_AoG-8UZjuyWFE=", "properties": {"ref": "100028", "@spider": "two_men_and_truck", "addr:full": "3490 Miller Rd", "addr:city": "Flint", "addr:state": "MI", "addr:postcode": "48507", "addr:country": "US", "name": "Flint", "phone": "810.720.6683", "website": "https://twomenandatruck.com/movers/mi/flint", "brand": "Two Men and a Truck", "brand:wikidata": "Q7859087"}, "geometry": {"type": "Point", "coordinates": [-83.74845, 42.985888]}},
{"type": "Feature", "id": "Vo6Aj_oavJ5TrpUwLYZOYot817g=", "properties": {"ref": "100029", "@spider": "two_men_and_truck", "addr:full": "3861 US Highway 421 N.", "addr:city": "Wilmington", "addr:state": "NC", "addr:postcode": "28401", "addr:country": "US", "name": "Wilmington", "phone": "910.763.7990", "website": "https://twomenandatruck.com/movers/nc/wilmington", "brand": "Two Men and a Truck", "brand:wikidata": "Q7859087"}, "geometry": {"type": "Point", "coordinates": [-77.924487, 34.174292]}},
{"type": "Feature", "id": "HGSNBJzQCY6u7_QaWEzZZkh1UDo=", "properties": {"ref": "100030", "@spider": "two_men_and_truck", "addr:full": "25 Van Zant St.", "addr:city": "Norwalk", "addr:state": "CT", "addr:postcode": "06855", "addr:country": "US", "name": "Stamford", "phone": "203.831.9300", "website": "https://twomenandatruck.com/movers/ct/stamford", "brand": "Two Men and a Truck", "brand:wikidata": "Q7859087"}, "geometry": {"type": "Point", "coordinates": [-73.408225, 41.101692]}},
{"type": "Feature", "id": "MKQWQ7eF8_RTPrTNJmnKeBcJHVQ=", "properties": {"ref": "100031", "@spider": "two_men_and_truck", "addr:full": "6136 Western Avenue", "addr:city": "Knoxville", "addr:state": "TN", "addr:postcode": "37921", "addr:country": "US", "name": "Knoxville", "phone": "865.330.0003", "website": "https://twomenandatruck.com/movers/tn/knoxville", "brand": "Two Men and a Truck", "brand:wikidata": "Q7859087"}, "geometry": {"type": "Point", "coordinates": [-84.025327, 35.982976]}},
{"type": "Feature", "id": "mleOJMmfR8jr95GtfeO_R6llxyQ=", "properties": {"ref": "100032", "@spider": "two_men_and_truck", "addr:full": "6400 Cornhusker Highway #225", "addr:city": "Lincoln", "addr:state": "NE", "addr:postcode": "68507", "addr:country": "US", "name": "Lincoln", "phone": "402.466.4669", "website": "https://twomenandatruck.com/movers/ne/lincoln", "brand": "Two Men and a Truck", "brand:wikidata": "Q7859087"}, "geometry": {"type": "Point", "coordinates": [-96.635784, 40.868217]}},
{"type": "Feature", "id": "Gb4V1lqtQoUW-sSbMQ8bDh8JoIs=", "properties": {"ref": "100033", "@spider": "two_men_and_truck", "addr:full": "3401 West Burnsville Parkway", "addr:city": "Burnsville", "addr:state": "MN", "addr:postcode": "55337", "addr:country": "US", "name": "Minneapolis South", "phone": "952.894.8606", "website": "https://twomenandatruck.com/movers/mn/minneapolis/south", "brand": "Two Men and a Truck", "brand:wikidata": "Q7859087"}, "geometry": {"type": "Point", "coordinates": [-93.32131, 44.747726]}},
{"type": "Feature", "id": "knOB87lioyqzwJNdMkxLn4P5shk=", "properties": {"ref": "100034", "@spider": "two_men_and_truck", "addr:full": "1200 Concord St N", "addr:city": "South St Paul", "addr:state": "MN", "addr:postcode": "55075", "addr:country": "US", "name": "South St. Paul", "phone": "651.209.6345", "website": "https://twomenandatruck.com/movers/mn/st-paul/south", "brand": "Two Men and a Truck", "brand:wikidata": "Q7859087"}, "geometry": {"type": "Point", "coordinates": [-93.050713, 44.909934]}},
{"type": "Feature", "id": "cTk4BYrfyFbKYUvJu26Vtx-YQTk=", "properties": {"ref": "100035", "@spider": "two_men_and_truck", "addr:full": "1121 Stagecoach Rd", "addr:city": "Shakopee", "addr:state": "MN", "addr:postcode": "55379", "addr:country": "US", "name": "Shakopee", "phone": "952.456.6041", "website": "https://twomenandatruck.com/movers/mn/shakopee", "brand": "Two Men and a Truck", "brand:wikidata": "Q7859087"}, "geometry": {"type": "Point", "coordinates": [-93.40887, 44.7845]}},
{"type": "Feature", "id": "TXuXRN4HHAB9xkMz38ZjWS7vRjc=", "properties": {"ref": "100036", "@spider": "two_men_and_truck", "addr:full": "276 Commerce Park Dr", "addr:city": "Ridgeland", "addr:state": "MS", "addr:postcode": "39157", "addr:country": "US", "name": "Jackson", "phone": "601.853.9644", "website": "https://twomenandatruck.com/movers/ms/jackson", "brand": "Two Men and a Truck", "brand:wikidata": "Q7859087"}, "geometry": {"type": "Point", "coordinates": [-90.136367, 32.424799]}},
{"type": "Feature", "id": "VhPxo7Be4dCkd1DPMm5tsINQk3U=", "properties": {"ref": "100037", "@spider": "two_men_and_truck", "addr:full": "5959 Shallowford Road", "addr:city": "Chattanooga", "addr:state": "TN", "addr:postcode": "37421", "addr:country": "US", "name": "Chattanooga", "phone": "423.893.3450", "website": "https://twomenandatruck.com/movers/tn/chattanooga", "brand": "Two Men and a Truck", "brand:wikidata": "Q7859087"}, "geometry": {"type": "Point", "coordinates": [-85.193051, 35.056232]}},
{"type": "Feature", "id": "ZQxqUgh1C0KyMJ-iJqq9GUZMr20=", "properties": {"ref": "100039", "@spider": "two_men_and_truck", "addr:full": "4790 White Lake Rd", "addr:city": "Clarkston", "addr:state": "MI", "addr:postcode": "48346", "addr:country": "US", "name": "Waterford", "phone": "248.623.7484", "website": "https://twomenandatruck.com/movers/mi/waterford", "brand": "Two Men and a Truck", "brand:wikidata": "Q7859087"}, "geometry": {"type": "Point", "coordinates": [-83.44076, 42.707489]}},
{"type": "Feature", "id": "ZSQjO0bbeNmhfHlL0je5Biejq50=", "properties": {"ref": "100040", "@spider": "two_men_and_truck", "addr:full": "2241 N Belcrest Ave", "addr:city": "Springfield", "addr:state": "MO", "addr:postcode": "65803", "addr:country": "US", "name": "Springfield", "phone": "417.866.0376", "website": "https://twomenandatruck.com/movers/mo/springfield", "brand": "Two Men and a Truck", "brand:wikidata": "Q7859087"}, "geometry": {"type": "Point", "coordinates": [-93.2316, 37.23638]}},
{"type": "Feature", "id": "znaNFMFfcCPG3y5vLAyiCZTx06E=", "properties": {"ref": "100041", "@spider": "two_men_and_truck", "addr:full": "3653 Trailer Drive", "addr:city": "Charlotte", "addr:state": "NC", "addr:postcode": "28269", "addr:country": "US", "name": "Charlotte", "phone": "704.525.0555", "website": "https://twomenandatruck.com/movers/nc/charlotte", "brand": "Two Men and a Truck", "brand:wikidata": "Q7859087"}, "geometry": {"type": "Point", "coordinates": [-80.820953, 35.27665]}},
{"type": "Feature", "id": "E8bi1z5lzWUGjfYg2rGvTMfeP5s=", "properties": {"ref": "100042", "@spider": "two_men_and_truck", "addr:full": "1911 S Cooper St", "addr:city": "Jackson", "addr:state": "MI", "addr:postcode": "49203", "addr:country": "US", "name": "Jackson", "phone": "517.787.7550", "website": "https://twomenandatruck.com/movers/mi/jackson", "brand": "Two Men and a Truck", "brand:wikidata": "Q7859087"}, "geometry": {"type": "Point", "coordinates": [-84.401239, 42.247806]}},
{"type": "Feature", "id": "-ecsmTSi2fbiMlp7AA5a4n81GSI=", "properties": {"ref": "100043", "@spider": "two_men_and_truck", "addr:full": "7935-B Wright Rd", "addr:city": "Houston", "addr:state": "TX", "addr:postcode": "77041", "addr:country": "US", "name": "Houston Northwest", "phone": "713.278.1112", "website": "https://twomenandatruck.com/movers/tx/houston/north-west", "brand": "Two Men and a Truck", "brand:wikidata": "Q7859087"}, "geometry": {"type": "Point", "coordinates": [-95.590272, 29.892428]}},
{"type": "Feature", "id": "tHQ30v2HWCfVGKpvPCbi4Q1_Jhw=", "properties": {"ref": "100044", "@spider": "two_men_and_truck", "addr:full": "1291 Hickory Street", "addr:city": "Pewaukee", "addr:state": "WI", "addr:postcode": "53072", "addr:country": "US", "name": "Waukesha", "phone": "262.695.2700", "website": "https://twomenandatruck.com/movers/wi/waukesha", "brand": "Two Men and a Truck", "brand:wikidata": "Q7859087"}, "geometry": {"type": "Point", "coordinates": [-88.235622, 43.075878]}},
{"type": "Feature", "id": "2D-wdxxygCn1bD65tzgPq-paG2E=", "properties": {"ref": "100045", "@spider": "two_men_and_truck", "addr:full": "16205 W Rogers Dr", "addr:city": "New Berlin", "addr:state": "WI", "addr:postcode": "53151", "addr:country": "US", "name": "New Berlin", "phone": "262.695.2700", "website": "https://twomenandatruck.com/movers/wi/new-berlin", "brand": "Two Men and a Truck", "brand:wikidata": "Q7859087"}, "geometry": {"type": "Point", "coordinates": [-88.11419, 43.00695]}},
{"type": "Feature", "id": "6j2CK9bSc0WpOtO3711Orf-Xgss=", "properties": {"ref": "100047", "@spider": "two_men_and_truck", "addr:full": "2410 Air Park Rd.", "addr:city": "North Charleston", "addr:state": "SC", "addr:postcode": "29406", "addr:country": "US", "name": "Charleston", "phone": "843.529.0220", "website": "https://twomenandatruck.com/movers/sc/charleston", "brand": "Two Men and a Truck", "brand:wikidata": "Q7859087"}, "geometry": {"type": "Point", "coordinates": [-80.020562, 32.895008]}},
{"type": "Feature", "id": "ocLICmvINM_PdS8L2TdQb6RA0c8=", "properties": {"ref": "100048", "@spider": "two_men_and_truck", "addr:full": "854 Kingswood Dr.", "addr:city": "Conway", "addr:state": "SC", "addr:postcode": "29526", "addr:country": "US", "name": "Myrtle Beach", "phone": "843.234.2155", "website": "https://twomenandatruck.com/movers/sc/myrtle-beach", "brand": "Two Men and a Truck", "brand:wikidata": "Q7859087"}, "geometry": {"type": "Point", "coordinates": [-79.020195, 33.752498]}},
{"type": "Feature", "id": "kvsMxNVHW4Yb-p3D1DZct8vNHoI=", "properties": {"ref": "100049", "@spider": "two_men_and_truck", "addr:full": "1640 McFarland 400 Drive", "addr:city": "Alpharetta", "addr:state": "GA", "addr:postcode": "30004", "addr:country": "US", "name": "Alpharetta", "phone": "\u200b770.664.1250", "website": "https://twomenandatruck.com/movers/ga/atlanta/alpharetta", "brand": "Two Men and a Truck", "brand:wikidata": "Q7859087"}, "geometry": {"type": "Point", "coordinates": [-84.220053, 34.127703]}},
{"type": "Feature", "id": "n4dMj0MZ6OHXgNWbV46MTk1_zFU=", "properties": {"ref": "100050", "@spider": "two_men_and_truck", "addr:full": "700 Dalrymple Rd Suite 301", "addr:city": "Atlanta", "addr:state": "GA", "addr:postcode": "30328", "addr:country": "US", "name": "Sandy Springs", "phone": "770.558.3551", "website": "https://twomenandatruck.com/movers/ga/atlanta/sandy-springs", "brand": "Two Men and a Truck", "brand:wikidata": "Q7859087"}, "geometry": {"type": "Point", "coordinates": [-84.363586, 33.955428]}},
{"type": "Feature", "id": "AW0Qc-6wx8GxAs4uZvDKUNiP8FY=", "properties": {"ref": "100052", "@spider": "two_men_and_truck", "addr:full": "5151 South Royal Atlanta Drive", "addr:city": "Tucker", "addr:state": "GA", "addr:postcode": "30084", "addr:country": "US", "name": "Tucker", "phone": "470.336.1405", "website": "https://twomenandatruck.com/movers/ga/atlanta/tucker", "brand": "Two Men and a Truck", "brand:wikidata": "Q7859087"}, "geometry": {"type": "Point", "coordinates": [-84.177222, 33.856066]}},
{"type": "Feature", "id": "BvVXCZ8NXuVWimp43GFy1O9O0KE=", "properties": {"ref": "100053", "@spider": "two_men_and_truck", "addr:full": "3127 Presidential Dr", "addr:city": "Atlanta", "addr:state": "GA", "addr:postcode": "30340", "addr:country": "US", "name": "Chamblee", "phone": "770.457.0111", "website": "https://twomenandatruck.com/movers/ga/atlanta/chamblee", "brand": "Two Men and a Truck", "brand:wikidata": "Q7859087"}, "geometry": {"type": "Point", "coordinates": [-84.26089, 33.88675]}},
{"type": "Feature", "id": "J0xBpjC5j5ig56QuzFQERVemVFo=", "properties": {"ref": "100055", "@spider": "two_men_and_truck", "addr:full": "12261 Cleveland St.", "addr:city": "Nunica", "addr:state": "MI", "addr:postcode": "49448", "addr:country": "US", "name": "Spring Lake", "phone": "616.223.3800", "website": "https://twomenandatruck.com/movers/mi/spring-lake", "brand": "Two Men and a Truck", "brand:wikidata": "Q7859087"}, "geometry": {"type": "Point", "coordinates": [-86.094107, 43.074933]}},
{"type": "Feature", "id": "RzJO3HjD5qa27gVunew77zJh1KA=", "properties": {"ref": "100060", "@spider": "two_men_and_truck", "addr:full": "4430 136th Ave", "addr:city": "Holland", "addr:state": "MI", "addr:postcode": "49424", "addr:country": "US", "name": "Holland", "phone": "616.392.4448", "website": "https://twomenandatruck.com/movers/mi/holland", "brand": "Two Men and a Truck", "brand:wikidata": "Q7859087"}, "geometry": {"type": "Point", "coordinates": [-86.117076, 42.848827]}},
{"type": "Feature", "id": "KAEh8n1awRFH71f-kGxbpfxklhs=", "properties": {"ref": "100061", "@spider": "two_men_and_truck", "addr:full": "3520 Wrightsboro Rd.", "addr:city": "Augusta", "addr:state": "GA", "addr:postcode": "30909", "addr:country": "US", "name": "Augusta", "phone": "706.364.1754", "website": "https://twomenandatruck.com/movers/ga/augusta", "brand": "Two Men and a Truck", "brand:wikidata": "Q7859087"}, "geometry": {"type": "Point", "coordinates": [-82.089948, 33.46421]}},
{"type": "Feature", "id": "nqgW24QWt2UdW3_ZUX5eybWgyfU=", "properties": {"ref": "100062", "@spider": "two_men_and_truck", "addr:full": "2180 Carolina Pl Dr", "addr:city": "Fort Mill", "addr:state": "SC", "addr:postcode": "29708", "addr:country": "US", "name": "Rock Hill", "phone": "803.619.7119", "website": "https://twomenandatruck.com/movers/sc/rock-hill", "brand": "Two Men and a Truck", "brand:wikidata": "Q7859087"}, "geometry": {"type": "Point", "coordinates": [-80.961427, 35.03787]}},
{"type": "Feature", "id": "ixajp_FfDmAOh4yEb8YmTO4UVrE=", "properties": {"ref": "100063", "@spider": "two_men_and_truck", "addr:full": "1816 South Briggs Avenue", "addr:city": "Durham", "addr:state": "NC", "addr:postcode": "27703", "addr:country": "US", "name": "Durham", "phone": "919.309.9582", "website": "https://twomenandatruck.com/movers/nc/durham", "brand": "Two Men and a Truck", "brand:wikidata": "Q7859087"}, "geometry": {"type": "Point", "coordinates": [-78.87939, 35.959008]}},
{"type": "Feature", "id": "gF4wy5fFGQSbx3SRP1MchkSOLd8=", "properties": {"ref": "100065", "@spider": "two_men_and_truck", "addr:full": "1550 W Parkside Ln", "addr:city": "Phoenix", "addr:state": "AZ", "addr:postcode": "85027", "addr:country": "US", "name": "Phoenix North", "phone": "623.847.6683", "website": "https://twomenandatruck.com/movers/az/phoenix/north", "brand": "Two Men and a Truck", "brand:wikidata": "Q7859087"}, "geometry": {"type": "Point", "coordinates": [-112.093849, 33.695549]}},
{"type": "Feature", "id": "y6efhSeUezWgvkM0roIz9kp4WPY=", "properties": {"ref": "100067", "@spider": "two_men_and_truck", "addr:full": "612 Phillips", "addr:city": "Beavercreek", "addr:state": "OH", "addr:postcode": "45434", "addr:country": "US", "name": "Dayton South", "phone": "937.438.9900", "website": "https://twomenandatruck.com/movers/oh/dayton/south", "brand": "Two Men and a Truck", "brand:wikidata": "Q7859087"}, "geometry": {"type": "Point", "coordinates": [-84.010734, 39.705474]}},
{"type": "Feature", "id": "pVPkJgifAOkLA8oPkVn9j0qlEYA=", "properties": {"ref": "100068", "@spider": "two_men_and_truck", "addr:full": "3521 East Cork St.", "addr:city": "Kalamazoo", "addr:state": "MI", "addr:postcode": "49001", "addr:country": "US", "name": "Kalamazoo", "phone": "269.488.6683", "website": "https://twomenandatruck.com/movers/mi/kalamazoo", "brand": "Two Men and a Truck", "brand:wikidata": "Q7859087"}, "geometry": {"type": "Point", "coordinates": [-85.53607, 42.2602]}},
{"type": "Feature", "id": "xZBpcn6wfmsFSUSX0bWjwRjo8ts=", "properties": {"ref": "100069", "@spider": "two_men_and_truck", "addr:full": "7175 Tower Rd", "addr:city": "Battle Creek", "addr:state": "MI", "addr:postcode": "49014", "addr:country": "US", "name": "Battle Creek", "phone": "269.441.6683", "website": "https://twomenandatruck.com/movers/mi/battle-creek", "brand": "Two Men and a Truck", "brand:wikidata": "Q7859087"}, "geometry": {"type": "Point", "coordinates": [-85.157977, 42.286664]}},
{"type": "Feature", "id": "OYrLSBrfof8jP3OWZgRn6PAbsDs=", "properties": {"ref": "100070", "@spider": "two_men_and_truck", "addr:full": "16427 N Scottsdale Rd", "addr:city": "Scottsdale", "addr:state": "AZ", "addr:postcode": "85254", "addr:country": "US", "name": "Scottsdale", "phone": "602.287.0068", "website": "https://twomenandatruck.com/movers/az/phoenix/scottsdale", "brand": "Two Men and a Truck", "brand:wikidata": "Q7859087"}, "geometry": {"type": "Point", "coordinates": [-111.92383, 33.63647]}},
{"type": "Feature", "id": "s7w9wZmhlaZ_taya6Kgw9wmWvj4=", "properties": {"ref": "100071", "@spider": "two_men_and_truck", "addr:full": "7039 East 6th Street", "addr:city": "Scottsdale", "addr:state": "AZ", "addr:postcode": "85251", "addr:country": "US", "name": "Scottsdale South", "phone": "480.991.1805", "website": "https://twomenandatruck.com/movers/az/phoenix/scottsdale-south", "brand": "Two Men and a Truck", "brand:wikidata": "Q7859087"}, "geometry": {"type": "Point", "coordinates": [-111.9288, 33.48824]}},
{"type": "Feature", "id": "Gxm0-vSVFIkbaGp16_JnEFzBXa8=", "properties": {"ref": "100072", "@spider": "two_men_and_truck", "addr:full": "2731 White Horse Rd", "addr:city": "Greenville", "addr:state": "SC", "addr:postcode": "29611", "addr:country": "US", "name": "Greenville", "phone": "864.329.1228", "website": "https://twomenandatruck.com/movers/sc/greenville", "brand": "Two Men and a Truck", "brand:wikidata": "Q7859087"}, "geometry": {"type": "Point", "coordinates": [-82.43406, 34.80596]}},
{"type": "Feature", "id": "V6umEQy9S2WTVMad2bnR1dnFrQ0=", "properties": {"ref": "100073", "@spider": "two_men_and_truck", "addr:full": "324 E St John St", "addr:city": "Spartanburg", "addr:state": "SC", "addr:postcode": "29302", "addr:country": "US", "name": "Spartanburg", "phone": "864.699.0777", "website": "https://twomenandatruck.com/movers/sc/spartanburg", "brand": "Two Men and a Truck", "brand:wikidata": "Q7859087"}, "geometry": {"type": "Point", "coordinates": [-81.92575, 34.95417]}},
{"type": "Feature", "id": "UZvhAhoSS7JLk8Tt1c7-R9g3-Pc=", "properties": {"ref": "100074", "@spider": "two_men_and_truck", "addr:full": "285 North Drive ", "addr:city": "Melbourne", "addr:state": "FL", "addr:postcode": "32934", "addr:country": "US", "name": "Brevard County", "phone": "321.242.7742", "website": "https://twomenandatruck.com/movers/fl/melbourne", "brand": "Two Men and a Truck", "brand:wikidata": "Q7859087"}, "geometry": {"type": "Point", "coordinates": [-80.68897, 28.10976]}},
{"type": "Feature", "id": "5KGOMmV528VOLR_a3uHRwLR65gQ=", "properties": {"ref": "100075", "@spider": "two_men_and_truck", "addr:full": "310 Anchor Rd", "addr:city": "Casselberry", "addr:state": "FL", "addr:postcode": "32707", "addr:country": "US", "name": "Seminole County", "phone": "407.331.6683", "website": "https://twomenandatruck.com/movers/fl/orlando/altamonte-springs", "brand": "Two Men and a Truck", "brand:wikidata": "Q7859087"}, "geometry": {"type": "Point", "coordinates": [-81.346251, 28.672577]}},
{"type": "Feature", "id": "AF0lHpA5S3ws41PeuO_K5-toR3k=", "properties": {"ref": "100076", "@spider": "two_men_and_truck", "addr:full": "370 Smoketree Business Park", "addr:city": "North Aurora", "addr:state": "IL", "addr:postcode": "60542", "addr:country": "US", "name": "Naperville", "phone": "630.301.7500", "website": "https://twomenandatruck.com/movers/il/chicago/naperville", "brand": "Two Men and a Truck", "brand:wikidata": "Q7859087"}, "geometry": {"type": "Point", "coordinates": [-88.329435, 41.793957]}},
{"type": "Feature", "id": "bDdIuc_GiMaCWTSLJzdBfXqSKaA=", "properties": {"ref": "100077", "@spider": "two_men_and_truck", "addr:full": "260 Commerce Blvd.", "addr:city": "Athens", "addr:state": "GA", "addr:postcode": "30606", "addr:country": "US", "name": "Athens", "phone": "706.227.4100", "website": "https://twomenandatruck.com/movers/ga/athens", "brand": "Two Men and a Truck", "brand:wikidata": "Q7859087"}, "geometry": {"type": "Point", "coordinates": [-83.477183, 33.935269]}},
{"type": "Feature", "id": "Dij57vC0j8tmq-NofaeLZFRZ_pE=", "properties": {"ref": "100078", "@spider": "two_men_and_truck", "addr:full": "11807 Reading Rd", "addr:city": "Cincinnati", "addr:state": "OH", "addr:postcode": "45241", "addr:country": "US", "name": "Cincinnati East", "phone": "513.769.6683", "website": "https://twomenandatruck.com/movers/oh/cincinnati/east", "brand": "Two Men and a Truck", "brand:wikidata": "Q7859087"}, "geometry": {"type": "Point", "coordinates": [-84.41062, 39.28783]}},
{"type": "Feature", "id": "k2Eyr2S_vvhGXxrH01CBVkUR6Xw=", "properties": {"ref": "100081", "@spider": "two_men_and_truck", "addr:full": "12002 S Spaulding School Dr", "addr:city": "Plainfield", "addr:state": "IL", "addr:postcode": "60585", "addr:country": "US", "name": "Plainfield", "phone": "815.609.6200", "website": "https://twomenandatruck.com/movers/il/chicago/plainfield", "brand": "Two Men and a Truck", "brand:wikidata": "Q7859087"}, "geometry": {"type": "Point", "coordinates": [-88.200815, 41.664568]}},
{"type": "Feature", "id": "JIw3gVPzydDDCII_b9_EgyFHBCM=", "properties": {"ref": "100082", "@spider": "two_men_and_truck", "addr:full": "1350 Tri State Pkwy", "addr:city": "Gurnee", "addr:state": "IL", "addr:postcode": "60031", "addr:country": "US", "name": "Lake County", "phone": "847.855.5960", "website": "https://twomenandatruck.com/movers/il/chicago/lake-county", "brand": "Two Men and a Truck", "brand:wikidata": "Q7859087"}, "geometry": {"type": "Point", "coordinates": [-87.950699, 42.377151]}},
{"type": "Feature", "id": "m42E13N5WItVCBb_1sZm6sm1k98=", "properties": {"ref": "100085", "@spider": "two_men_and_truck", "addr:full": "7074 Harrison Ave", "addr:city": "Cincinnati", "addr:state": "OH", "addr:postcode": "45247", "addr:country": "US", "name": "Cincinnati", "phone": "513.245.1900", "website": "https://twomenandatruck.com/movers/oh/cincinnati/west", "brand": "Two Men and a Truck", "brand:wikidata": "Q7859087"}, "geometry": {"type": "Point", "coordinates": [-84.67412, 39.2136]}},
{"type": "Feature", "id": "p5VIYAA-OH77imQlIqURpZf2K10=", "properties": {"ref": "100086", "@spider": "two_men_and_truck", "addr:full": "19 ABC Pkwy", "addr:city": "Collinsville", "addr:state": "IL", "addr:postcode": "62234", "addr:country": "US", "name": "St. Louis East", "phone": "618.301.4100", "website": "https://twomenandatruck.com/movers/il/st-louis/metro-east", "brand": "Two Men and a Truck", "brand:wikidata": "Q7859087"}, "geometry": {"type": "Point", "coordinates": [-90.01812, 38.69169]}},
{"type": "Feature", "id": "w3L6ZvP2R1BAsowrUQWGnKDMap4=", "properties": {"ref": "100087", "@spider": "two_men_and_truck", "addr:full": "2905 W Indian School Rd", "addr:city": "Phoenix", "addr:state": "AZ", "addr:postcode": "85017", "addr:country": "US", "name": "Phoenix-West Valley", "phone": "602.242.2180", "website": "https://twomenandatruck.com/movers/az/phoenix/west-valley", "brand": "Two Men and a Truck", "brand:wikidata": "Q7859087"}, "geometry": {"type": "Point", "coordinates": [-112.121849, 33.494426]}},
{"type": "Feature", "id": "Ybj1WPUB0lCwo8rStmigd-DxY74=", "properties": {"ref": "100088", "@spider": "two_men_and_truck", "addr:full": "4701 Airport Dr", "addr:city": "Valparaiso", "addr:state": "IN", "addr:postcode": "46383", "addr:country": "US", "name": "Valparaiso", "phone": "219.548.7577", "website": "https://twomenandatruck.com/movers/in/valparaiso", "brand": "Two Men and a Truck", "brand:wikidata": "Q7859087"}, "geometry": {"type": "Point", "coordinates": [-87.004339, 41.447877]}},
{"type": "Feature", "id": "NQiEgrB3JJTvYVdGOOTVlJsJX4c=", "properties": {"ref": "100089", "@spider": "two_men_and_truck", "addr:full": "Dispatch location only", "addr:city": "Crown Point", "addr:state": "IN", "addr:postcode": "46307", "addr:country": "US", "name": "Crown Point", "phone": "219.663.9999", "website": "https://twomenandatruck.com/movers/in/crown-point", "brand": "Two Men and a Truck", "brand:wikidata": "Q7859087"}, "geometry": {"type": "Point", "coordinates": [-87.355125, 41.420099]}},
{"type": "Feature", "id": "h1dXA0MkHdj9oveH8NX5ihT-6uQ=", "properties": {"ref": "100090", "@spider": "two_men_and_truck", "addr:full": "23399 Commerce Drive Suite", "addr:city": "Farmington Hills", "addr:state": "MI", "addr:postcode": "48335", "addr:country": "US", "name": "Farmington Hills", "phone": "248.735.6683", "website": "https://twomenandatruck.com/movers/mi/farmington-hills", "brand": "Two Men and a Truck", "brand:wikidata": "Q7859087"}, "geometry": {"type": "Point", "coordinates": [-83.429613, 42.461305]}},
{"type": "Feature", "id": "PeLp3btTNcXv_BTdDSAxYgcA7Go=", "properties": {"ref": "100091", "@spider": "two_men_and_truck", "addr:full": "370 S. Nova Rd.", "addr:city": "Daytona Beach", "addr:state": "FL", "addr:postcode": "32114", "addr:country": "US", "name": "Daytona", "phone": "386.255.6683", "website": "https://twomenandatruck.com/movers/fl/daytona", "brand": "Two Men and a Truck", "brand:wikidata": "Q7859087"}, "geometry": {"type": "Point", "coordinates": [-81.035311, 29.194406]}},
{"type": "Feature", "id": "Izu9mDpXXqw6kpsoyTXGaNTPOPo=", "properties": {"ref": "100092", "@spider": "two_men_and_truck", "addr:full": "11800 W Burleigh St", "addr:city": "Wauwatosa", "addr:state": "WI", "addr:postcode": "53222", "addr:country": "US", "name": "Milwaukee", "phone": "414.257.2700", "website": "https://twomenandatruck.com/movers/wi/milwaukee", "brand": "Two Men and a Truck", "brand:wikidata": "Q7859087"}, "geometry": {"type": "Point", "coordinates": [-88.06002, 43.08051]}},
{"type": "Feature", "id": "_geYy-wKpg0UFnETNiYUj-BA810=", "properties": {"ref": "100093", "@spider": "two_men_and_truck", "addr:full": "5134 County Road O", "addr:city": "Plymouth", "addr:state": "WI", "addr:postcode": "53073", "addr:country": "US", "name": "Sheboygan County", "phone": "920.893.1900", "website": "https://twomenandatruck.com/movers/wi/sheboygan-county", "brand": "Two Men and a Truck", "brand:wikidata": "Q7859087"}, "geometry": {"type": "Point", "coordinates": [-87.952947, 43.761597]}},
{"type": "Feature", "id": "3j3o-7knKp8WpL5WxoOkQEd1qM0=", "properties": {"ref": "100094", "@spider": "two_men_and_truck", "addr:full": "1500 N. Florida Mango Rd", "addr:city": "West Palm Beach", "addr:state": "FL", "addr:postcode": "33409", "addr:country": "US", "name": "West Palm Beach", "phone": "561.845.7373", "website": "https://twomenandatruck.com/movers/fl/west-palm-beach", "brand": "Two Men and a Truck", "brand:wikidata": "Q7859087"}, "geometry": {"type": "Point", "coordinates": [-80.077395, 26.70054]}},
{"type": "Feature", "id": "RSdnRpGD7eEGQhFGmc0MJXiya4o=", "properties": {"ref": "100095", "@spider": "two_men_and_truck", "addr:full": "325 Lee Road 672", "addr:city": "Auburn", "addr:state": "AL", "addr:postcode": "36832", "addr:country": "US", "name": "Auburn-Montgomery", "phone": "334.277.1700", "website": "https://twomenandatruck.com/movers/al/auburn-montgomery", "brand": "Two Men and a Truck", "brand:wikidata": "Q7859087"}, "geometry": {"type": "Point", "coordinates": [-85.477216, 32.609419]}},
{"type": "Feature", "id": "qJW0Zk4Kl8Q0P53BgwOytIJF1NM=", "properties": {"ref": "100096", "@spider": "two_men_and_truck", "addr:full": "85 Karago Ave.", "addr:city": "Boardman", "addr:state": "OH", "addr:postcode": "44512", "addr:country": "US", "name": "Youngstown", "phone": "330.758.2110", "website": "https://twomenandatruck.com/movers/oh/youngstown", "brand": "Two Men and a Truck", "brand:wikidata": "Q7859087"}, "geometry": {"type": "Point", "coordinates": [-80.658761, 41.00509]}},
{"type": "Feature", "id": "AZi_kUy3uWKWkSm62EFufD1M2cQ=", "properties": {"ref": "100098", "@spider": "two_men_and_truck", "addr:full": "321 Ley Rd.", "addr:city": "Fort Wayne", "addr:state": "IN", "addr:postcode": "46825", "addr:country": "US", "name": "Fort Wayne", "phone": "260.471.6683", "website": "https://twomenandatruck.com/movers/in/fort-wayne", "brand": "Two Men and a Truck", "brand:wikidata": "Q7859087"}, "geometry": {"type": "Point", "coordinates": [-85.15417, 41.12502]}},
{"type": "Feature", "id": "clkJr_BGuL_EQ6UmZi2hUcq1CPI=", "properties": {"ref": "100099", "@spider": "two_men_and_truck", "addr:full": "3555 Valley Drive", "addr:city": "Pittsburgh", "addr:state": "PA", "addr:postcode": "15234", "addr:country": "US", "name": "Pittsburgh", "phone": "412.881.1111", "website": "https://twomenandatruck.com/movers/pa/pittsburgh", "brand": "Two Men and a Truck", "brand:wikidata": "Q7859087"}, "geometry": {"type": "Point", "coordinates": [-80.023099, 40.352699]}},
{"type": "Feature", "id": "lwaXRyESfARJ3TJmhDV3tyisBBE=", "properties": {"ref": "100102", "@spider": "two_men_and_truck", "addr:full": "280 Business Park Cir", "addr:city": "St. Augustine", "addr:state": "FL", "addr:postcode": "32095", "addr:country": "US", "name": "St. Augustine", "phone": "904.429.0283", "website": "https://twomenandatruck.com/movers/fl/st-augustine", "brand": "Two Men and a Truck", "brand:wikidata": "Q7859087"}, "geometry": {"type": "Point", "coordinates": [-81.45235, 29.9867]}},
{"type": "Feature", "id": "q1r-fWcz1JHWhXVStf4pmX5frx0=", "properties": {"ref": "100103", "@spider": "two_men_and_truck", "addr:full": "1091 Reading Road", "addr:city": "Mason", "addr:state": "OH", "addr:postcode": "45040", "addr:country": "US", "name": "Mason", "phone": "513.459.8080", "website": "https://twomenandatruck.com/movers/oh/mason", "brand": "Two Men and a Truck", "brand:wikidata": "Q7859087"}, "geometry": {"type": "Point", "coordinates": [-84.343408, 39.337806]}},
{"type": "Feature", "id": "YVxFM3ILgig578ZngRYrG_10s44=", "properties": {"ref": "100105", "@spider": "two_men_and_truck", "addr:full": "11787 Technology Drive", "addr:city": "Fishers", "addr:state": "IN", "addr:postcode": "46038", "addr:country": "US", "name": "Indianapolis North", "phone": "317.489.5750", "website": "https://twomenandatruck.com/movers/in/indianapolis/north", "brand": "Two Men and a Truck", "brand:wikidata": "Q7859087"}, "geometry": {"type": "Point", "coordinates": [-86.005478, 39.961911]}},
{"type": "Feature", "id": "QRKVugAsODixkUDbbGAvybNGCoA=", "properties": {"ref": "100106", "@spider": "two_men_and_truck", "addr:full": "4075 Charles Hardy Parkway", "addr:city": "Dallas", "addr:state": "GA", "addr:postcode": "30157", "addr:country": "US", "name": "Dallas", "phone": "770.505.3332", "website": "https://twomenandatruck.com/movers/ga/atlanta/dallas", "brand": "Two Men and a Truck", "brand:wikidata": "Q7859087"}, "geometry": {"type": "Point", "coordinates": [-84.726046, 33.93533]}},
{"type": "Feature", "id": "V2MJ65arHpZpkM8J2cOvOqqEOqs=", "properties": {"ref": "100109", "@spider": "two_men_and_truck", "addr:full": "125 Dino Dr", "addr:city": "Ann Arbor", "addr:state": "MI", "addr:postcode": "48103", "addr:country": "US", "name": "Ann Arbor", "phone": "734.973.6683", "website": "https://twomenandatruck.com/movers/mi/ann-arbor", "brand": "Two Men and a Truck", "brand:wikidata": "Q7859087"}, "geometry": {"type": "Point", "coordinates": [-83.88084, 42.292666]}},
{"type": "Feature", "id": "7qmiyhBz26VhPJFs-2kgd5SybkA=", "properties": {"ref": "100110", "@spider": "two_men_and_truck", "addr:full": "3951 Bardstown Rd", "addr:city": "Louisville", "addr:state": "KY", "addr:postcode": "40218", "addr:country": "US", "name": "Louisville", "phone": "502.454.6999", "website": "https://twomenandatruck.com/movers/ky/louisville", "brand": "Two Men and a Truck", "brand:wikidata": "Q7859087"}, "geometry": {"type": "Point", "coordinates": [-85.648565, 38.193988]}},
{"type": "Feature", "id": "pmffbF4jPYiFD2iEG8KcV44arQ8=", "properties": {"ref": "100111", "@spider": "two_men_and_truck", "addr:full": "5044 W Olive Ave", "addr:city": "Glendale", "addr:state": "AZ", "addr:postcode": "85302", "addr:country": "US", "name": "West Phoenix", "phone": "623.933.2180", "website": "https://twomenandatruck.com/movers/az/phoenix/northwest", "brand": "Two Men and a Truck", "brand:wikidata": "Q7859087"}, "geometry": {"type": "Point", "coordinates": [-112.16761, 33.56759]}},
{"type": "Feature", "id": "rmWDsVn61C25FCFhawOoSGGa7iE=", "properties": {"ref": "100113", "@spider": "two_men_and_truck", "addr:full": "3773 W Ina Rd", "addr:city": "Tucson", "addr:state": "AZ", "addr:postcode": "85741", "addr:country": "US", "name": "Tucson", "phone": "520.299.6683", "website": "https://twomenandatruck.com/movers/az/tucson", "brand": "Two Men and a Truck", "brand:wikidata": "Q7859087"}, "geometry": {"type": "Point", "coordinates": [-111.045964, 32.335106]}},
{"type": "Feature", "id": "IuwakplkRJBxCx8rq2b3vOSsJuE=", "properties": {"ref": "100116", "@spider": "two_men_and_truck", "addr:full": "3810 124th St NE", "addr:city": "Marysville", "addr:state": "WA", "addr:postcode": "98271", "addr:country": "US", "name": "Everett", "phone": "425.823.1999", "website": "https://twomenandatruck.com/movers/wa/seattle/everett", "brand": "Two Men and a Truck", "brand:wikidata": "Q7859087"}, "geometry": {"type": "Point", "coordinates": [-122.18, 48.10704]}},
{"type": "Feature", "id": "X0eqN40vK54g8Ij_jmPjb5V7Jzo=", "properties": {"ref": "100117", "@spider": "two_men_and_truck", "addr:full": "20250 144th Ave NE", "addr:city": "Woodinville", "addr:state": "WA", "addr:postcode": "98072", "addr:country": "US", "name": "Seattle", "phone": "425.823.1999", "website": "https://twomenandatruck.com/movers/wa/seattle/woodinville", "brand": "Two Men and a Truck", "brand:wikidata": "Q7859087"}, "geometry": {"type": "Point", "coordinates": [-122.14719, 47.77408]}},
{"type": "Feature", "id": "jHF5RJppIAqDoh00Viqlf0u59YM=", "properties": {"ref": "100118", "@spider": "two_men_and_truck", "addr:full": "1421 Belfast Ave", "addr:city": "Columbus", "addr:state": "GA", "addr:postcode": "31904", "addr:country": "US", "name": "Columbus", "phone": "706.494.6683", "website": "https://twomenandatruck.com/movers/ga/columbus", "brand": "Two Men and a Truck", "brand:wikidata": "Q7859087"}, "geometry": {"type": "Point", "coordinates": [-84.972217, 32.529014]}},
{"type": "Feature", "id": "Ofz1MoS24XztoOGObLBZTs275Hk=", "properties": {"ref": "100119", "@spider": "two_men_and_truck", "addr:full": "240 Rutledge Road", "addr:city": "Fletcher", "addr:state": "NC", "addr:postcode": "28732", "addr:country": "US", "name": "Asheville", "phone": "828.681.5252", "website": "https://twomenandatruck.com/movers/nc/asheville", "brand": "Two Men and a Truck", "brand:wikidata": "Q7859087"}, "geometry": {"type": "Point", "coordinates": [-82.526146, 35.444035]}},
{"type": "Feature", "id": "DgFITVOAjlVRaHpoSo6_g4JYNtM=", "properties": {"ref": "100120", "@spider": "two_men_and_truck", "addr:full": "1500 Phyllis St", "addr:city": "Bentonville", "addr:state": "AR", "addr:postcode": "72712", "addr:country": "US", "name": "Bentonville", "phone": "479.271.8228", "website": "https://twomenandatruck.com/movers/ar/northwest-arkansas", "brand": "Two Men and a Truck", "brand:wikidata": "Q7859087"}, "geometry": {"type": "Point", "coordinates": [-94.181014, 36.35478]}},
{"type": "Feature", "id": "rakPhcZS1cI6GLTM1nH-oE-_pJo=", "properties": {"ref": "100121", "@spider": "two_men_and_truck", "addr:full": "7217 Daniel Drive", "addr:city": "Stockbridge", "addr:state": "GA", "addr:postcode": "30281", "addr:country": "US", "name": "Stockbridge", "phone": "770.477.6683", "website": "https://twomenandatruck.com/movers/ga/atlanta/stockbridge", "brand": "Two Men and a Truck", "brand:wikidata": "Q7859087"}, "geometry": {"type": "Point", "coordinates": [-84.264579, 33.557188]}},
{"type": "Feature", "id": "tHb3oSdE-Vt1nWmq6zIOkqjaheM=", "properties": {"ref": "100122", "@spider": "two_men_and_truck", "addr:full": "1348 S West Silver Lake Rd.", "addr:city": "Traverse City", "addr:state": "MI", "addr:postcode": "49684", "addr:country": "US", "name": "Northern Michigan", "phone": "231.947.8880", "website": "https://twomenandatruck.com/movers/mi/northern-michigan", "brand": "Two Men and a Truck", "brand:wikidata": "Q7859087"}, "geometry": {"type": "Point", "coordinates": [-85.691115, 44.667268]}},
{"type": "Feature", "id": "0GWsH7qTPlTtR_TgjJUZkBee68E=", "properties": {"ref": "100123", "@spider": "two_men_and_truck", "addr:full": "1999 U.S. 31 N", "addr:city": "Petoskey", "addr:state": "MI", "addr:postcode": "49770", "addr:country": "US", "name": "Petoskey", "phone": "231.947.8880 ", "website": "https://twomenandatruck.com/movers/mi/petoskey", "brand": "Two Men and a Truck", "brand:wikidata": "Q7859087"}, "geometry": {"type": "Point", "coordinates": [-84.88733, 45.398766]}},
{"type": "Feature", "id": "3KNOFYL3LGkMnZS9gUR0muQsB3k=", "properties": {"ref": "100125", "@spider": "two_men_and_truck", "addr:full": "3851 Morrow Lane", "addr:city": "Chico", "addr:state": "CA", "addr:postcode": "95928", "addr:country": "US", "name": "Chico", "phone": "530.222.4047", "website": "https://twomenandatruck.com/movers/ca/chico", "brand": "Two Men and a Truck", "brand:wikidata": "Q7859087"}, "geometry": {"type": "Point", "coordinates": [-121.792127, 39.711017]}},
{"type": "Feature", "id": "3kka9HlXuDHQX0rhIA0RSPlQ6xc=", "properties": {"ref": "100127", "@spider": "two_men_and_truck", "addr:full": "2092 W Main St", "addr:city": "Norristown", "addr:state": "PA", "addr:postcode": "19403", "addr:country": "US", "name": "Philadelphia", "phone": "610.499.2021", "website": "https://twomenandatruck.com/movers/pa/philadelphia", "brand": "Two Men and a Truck", "brand:wikidata": "Q7859087"}, "geometry": {"type": "Point", "coordinates": [-75.38003, 40.13404]}},
{"type": "Feature", "id": "CSU_jjnvG48O_dpUev9i70bu-bQ=", "properties": {"ref": "100128", "@spider": "two_men_and_truck", "addr:full": "1600 W Ben White Blvd", "addr:city": "Austin", "addr:state": "TX", "addr:postcode": "78704", "addr:country": "US", "name": "South Austin", "phone": "512.416.6800", "website": "https://twomenandatruck.com/movers/tx/austin/south", "brand": "Two Men and a Truck", "brand:wikidata": "Q7859087"}, "geometry": {"type": "Point", "coordinates": [-97.783628, 30.228797]}},
{"type": "Feature", "id": "xJltg3ANBf-Y7du-5TW345nVy9g=", "properties": {"ref": "100129", "@spider": "two_men_and_truck", "addr:full": "83 Christiana Rd", "addr:city": "New Castle", "addr:state": "DE", "addr:postcode": "19720", "addr:country": "US", "name": "Wilmington", "phone": "302.998.2600", "website": "https://twomenandatruck.com/movers/de/wilmington", "brand": "Two Men and a Truck", "brand:wikidata": "Q7859087"}, "geometry": {"type": "Point", "coordinates": [-75.613402, 39.66456]}},
{"type": "Feature", "id": "QvDr5YXr0ShZbuS-hyHWa8pt5Vc=", "properties": {"ref": "100130", "@spider": "two_men_and_truck", "addr:full": "3220 Atlantic Ave", "addr:city": "Lakeland", "addr:state": "FL", "addr:postcode": "33803", "addr:country": "US", "name": "Lakeland", "phone": "863.646.6683", "website": "https://twomenandatruck.com/movers/fl/lakeland", "brand": "Two Men and a Truck", "brand:wikidata": "Q7859087"}, "geometry": {"type": "Point", "coordinates": [-81.903734, 28.005446]}},
{"type": "Feature", "id": "RQgEh8Eo-7v58HCsR45ns6hT6Q8=", "properties": {"ref": "100131", "@spider": "two_men_and_truck", "addr:full": "1111 Tower Rd.", "addr:city": "Schaumburg", "addr:state": "IL", "addr:postcode": "60173", "addr:country": "US", "name": "Schaumburg", "phone": "847.884.2004", "website": "https://twomenandatruck.com/movers/il/chicago/schaumburg", "brand": "Two Men and a Truck", "brand:wikidata": "Q7859087"}, "geometry": {"type": "Point", "coordinates": [-88.050499, 42.055182]}},
{"type": "Feature", "id": "iNv4jpf1SoSavsBRZSovfIHclVI=", "properties": {"ref": "100132", "@spider": "two_men_and_truck", "addr:full": "3500 Masonboro Ct", "addr:city": "Hope Mills", "addr:state": "NC", "addr:postcode": "28348", "addr:country": "US", "name": "Fayetteville", "phone": "910.426.6683", "website": "https://twomenandatruck.com/movers/nc/fayetteville", "brand": "Two Men and a Truck", "brand:wikidata": "Q7859087"}, "geometry": {"type": "Point", "coordinates": [-78.92264, 34.99439]}},
{"type": "Feature", "id": "raaGSrqNMmUfLlqBzPzhlqHgIWs=", "properties": {"ref": "100133", "@spider": "two_men_and_truck", "addr:full": "514 Carmony Road NE", "addr:city": "Albuquerque", "addr:state": "NM", "addr:postcode": "87107", "addr:country": "US", "name": "Albuquerque", "phone": "505.872.8787", "website": "https://twomenandatruck.com/movers/nm/albuquerque", "brand": "Two Men and a Truck", "brand:wikidata": "Q7859087"}, "geometry": {"type": "Point", "coordinates": [-106.62806, 35.128084]}},
{"type": "Feature", "id": "TEp3kXFS3KitMBzrN66t0BH5GEI=", "properties": {"ref": "100134", "@spider": "two_men_and_truck", "addr:full": "4404 NW 6th St", "addr:city": "Gainesville", "addr:state": "FL", "addr:postcode": "32609", "addr:country": "US", "name": "Gainesville", "phone": "352.372.0300", "website": "https://twomenandatruck.com/movers/fl/gainesville", "brand": "Two Men and a Truck", "brand:wikidata": "Q7859087"}, "geometry": {"type": "Point", "coordinates": [-82.33541, 29.69491]}},
{"type": "Feature", "id": "VlW41njOl_8YZ8E4TU_ouYbqSew=", "properties": {"ref": "100135", "@spider": "two_men_and_truck", "addr:full": "4315 Sapphire Ct", "addr:city": "Greenville", "addr:state": "NC", "addr:postcode": "27834", "addr:country": "US", "name": "Greenville", "phone": "252.353.2636", "website": "https://twomenandatruck.com/movers/nc/greenville", "brand": "Two Men and a Truck", "brand:wikidata": "Q7859087"}, "geometry": {"type": "Point", "coordinates": [-77.331631, 35.638969]}},
{"type": "Feature", "id": "1Krp_dgqqEUfh06XE0-jYlu3m3M=", "properties": {"ref": "100136", "@spider": "two_men_and_truck", "addr:full": "3510 Coleman St.", "addr:city": "North Las Vegas", "addr:state": "NV", "addr:postcode": "89032", "addr:country": "US", "name": "Las Vegas", "phone": "702.877.6683", "website": "https://twomenandatruck.com/movers/nv/las-vegas", "brand": "Two Men and a Truck", "brand:wikidata": "Q7859087"}, "geometry": {"type": "Point", "coordinates": [-115.174712, 36.223667]}},
{"type": "Feature", "id": "fkBPte1cw7EfmUL0bTY3M_2Qgo0=", "properties": {"ref": "100137", "@spider": "two_men_and_truck", "addr:full": "1916 S. Gilbert Road Suite 2", "addr:city": "Mesa", "addr:state": "AZ", "addr:postcode": "85204", "addr:country": "US", "name": "Mesa", "phone": "480.804.0900", "website": "https://twomenandatruck.com/movers/az/phoenix/mesa", "brand": "Two Men and a Truck", "brand:wikidata": "Q7859087"}, "geometry": {"type": "Point", "coordinates": [-111.790389, 33.380256]}},
{"type": "Feature", "id": "vPl4-KWL2QSBGHNV9Qv3Ui3auQc=", "properties": {"ref": "100138", "@spider": "two_men_and_truck", "addr:full": "2549 Seven Springs Rd.", "addr:city": "New Port Richey", "addr:state": "FL", "addr:postcode": "34655", "addr:country": "US", "name": "Pasco", "phone": "727.847.6683", "website": "https://twomenandatruck.com/movers/fl/pasco", "brand": "Two Men and a Truck", "brand:wikidata": "Q7859087"}, "geometry": {"type": "Point", "coordinates": [-82.699597, 28.19643]}},
{"type": "Feature", "id": "yqU6wiFDVXpcrSBLlzVmx36VCtc=", "properties": {"ref": "100139", "@spider": "two_men_and_truck", "addr:full": "13719 Linden Dr", "addr:city": "Spring Hill", "addr:state": "FL", "addr:postcode": "34609", "addr:country": "US", "name": "Spring Hill", "phone": "352.515.0980", "website": "https://twomenandatruck.com/movers/fl/spring-hill", "brand": "Two Men and a Truck", "brand:wikidata": "Q7859087"}, "geometry": {"type": "Point", "coordinates": [-82.510462, 28.465715]}},
{"type": "Feature", "id": "gmH_10qFdv3eXALw8X58gN5QtTw=", "properties": {"ref": "100141", "@spider": "two_men_and_truck", "addr:full": "7206 N. Alpine Rd.", "addr:city": "Loves Park", "addr:state": "IL", "addr:postcode": "61111", "addr:country": "US", "name": "Rockford", "phone": "815.633.3600", "website": "https://twomenandatruck.com/movers/il/rockford", "brand": "Two Men and a Truck", "brand:wikidata": "Q7859087"}, "geometry": {"type": "Point", "coordinates": [-89.029, 42.327339]}},
{"type": "Feature", "id": "gosMgS470ml5F4k_F7IJ0VOLyOM=", "properties": {"ref": "100142", "@spider": "two_men_and_truck", "addr:full": "1115 Taylor Ave N ", "addr:city": "Grand Rapids", "addr:state": "MI", "addr:postcode": "49503", "addr:country": "US", "name": "Grand Rapids North", "phone": "616.647.4262", "website": "https://twomenandatruck.com/movers/mi/grand-rapids/north", "brand": "Two Men and a Truck", "brand:wikidata": "Q7859087"}, "geometry": {"type": "Point", "coordinates": [-85.66888, 42.9831]}},
{"type": "Feature", "id": "sQyXdOBIoGNycOYJYGrv2NHzWAk=", "properties": {"ref": "100143", "@spider": "two_men_and_truck", "addr:full": "284 Dodge St", "addr:city": "Comstock Park", "addr:state": "MI", "addr:postcode": "49321", "addr:country": "US", "name": "Comstock Park", "phone": "616.647.4262", "website": "https://twomenandatruck.com/movers/mi/grand-rapids/comstock-park", "brand": "Two Men and a Truck", "brand:wikidata": "Q7859087"}, "geometry": {"type": "Point", "coordinates": [-85.659981, 43.046692]}},
{"type": "Feature", "id": "oTOnGZjXCa9NQgVIaG1uMALW_Iw=", "properties": {"ref": "100144", "@spider": "two_men_and_truck", "addr:full": "1330 Martin Rd E", "addr:city": "Northport", "addr:state": "AL", "addr:postcode": "35473", "addr:country": "US", "name": "Tuscaloosa", "phone": "205.247.5050", "website": "https://twomenandatruck.com/movers/al/tuscaloosa", "brand": "Two Men and a Truck", "brand:wikidata": "Q7859087"}, "geometry": {"type": "Point", "coordinates": [-87.54397, 33.268922]}},
{"type": "Feature", "id": "b0AlqWoYBo-juIMPD6MUmcfkyMA=", "properties": {"ref": "100145", "@spider": "two_men_and_truck", "addr:full": "912 47th St SW", "addr:city": "Wyoming", "addr:state": "MI", "addr:postcode": "49509", "addr:country": "US", "name": "Grand Rapids South", "phone": "616.245.9200", "website": "https://twomenandatruck.com/movers/mi/grand-rapids/south", "brand": "Two Men and a Truck", "brand:wikidata": "Q7859087"}, "geometry": {"type": "Point", "coordinates": [-85.688084, 42.878261]}},
{"type": "Feature", "id": "4HyFaM1Q_mTBKQIj0r2o7hfSSTg=", "properties": {"ref": "100147", "@spider": "two_men_and_truck", "addr:full": "701 W Bradley Ave", "addr:city": "Champaign", "addr:state": "IL", "addr:postcode": "61820", "addr:country": "US", "name": "Champaign", "phone": "217.398.2636", "website": "https://twomenandatruck.com/movers/il/champaign", "brand": "Two Men and a Truck", "brand:wikidata": "Q7859087"}, "geometry": {"type": "Point", "coordinates": [-88.25371, 40.12683]}},
{"type": "Feature", "id": "NIh-Fkm-sgTZQhacXUMx__qQ8E0=", "properties": {"ref": "100148", "@spider": "two_men_and_truck", "addr:full": "907 E Grove St", "addr:city": "Bloomington", "addr:state": "IL", "addr:postcode": "61701", "addr:country": "US", "name": "Bloomington", "phone": "309-807-5340", "website": "https://twomenandatruck.com/movers/il/bloomington", "brand": "Two Men and a Truck", "brand:wikidata": "Q7859087"}, "geometry": {"type": "Point", "coordinates": [-88.98189, 40.47743]}},
{"type": "Feature", "id": "mgrAnqBOSOJaVKwPlOyhTxKuP7k=", "properties": {"ref": "100149", "@spider": "two_men_and_truck", "addr:full": "1330 N McDonald St", "addr:city": "McKinney", "addr:state": "TX", "addr:postcode": "75071", "addr:country": "US", "name": "McKinney", "phone": "214.349.6754", "website": "https://twomenandatruck.com/movers/tx/dallas/mckinney", "brand": "Two Men and a Truck", "brand:wikidata": "Q7859087"}, "geometry": {"type": "Point", "coordinates": [-96.61214, 33.2118]}},
{"type": "Feature", "id": "QVCkcFMhf3JVfG_SPAJeDBX9Mak=", "properties": {"ref": "100151", "@spider": "two_men_and_truck", "addr:full": "1128 Hwy 54 E", "addr:city": "Fayetteville", "addr:state": "GA", "addr:postcode": "30214", "addr:country": "US", "name": "Peachtree City", "phone": "770.631.6683", "website": "https://twomenandatruck.com/movers/ga/atlanta/peach-tree-city", "brand": "Two Men and a Truck", "brand:wikidata": "Q7859087"}, "geometry": {"type": "Point", "coordinates": [-84.425929, 33.454622]}},
{"type": "Feature", "id": "TURr7JoBL8RQNPPsU2J9Wlwc_5U=", "properties": {"ref": "100152", "@spider": "two_men_and_truck", "addr:full": "121 Eason Dr", "addr:city": "Pooler", "addr:state": "GA", "addr:postcode": "31322", "addr:country": "US", "name": "Savannah", "phone": "912.966.0600", "website": "https://twomenandatruck.com/movers/ga/savannah", "brand": "Two Men and a Truck", "brand:wikidata": "Q7859087"}, "geometry": {"type": "Point", "coordinates": [-81.19949, 32.084615]}},
{"type": "Feature", "id": "rbZxwY4MPSAlBbC-eRIIB-iKWvI=", "properties": {"ref": "100153", "@spider": "two_men_and_truck", "addr:full": "220 Spring Hill Dr", "addr:city": "Spring", "addr:state": "TX", "addr:postcode": "77386", "addr:country": "US", "name": "Montgomery County", "phone": "281.419.5200", "website": "https://twomenandatruck.com/movers/tx/houston/spring", "brand": "Two Men and a Truck", "brand:wikidata": "Q7859087"}, "geometry": {"type": "Point", "coordinates": [-95.44034, 30.12205]}},
{"type": "Feature", "id": "HLddWluRaLoYVY7oA_RSTmK4FxY=", "properties": {"ref": "100155", "@spider": "two_men_and_truck", "addr:full": "47 Nepperhan Ave", "addr:city": "Elmsford", "addr:state": "NY", "addr:postcode": "10523", "addr:country": "US", "name": "Westchester", "phone": "914.266.8025", "website": "https://twomenandatruck.com/movers/ny/westchester", "brand": "Two Men and a Truck", "brand:wikidata": "Q7859087"}, "geometry": {"type": "Point", "coordinates": [-73.81752, 41.0589]}},
{"type": "Feature", "id": "4yGKy5ggZswdSdYcBfEG4UPCsPg=", "properties": {"ref": "100156", "@spider": "two_men_and_truck", "addr:full": "8362 Galena Ave", "addr:city": "Sacramento", "addr:state": "CA", "addr:postcode": "95828", "addr:country": "US", "name": "Sacramento", "phone": "916.852.7411", "website": "https://twomenandatruck.com/movers/ca/sacramento", "brand": "Two Men and a Truck", "brand:wikidata": "Q7859087"}, "geometry": {"type": "Point", "coordinates": [-121.39316, 38.51773]}},
{"type": "Feature", "id": "VaL6fRpgHjtjfHQDFudF92EnAQ0=", "properties": {"ref": "100157", "@spider": "two_men_and_truck", "addr:full": "5777 Decatur Blvd", "addr:city": "Indianapolis", "addr:state": "IN", "addr:postcode": "46241", "addr:country": "US", "name": "Indianapolis West", "phone": "317.875.6683", "website": "https://twomenandatruck.com/movers/in/indianapolis/central", "brand": "Two Men and a Truck", "brand:wikidata": "Q7859087"}, "geometry": {"type": "Point", "coordinates": [-86.295193, 39.678115]}},
{"type": "Feature", "id": "gyd0msT-poeB0HnzBPCfXaQeHzQ=", "properties": {"ref": "100158", "@spider": "two_men_and_truck", "addr:full": "1365 Sadlier Cir S Dr", "addr:city": "Indianapolis", "addr:state": "IN", "addr:postcode": "46239", "addr:country": "US", "name": "Indianapolis East ", "phone": "317.644.0700", "website": "https://twomenandatruck.com/movers/in/indianapolis/east", "brand": "Two Men and a Truck", "brand:wikidata": "Q7859087"}, "geometry": {"type": "Point", "coordinates": [-86.037516, 39.748568]}},
{"type": "Feature", "id": "2vPmBQiMjn5GkjnSWgOOM5Xm8fE=", "properties": {"ref": "100160", "@spider": "two_men_and_truck", "addr:full": "19001 Sibley Rd.", "addr:city": "Brownstown", "addr:state": "MI", "addr:postcode": "48193", "addr:country": "US", "name": "Wayne County South", "phone": "734.692.8057", "website": "https://twomenandatruck.com/movers/mi/brownstown", "brand": "Two Men and a Truck", "brand:wikidata": "Q7859087"}, "geometry": {"type": "Point", "coordinates": [-83.223752, 42.169181]}},
{"type": "Feature", "id": "pf-24gHfOHO3SinF-NRZ_0Q7kkE=", "properties": {"ref": "100161", "@spider": "two_men_and_truck", "addr:full": "520 Central Pkwy E", "addr:city": "Plano", "addr:state": "TX", "addr:postcode": "75074", "addr:country": "US", "name": "Garland", "phone": "972.479.1995", "website": "https://twomenandatruck.com/movers/tx/dallas/garland", "brand": "Two Men and a Truck", "brand:wikidata": "Q7859087"}, "geometry": {"type": "Point", "coordinates": [-96.70755, 33.02576]}},
{"type": "Feature", "id": "5ansxyQEnWgWIfsOClcQjYJBcRM=", "properties": {"ref": "100165", "@spider": "two_men_and_truck", "addr:full": "850 West Baltimore", "addr:city": "Detroit", "addr:state": "MI", "addr:postcode": "48202", "addr:country": "US", "name": "Detroit", "phone": "313.749.1000", "website": "https://twomenandatruck.com/movers/mi/detroit", "brand": "Two Men and a Truck", "brand:wikidata": "Q7859087"}, "geometry": {"type": "Point", "coordinates": [-83.078859, 42.366067]}},
{"type": "Feature", "id": "O_kI8PzQMjViw-b2CHqvAbhyU00=", "properties": {"ref": "100166", "@spider": "two_men_and_truck", "addr:full": "Dispatch Location Only", "addr:city": "Elmhurst", "addr:state": "IL", "addr:postcode": "60126", "addr:country": "US", "name": "Elmhurst", "phone": "630.834.6683", "website": "https://twomenandatruck.com/movers/il/chicago/lombard", "brand": "Two Men and a Truck", "brand:wikidata": "Q7859087"}, "geometry": {"type": "Point", "coordinates": [-87.96051, 41.870918]}},
{"type": "Feature", "id": "qTF3WQ7IKZnOdGHrRVMrIZS_Gj4=", "properties": {"ref": "100167", "@spider": "two_men_and_truck", "addr:full": "Dispatch Location Only", "addr:city": "Wheaton", "addr:state": "IL", "addr:postcode": "60189", "addr:country": "US", "name": "Wheaton", "phone": "630.315.2600", "website": "https://twomenandatruck.com/movers/il/chicago/wheaton", "brand": "Two Men and a Truck", "brand:wikidata": "Q7859087"}, "geometry": {"type": "Point", "coordinates": [-88.08877, 41.830892]}},
{"type": "Feature", "id": "IAJdGBYgBIpnOFJ892XSmrDmTqQ=", "properties": {"ref": "100168", "@spider": "two_men_and_truck", "addr:full": "344 St Paul Blvd", "addr:city": "Carol Stream", "addr:state": "IL", "addr:postcode": "60188", "addr:country": "US", "name": "Carol Stream", "phone": "630.315.9400", "website": "https://twomenandatruck.com/movers/il/chicago/carol-stream", "brand": "Two Men and a Truck", "brand:wikidata": "Q7859087"}, "geometry": {"type": "Point", "coordinates": [-88.111463, 41.911332]}},
{"type": "Feature", "id": "-CseDelmM30lmxrNbFWTinCdg8M=", "properties": {"ref": "100169", "@spider": "two_men_and_truck", "addr:full": "8251 15th St E", "addr:city": "Sarasota", "addr:state": "FL", "addr:postcode": "34243", "addr:country": "US", "name": "Sarasota", "phone": "941.359.1904", "website": "https://twomenandatruck.com/movers/fl/sarasota", "brand": "Two Men and a Truck", "brand:wikidata": "Q7859087"}, "geometry": {"type": "Point", "coordinates": [-82.546006, 27.392571]}},
{"type": "Feature", "id": "Joqd7eSZeNdymYbDbqD-vc4Mfjg=", "properties": {"ref": "100171", "@spider": "two_men_and_truck", "addr:full": "292 Swanson Dr", "addr:city": "Lawrenceville", "addr:state": "GA", "addr:postcode": "30043", "addr:country": "US", "name": "Lawrenceville", "phone": "\u200b770.932.9898", "website": "https://twomenandatruck.com/movers/ga/atlanta/lawrenceville", "brand": "Two Men and a Truck", "brand:wikidata": "Q7859087"}, "geometry": {"type": "Point", "coordinates": [-83.99004, 33.988277]}},
{"type": "Feature", "id": "9MrjynG1qln8ylvLhqvlBL_vzIs=", "properties": {"ref": "100184", "@spider": "two_men_and_truck", "addr:full": "2423 W Hubbard St", "addr:city": "Chicago", "addr:state": "IL", "addr:postcode": "60612", "addr:country": "US", "name": "Chicago Downtown ", "phone": "847.544.5050", "website": "https://twomenandatruck.com/movers/il/chicago/downtown", "brand": "Two Men and a Truck", "brand:wikidata": "Q7859087"}, "geometry": {"type": "Point", "coordinates": [-87.68854, 41.88902]}},
{"type": "Feature", "id": "Ez57huV-KM418S8SqpibBxFQqlY=", "properties": {"ref": "100455", "@spider": "two_men_and_truck", "addr:full": "1900 Raymond Dr", "addr:city": "Northbrook", "addr:state": "IL", "addr:postcode": "60062", "addr:country": "US", "name": "Northbrook", "phone": "847.544.5050", "website": "https://twomenandatruck.com/movers/il/chicago/northbrook", "brand": "Two Men and a Truck", "brand:wikidata": "Q7859087"}, "geometry": {"type": "Point", "coordinates": [-87.82677, 42.11244]}},
{"type": "Feature", "id": "ZsofM7fvvL1Oo6lKx3D-sirYs1k=", "properties": {"ref": "100178", "@spider": "two_men_and_truck", "addr:full": "8136 E 48th St", "addr:city": "Tulsa", "addr:state": "OK", "addr:postcode": "74145", "addr:country": "US", "name": "Tulsa", "phone": "918.234.2636", "website": "https://twomenandatruck.com/movers/ok/tulsa", "brand": "Two Men and a Truck", "brand:wikidata": "Q7859087"}, "geometry": {"type": "Point", "coordinates": [-95.846861, 36.076964]}},
{"type": "Feature", "id": "Q-2WvVoDxkCnKQ3Nvptha7V7saQ=", "properties": {"ref": "100179", "@spider": "two_men_and_truck", "addr:full": "1874 Piedmont Ave NE", "addr:city": "Atlanta", "addr:state": "GA", "addr:postcode": "30324", "addr:country": "US", "name": "Atlanta and Morningside", "phone": "\u200b770.457.0111", "website": "https://twomenandatruck.com/movers/ga/atlanta/morningside", "brand": "Two Men and a Truck", "brand:wikidata": "Q7859087"}, "geometry": {"type": "Point", "coordinates": [-84.366622, 33.807643]}},
{"type": "Feature", "id": "cmcx_a-euVA_gT9AFGCAOCktJVU=", "properties": {"ref": "100180", "@spider": "two_men_and_truck", "addr:full": "2500 West 15th Street", "addr:city": "Panama City", "addr:state": "FL", "addr:postcode": "32401", "addr:country": "US", "name": "Panama City", "phone": "850.785.2222", "website": "https://twomenandatruck.com/movers/fl/panama-city", "brand": "Two Men and a Truck", "brand:wikidata": "Q7859087"}, "geometry": {"type": "Point", "coordinates": [-85.696497, 30.175592]}},
{"type": "Feature", "id": "Q8opy8II0q_ltbm4CV61kxSDDus=", "properties": {"ref": "100181", "@spider": "two_men_and_truck", "addr:full": "64 Eglin Parkway Northeast", "addr:city": "Fort Walton Beach", "addr:state": "FL", "addr:postcode": "32548", "addr:country": "US", "name": "Destin", "phone": "850.267.0444", "website": "https://twomenandatruck.com/movers/fl/destin", "brand": "Two Men and a Truck", "brand:wikidata": "Q7859087"}, "geometry": {"type": "Point", "coordinates": [-86.606819, 30.415215]}},
{"type": "Feature", "id": "2fSZgC7Yv1pqlq8SOCvhLfh8HlI=", "properties": {"ref": "100183", "@spider": "two_men_and_truck", "addr:full": "156 Douglas Rd E", "addr:city": "Oldsmar", "addr:state": "FL", "addr:postcode": "34677", "addr:country": "US", "name": "Clearwater", "phone": "727.736.8000", "website": "https://twomenandatruck.com/movers/fl/clearwater", "brand": "Two Men and a Truck", "brand:wikidata": "Q7859087"}, "geometry": {"type": "Point", "coordinates": [-82.661319, 28.042078]}},
{"type": "Feature", "id": "Nw9ImJYSkmZbuqSk6uOQedNFtBU=", "properties": {"ref": "100172", "@spider": "two_men_and_truck", "addr:full": "622 E. Northwest Hwy", "addr:city": "Des Plaines", "addr:state": "IL", "addr:postcode": "60016", "addr:country": "US", "name": "Des Plaines", "phone": "312.291.2668", "website": "https://twomenandatruck.com/movers/il/chicago/des-plaines", "brand": "Two Men and a Truck", "brand:wikidata": "Q7859087"}, "geometry": {"type": "Point", "coordinates": [-87.907938, 42.05131]}},
{"type": "Feature", "id": "qDw2VYif-6hAM59fmM3VML2HvV4=", "properties": {"ref": "100186", "@spider": "two_men_and_truck", "addr:full": "7420 Duvan Dr", "addr:city": "Tinley Park", "addr:state": "IL", "addr:postcode": "60477", "addr:country": "US", "name": "Orland Park", "phone": "708.460.6685", "website": "https://twomenandatruck.com/movers/il/chicago/orland-park", "brand": "Two Men and a Truck", "brand:wikidata": "Q7859087"}, "geometry": {"type": "Point", "coordinates": [-87.79867, 41.57114]}},
{"type": "Feature", "id": "QGBupw1zbo5QFM7VOdAMsrKpD34=", "properties": {"ref": "100187", "@spider": "two_men_and_truck", "addr:full": "1257 G. Kennestone Circle", "addr:city": "Marietta", "addr:state": "GA", "addr:postcode": "30066", "addr:country": "US", "name": "Marietta", "phone": "770.792.0304", "website": "https://twomenandatruck.com/movers/ga/atlanta/marietta", "brand": "Two Men and a Truck", "brand:wikidata": "Q7859087"}, "geometry": {"type": "Point", "coordinates": [-84.549736, 33.983274]}},
{"type": "Feature", "id": "aBU29EPoPhSLGtUgjf8ohFTgi0w=", "properties": {"ref": "100188", "@spider": "two_men_and_truck", "addr:full": "100 Arnold Mill Way", "addr:city": "Woodstock", "addr:state": "GA", "addr:postcode": "30188", "addr:country": "US", "name": "Woodstock", "phone": "\u200b770.792.0304", "website": "https://twomenandatruck.com/movers/ga/atlanta/woodstock-cherokee", "brand": "Two Men and a Truck", "brand:wikidata": "Q7859087"}, "geometry": {"type": "Point", "coordinates": [-84.51894, 34.101353]}},
{"type": "Feature", "id": "JbSUgPg7VnjWZy0_J8WrSQt8ASY=", "properties": {"ref": "100189", "@spider": "two_men_and_truck", "addr:full": "1250 Rankin Dr.", "addr:city": "Troy", "addr:state": "MI", "addr:postcode": "48083", "addr:country": "US", "name": "Troy", "phone": "248.356.6683", "website": "https://twomenandatruck.com/movers/mi/troy", "brand": "Two Men and a Truck", "brand:wikidata": "Q7859087"}, "geometry": {"type": "Point", "coordinates": [-83.127535, 42.541887]}},
{"type": "Feature", "id": "aB8jgkH9oqLzRuUhULjHecB6Egg=", "properties": {"ref": "100190", "@spider": "two_men_and_truck", "addr:full": "2211 E Division St", "addr:city": "Arlington", "addr:state": "TX", "addr:postcode": "76011", "addr:country": "US", "name": "Arlington", "phone": "817.633.6683", "website": "https://twomenandatruck.com/movers/tx/dallas/arlington", "brand": "Two Men and a Truck", "brand:wikidata": "Q7859087"}, "geometry": {"type": "Point", "coordinates": [-97.0722, 32.743669]}},
{"type": "Feature", "id": "SpA7XZWHKp0iF1RGHXXQmzqNVp8=", "properties": {"ref": "100192", "@spider": "two_men_and_truck", "addr:full": "1095 Pingree Rd. Suite 107", "addr:city": "Crystal Lake", "addr:state": "IL", "addr:postcode": "60014", "addr:country": "US", "name": "McHenry", "phone": "224.333.0031", "website": "https://twomenandatruck.com/movers/il/chicago/crystal-lake", "brand": "Two Men and a Truck", "brand:wikidata": "Q7859087"}, "geometry": {"type": "Point", "coordinates": [-88.295023, 42.210684]}},
{"type": "Feature", "id": "8EPz08486gzkhKJtD7hSoXlahSM=", "properties": {"ref": "100193", "@spider": "two_men_and_truck", "addr:full": "17050 Cam Ct", "addr:city": "Ft. Myers", "addr:state": "FL", "addr:postcode": "33967", "addr:country": "US", "name": "Fort Myers", "phone": "239.337.3331", "website": "https://twomenandatruck.com/movers/fl/fort-myers", "brand": "Two Men and a Truck", "brand:wikidata": "Q7859087"}, "geometry": {"type": "Point", "coordinates": [-81.82542, 26.4915]}},
{"type": "Feature", "id": "-MwG2Ti4lQB9FzQNhePNvzOK86c=", "properties": {"ref": "100194", "@spider": "two_men_and_truck", "addr:full": "710 W National Rd.", "addr:city": "Vandalia", "addr:state": "OH", "addr:postcode": "45377", "addr:country": "US", "name": "Dayton North", "phone": "937.401.3430", "website": "https://twomenandatruck.com/movers/oh/dayton/north", "brand": "Two Men and a Truck", "brand:wikidata": "Q7859087"}, "geometry": {"type": "Point", "coordinates": [-84.211463, 39.88969]}},
{"type": "Feature", "id": "60s5z9suFqOWj0C64B7fTsxvmG0=", "properties": {"ref": "100195", "@spider": "two_men_and_truck", "addr:full": "840 Victory Dr", "addr:city": "Howell", "addr:state": "MI", "addr:postcode": "48843", "addr:country": "US", "name": "Brighton", "phone": "810.588.5930", "website": "https://twomenandatruck.com/movers/mi/brighton", "brand": "Two Men and a Truck", "brand:wikidata": "Q7859087"}, "geometry": {"type": "Point", "coordinates": [-83.89433, 42.58894]}},
{"type": "Feature", "id": "TOEtFGZqZRvW4IscO4U2WnGNv34=", "properties": {"ref": "100196", "@spider": "two_men_and_truck", "addr:full": "4230 Industrial Center Ln NW", "addr:city": "Acworth", "addr:state": "GA", "addr:postcode": "30101", "addr:country": "US", "name": "Cobb County South ", "phone": "770.422.6680", "website": "https://twomenandatruck.com/movers/ga/atlanta/cobb-south", "brand": "Two Men and a Truck", "brand:wikidata": "Q7859087"}, "geometry": {"type": "Point", "coordinates": [-84.646938, 34.059596]}},
{"type": "Feature", "id": "o6BOC8m1ZcRskpEqutzp5PUfrmg=", "properties": {"ref": "100197", "@spider": "two_men_and_truck", "addr:full": "2976 C Ask-Kay Drive", "addr:city": "Smyrna", "addr:state": "GA", "addr:postcode": "30082", "addr:country": "US", "name": "Smyrna", "phone": "678.305.7304", "website": "https://twomenandatruck.com/movers/ga/atlanta/smyrna", "brand": "Two Men and a Truck", "brand:wikidata": "Q7859087"}, "geometry": {"type": "Point", "coordinates": [-84.535572, 33.878943]}},
{"type": "Feature", "id": "IypUM87TQ-4BNVnHVOByNdu1gDY=", "properties": {"ref": "100198", "@spider": "two_men_and_truck", "addr:full": "3620 N M St", "addr:city": "Pensacola", "addr:state": "FL", "addr:postcode": "32505", "addr:country": "US", "name": "Pensacola", "phone": "850.471.1166", "website": "https://twomenandatruck.com/movers/fl/pensacola", "brand": "Two Men and a Truck", "brand:wikidata": "Q7859087"}, "geometry": {"type": "Point", "coordinates": [-87.236771, 30.44923]}},
{"type": "Feature", "id": "rkiHtnKkyxUDHuTSQuj3JU9UqaQ=", "properties": {"ref": "100199", "@spider": "two_men_and_truck", "addr:full": "903 S Main St", "addr:city": "South Bend", "addr:state": "IN", "addr:postcode": "46601", "addr:country": "US", "name": "South Bend", "phone": "574.309.9868", "website": "https://twomenandatruck.com/movers/in/south-bend", "brand": "Two Men and a Truck", "brand:wikidata": "Q7859087"}, "geometry": {"type": "Point", "coordinates": [-86.252285, 41.664961]}},
{"type": "Feature", "id": "8TLZF0n2Ppg5aIgZUQd6_DuiX6c=", "properties": {"ref": "100200", "@spider": "two_men_and_truck", "addr:full": "1030 W Olympia Dr", "addr:city": "Peoria", "addr:state": "IL", "addr:postcode": "61615", "addr:country": "US", "name": "Peoria", "phone": "309.689.1600", "website": "https://twomenandatruck.com/movers/il/peoria", "brand": "Two Men and a Truck", "brand:wikidata": "Q7859087"}, "geometry": {"type": "Point", "coordinates": [-89.6111, 40.78619]}},
{"type": "Feature", "id": "7pxROPwIS4HwNCoM21BXxngLVc0=", "properties": {"ref": "100201", "@spider": "two_men_and_truck", "addr:full": "11818 S Harrells Ferry Rd", "addr:city": "Baton Rouge", "addr:state": "LA", "addr:postcode": "70816", "addr:country": "US", "name": "Baton Rouge", "phone": "225.771.8680", "website": "https://twomenandatruck.com/movers/la/baton-rouge", "brand": "Two Men and a Truck", "brand:wikidata": "Q7859087"}, "geometry": {"type": "Point", "coordinates": [-91.0509, 30.43072]}},
{"type": "Feature", "id": "ux2tngLziWkwwFAuHV9gqodxgXo=", "properties": {"ref": "100206", "@spider": "two_men_and_truck", "addr:full": "301 Air Park Dr", "addr:city": "Fort Collins", "addr:state": "CO", "addr:postcode": "80524", "addr:country": "US", "name": "Fort Collins", "phone": "970.686.6683", "website": "https://twomenandatruck.com/movers/co/fort-collins", "brand": "Two Men and a Truck", "brand:wikidata": "Q7859087"}, "geometry": {"type": "Point", "coordinates": [-105.04371, 40.58395]}},
{"type": "Feature", "id": "bqm9tN8B4aQj_HnuD3mHYnhqnK4=", "properties": {"ref": "100208", "@spider": "two_men_and_truck", "addr:full": "N. 216 Cooley Drive", "addr:city": "Oklahoma City", "addr:state": "OK", "addr:postcode": "73127", "addr:country": "US", "name": "Oklahoma City", "phone": "405.708.7707", "website": "https://twomenandatruck.com/movers/ok/oklahoma-city", "brand": "Two Men and a Truck", "brand:wikidata": "Q7859087"}, "geometry": {"type": "Point", "coordinates": [-97.681009, 35.469038]}},
{"type": "Feature", "id": "w6l0xzwrHNjmbcECFf1Gub7sZLU=", "properties": {"ref": "100209", "@spider": "two_men_and_truck", "addr:full": "379 W. Michigan St. Suite 200", "addr:city": "Orlando", "addr:state": "FL", "addr:postcode": "32806", "addr:country": "US", "name": "Orlando East", "phone": "407.852.1777", "website": "https://twomenandatruck.com/movers/fl/orlando/east", "brand": "Two Men and a Truck", "brand:wikidata": "Q7859087"}, "geometry": {"type": "Point", "coordinates": [-81.382059, 28.513535]}},
{"type": "Feature", "id": "rF1uVC2iMu20yqrrjKXzxTb9EcQ=", "properties": {"ref": "100210", "@spider": "two_men_and_truck", "addr:full": "3021 Crestwood Blvd", "addr:city": "Birmingham", "addr:state": "AL", "addr:postcode": "35210", "addr:country": "US", "name": "Birmingham", "phone": "205.970.2272", "website": "https://twomenandatruck.com/movers/al/birmingham", "brand": "Two Men and a Truck", "brand:wikidata": "Q7859087"}, "geometry": {"type": "Point", "coordinates": [-86.68074, 33.54557]}},
{"type": "Feature", "id": "Rx9urhJovI_4E4av-6HXhT0E984=", "properties": {"ref": "100211", "@spider": "two_men_and_truck", "addr:full": "7703 Kingspointe Pkwy", "addr:city": "Orlando", "addr:state": "FL", "addr:postcode": "32819", "addr:country": "US", "name": "Orlando West", "phone": "407.254.5000", "website": "https://twomenandatruck.com/movers/fl/orlando/west", "brand": "Two Men and a Truck", "brand:wikidata": "Q7859087"}, "geometry": {"type": "Point", "coordinates": [-81.439772, 28.454365]}},
{"type": "Feature", "id": "PJr-5SeWq1W5sQ0a6fD04jhZS74=", "properties": {"ref": "100212", "@spider": "two_men_and_truck", "addr:full": "5265 Tractor Rd", "addr:city": "Toledo", "addr:state": "OH", "addr:postcode": "43612", "addr:country": "US", "name": "Toledo", "phone": "419.882.1002", "website": "https://twomenandatruck.com/movers/oh/toledo", "brand": "Two Men and a Truck", "brand:wikidata": "Q7859087"}, "geometry": {"type": "Point", "coordinates": [-83.553377, 41.71379]}},
{"type": "Feature", "id": "z5g5wEsFhsZCQJjDa-ramhl1Wb0=", "properties": {"ref": "100446", "@spider": "two_men_and_truck", "addr:full": "26624 Glenwood Rd", "addr:city": "Perrysburg", "addr:state": "OH", "addr:postcode": "43551", "addr:country": "US", "name": "Perrysburg", "phone": "419.882.1002", "website": "https://twomenandatruck.com/movers/oh/perrysburg", "brand": "Two Men and a Truck", "brand:wikidata": "Q7859087"}, "geometry": {"type": "Point", "coordinates": [-83.55701, 41.53887]}},
{"type": "Feature", "id": "6ITzAaKCNSDh8f3rRXb6K_w5JTU=", "properties": {"ref": "100215", "@spider": "two_men_and_truck", "addr:full": "102 Crystal Ave", "addr:city": "Findlay", "addr:state": "OH", "addr:postcode": "45840", "addr:country": "US", "name": "Findlay", "phone": "567.525.4756", "website": "https://twomenandatruck.com/movers/oh/findlay", "brand": "Two Men and a Truck", "brand:wikidata": "Q7859087"}, "geometry": {"type": "Point", "coordinates": [-83.64677, 41.04766]}},
{"type": "Feature", "id": "zOHFww-5sxJYy3ZS0ySonOuomjY=", "properties": {"ref": "100216", "@spider": "two_men_and_truck", "addr:full": "7886 Washington Avenue", "addr:city": "Racine", "addr:state": "WI", "addr:postcode": "53406", "addr:country": "US", "name": "Racine", "phone": "262.619.9200", "website": "https://twomenandatruck.com/movers/wi/racine", "brand": "Two Men and a Truck", "brand:wikidata": "Q7859087"}, "geometry": {"type": "Point", "coordinates": [-87.878562, 42.719961]}},
{"type": "Feature", "id": "vgFCiSD6VXvogGU4__dqcztD5k0=", "properties": {"ref": "100218", "@spider": "two_men_and_truck", "addr:full": "6920 W Central Ave", "addr:city": "Wichita", "addr:state": "KS", "addr:postcode": "67212", "addr:country": "US", "name": "Wichita", "phone": "316.558.5588", "website": "https://twomenandatruck.com/movers/ks/wichita/west", "brand": "Two Men and a Truck", "brand:wikidata": "Q7859087"}, "geometry": {"type": "Point", "coordinates": [-97.423306, 37.695014]}},
{"type": "Feature", "id": "fb7J4wiAPXJ1h4o1M47RsVSOL2A=", "properties": {"ref": "100220", "@spider": "two_men_and_truck", "addr:full": "26 NW 1st St", "addr:city": "Hallandale Beach", "addr:state": "FL", "addr:postcode": "33009", "addr:country": "US", "name": "Hallandale Beach", "phone": "305.819.3340", "website": "https://twomenandatruck.com/movers/fl/hallandale-beach", "brand": "Two Men and a Truck", "brand:wikidata": "Q7859087"}, "geometry": {"type": "Point", "coordinates": [-80.149147, 25.98632]}},
{"type": "Feature", "id": "HuE-WWahSj1IPRQTA47mIUiuSPc=", "properties": {"ref": "100223", "@spider": "two_men_and_truck", "addr:full": "5029 Bloomfield St", "addr:city": "New Orleans", "addr:state": "LA", "addr:postcode": "70121", "addr:country": "US", "name": "New Orleans", "phone": "504.570.6683", "website": "https://twomenandatruck.com/movers/la/new-orleans", "brand": "Two Men and a Truck", "brand:wikidata": "Q7859087"}, "geometry": {"type": "Point", "coordinates": [-90.182508, 29.962456]}},
{"type": "Feature", "id": "NQlv2ATbJ5LNg7WcH3TedURGYRs=", "properties": {"ref": "100224", "@spider": "two_men_and_truck", "addr:full": "130 Stratford Ct", "addr:city": "Winston-Salem", "addr:state": "NC", "addr:postcode": "27103", "addr:country": "US", "name": "Winston-Salem", "phone": "336.722.8844", "website": "https://twomenandatruck.com/movers/nc/winston-salem", "brand": "Two Men and a Truck", "brand:wikidata": "Q7859087"}, "geometry": {"type": "Point", "coordinates": [-80.277602, 36.092584]}},
{"type": "Feature", "id": "0PuTSjkZPtCob0W2B_lOrhJixaA=", "properties": {"ref": "100225", "@spider": "two_men_and_truck", "addr:full": "3208 Belt Line Rd", "addr:city": "Dallas", "addr:state": "TX", "addr:postcode": "75234", "addr:country": "US", "name": "Carrollton", "phone": "972.242.9153", "website": "https://twomenandatruck.com/movers/tx/dallas/carrollton", "brand": "Two Men and a Truck", "brand:wikidata": "Q7859087"}, "geometry": {"type": "Point", "coordinates": [-96.869141, 32.952431]}},