{"type":"FeatureCollection","features":[{"type": "Feature", "id": "_10r5-RJpKb7s3fwHnswB7d-gac=", "properties": {"ref": "440 North Main Street", "@spider": "vetco", "addr:full": "440 North Main Street", "addr:city": "East Longmeadow", "addr:state": "MA", "addr:postcode": "01028", "website": "https://www.vetcoclinics.com/_assets/dynamic/ajax/locator.php?zip=01001", "brand": "Vetco Clinics"}, "geometry": {"type": "Point", "coordinates": [-72.527261, 42.077663]}},
{"type": "Feature", "id": "xdEMDAi3tWMLY-OmTXPSuWLk5_Y=", "properties": {"ref": "25 Hazard Avenue", "@spider": "vetco", "addr:full": "25 Hazard Avenue", "addr:city": "Enfield", "addr:state": "CT", "addr:postcode": "06082", "website": "https://www.vetcoclinics.com/_assets/dynamic/ajax/locator.php?zip=01001", "brand": "Vetco Clinics"}, "geometry": {"type": "Point", "coordinates": [-72.58076, 41.991522]}},
{"type": "Feature", "id": "cUbDJImoKXXhZTgRfBROhbY8uf8=", "properties": {"ref": "45 Holyoke Street", "@spider": "vetco", "addr:full": "45 Holyoke Street", "addr:city": "Holyoke", "addr:state": "MA", "addr:postcode": "01040", "website": "https://www.vetcoclinics.com/_assets/dynamic/ajax/locator.php?zip=01001", "brand": "Vetco Clinics"}, "geometry": {"type": "Point", "coordinates": [-72.641754, 42.172622]}},
{"type": "Feature", "id": "yeuMUKZAeKoJa-NL5gJYbVPdK5A=", "properties": {"ref": "1694 Boston Road", "@spider": "vetco", "addr:full": "1694 Boston Road", "addr:city": "Springfield", "addr:state": "MA", "addr:postcode": "01129", "website": "https://www.vetcoclinics.com/_assets/dynamic/ajax/locator.php?zip=01001", "brand": "Vetco Clinics"}, "geometry": {"type": "Point", "coordinates": [-72.487581, 42.145458]}},
{"type": "Feature", "id": "SIo6GiheDn1VCP3Md4z4i2-DW0Y=", "properties": {"ref": "1065 Kennedy Road", "@spider": "vetco", "addr:full": "1065 Kennedy Road", "addr:city": "Windsor", "addr:state": "CT", "addr:postcode": "06095", "website": "https://www.vetcoclinics.com/_assets/dynamic/ajax/locator.php?zip=01001", "brand": "Vetco Clinics"}, "geometry": {"type": "Point", "coordinates": [-72.651029, 41.89122]}},
{"type": "Feature", "id": "J4X-KSTQ5bqCk-Isi9nHWNg6k9c=", "properties": {"ref": "101 Hale Road", "@spider": "vetco", "addr:full": "101 Hale Road", "addr:city": "Manchester", "addr:state": "CT", "addr:postcode": "06040", "website": "https://www.vetcoclinics.com/_assets/dynamic/ajax/locator.php?zip=01001", "brand": "Vetco Clinics"}, "geometry": {"type": "Point", "coordinates": [-72.530063, 41.811653]}},
{"type": "Feature", "id": "pCwNB-YyvrzaO5MiRBAKUWUuAG0=", "properties": {"ref": "9 West Avon Road", "@spider": "vetco", "addr:full": "9 West Avon Road", "addr:city": "Avon", "addr:state": "CT", "addr:postcode": "06001", "website": "https://www.vetcoclinics.com/_assets/dynamic/ajax/locator.php?zip=01001", "brand": "Vetco Clinics"}, "geometry": {"type": "Point", "coordinates": [-72.868438, 41.816055]}},
{"type": "Feature", "id": "eTPloLENDLGbVnO0KVvZfD2S7YQ=", "properties": {"ref": "13 Welles Street", "@spider": "vetco", "addr:full": "13 Welles Street", "addr:city": "Glastonbury", "addr:state": "CT", "addr:postcode": "06033", "website": "https://www.vetcoclinics.com/_assets/dynamic/ajax/locator.php?zip=01001", "brand": "Vetco Clinics"}, "geometry": {"type": "Point", "coordinates": [-72.605633, 41.71416]}},
{"type": "Feature", "id": "sM_pD-Pd81hOWRksFNyBDGOVuTQ=", "properties": {"ref": "1511 Silas Deane Hwy", "@spider": "vetco", "addr:full": "1511 Silas Deane Hwy", "addr:city": "Rocky Hill", "addr:state": "CT", "addr:postcode": "06067", "website": "https://www.vetcoclinics.com/_assets/dynamic/ajax/locator.php?zip=01001", "brand": "Vetco Clinics"}, "geometry": {"type": "Point", "coordinates": [-72.65263, 41.67888]}},
{"type": "Feature", "id": "gdvRbKvCq55zVgTbdA9CEsIS6WI=", "properties": {"ref": "188 Kitts Lane", "@spider": "vetco", "addr:full": "188 Kitts Lane", "addr:city": "Newington", "addr:state": "CT", "addr:postcode": "06111", "website": "https://www.vetcoclinics.com/_assets/dynamic/ajax/locator.php?zip=01001", "brand": "Vetco Clinics"}, "geometry": {"type": "Point", "coordinates": [-72.707283, 41.682266]}},
{"type": "Feature", "id": "6qTI2y8upHMoGwD3ZHOrKrvjfqk=", "properties": {"ref": "110 Charlton Road", "@spider": "vetco", "addr:full": "110 Charlton Road", "addr:city": "Sturbridge", "addr:state": "MA", "addr:postcode": "01566", "website": "https://www.vetcoclinics.com/_assets/dynamic/ajax/locator.php?zip=01001", "brand": "Vetco Clinics"}, "geometry": {"type": "Point", "coordinates": [-72.059184, 42.12588]}},
{"type": "Feature", "id": "QW3i8EwL2qfgxyuDYOC_uBpzFxs=", "properties": {"ref": "980 Torrington Street", "@spider": "vetco", "addr:full": "980 Torrington Street", "addr:city": "Torrington", "addr:state": "CT", "addr:postcode": "06790", "website": "https://www.vetcoclinics.com/_assets/dynamic/ajax/locator.php?zip=01001", "brand": "Vetco Clinics"}, "geometry": {"type": "Point", "coordinates": [-73.115191, 41.793963]}},
{"type": "Feature", "id": "MYETwwLJiq-O1hnLgy3DSp2vWhk=", "properties": {"ref": "86 Storrs Road", "@spider": "vetco", "addr:full": "86 Storrs Road", "addr:city": "Mansfield", "addr:state": "CT", "addr:postcode": "06250", "website": "https://www.vetcoclinics.com/_assets/dynamic/ajax/locator.php?zip=01001", "brand": "Vetco Clinics"}, "geometry": {"type": "Point", "coordinates": [-72.198461, 41.73396]}},
{"type": "Feature", "id": "1VuDm74nmfPFo1p_baW2dVgQY9A=", "properties": {"ref": "760 Queen Street", "@spider": "vetco", "addr:full": "760 Queen Street", "addr:city": "Southington", "addr:state": "CT", "addr:postcode": "06489", "website": "https://www.vetcoclinics.com/_assets/dynamic/ajax/locator.php?zip=01001", "brand": "Vetco Clinics"}, "geometry": {"type": "Point", "coordinates": [-72.875011, 41.637813]}},
{"type": "Feature", "id": "N_ZnctPL0dXB_j9l81NneVB6tvc=", "properties": {"ref": "816 Washington Street", "@spider": "vetco", "addr:full": "816 Washington Street", "addr:city": "Middletown", "addr:state": "CT", "addr:postcode": "06457", "website": "https://www.vetcoclinics.com/_assets/dynamic/ajax/locator.php?zip=01001", "brand": "Vetco Clinics"}, "geometry": {"type": "Point", "coordinates": [-72.682381, 41.5554]}},
{"type": "Feature", "id": "eUCLiu7IDtDBmi7sCSh_Qsew2MM=", "properties": {"ref": "700 Main Street", "@spider": "vetco", "addr:full": "700 Main Street", "addr:city": "Great Barrington", "addr:state": "MA", "addr:postcode": "01230", "website": "https://www.vetcoclinics.com/_assets/dynamic/ajax/locator.php?zip=01001", "brand": "Vetco Clinics"}, "geometry": {"type": "Point", "coordinates": [-73.36482, 42.190217]}},
{"type": "Feature", "id": "ILjxiKVofD_CHA584V_nVmp6Fqg=", "properties": {"ref": "690 Merrill Road", "@spider": "vetco", "addr:full": "690 Merrill Road", "addr:city": "Pittsfield", "addr:state": "MA", "addr:postcode": "01201", "website": "https://www.vetcoclinics.com/_assets/dynamic/ajax/locator.php?zip=01001", "brand": "Vetco Clinics"}, "geometry": {"type": "Point", "coordinates": [-73.201583, 42.467067]}},
{"type": "Feature", "id": "rd2amZdgYnZo96TKp4RcN838gDs=", "properties": {"ref": "438 Southbridge Street", "@spider": "vetco", "addr:full": "438 Southbridge Street", "addr:city": "Auburn", "addr:state": "MA", "addr:postcode": "01501", "website": "https://www.vetcoclinics.com/_assets/dynamic/ajax/locator.php?zip=01001", "brand": "Vetco Clinics"}, "geometry": {"type": "Point", "coordinates": [-71.841067, 42.200635]}},
{"type": "Feature", "id": "dHg6kHiqXHjo50xL9AlpajWq4tA=", "properties": {"ref": "1088 Killingly Commons", "@spider": "vetco", "addr:full": "1088 Killingly Commons", "addr:city": "Dayville", "addr:state": "CT", "addr:postcode": "06241", "website": "https://www.vetcoclinics.com/_assets/dynamic/ajax/locator.php?zip=01001", "brand": "Vetco Clinics"}, "geometry": {"type": "Point", "coordinates": [-71.882628, 41.841531]}},
{"type": "Feature", "id": "OHP4DFGNEdIG_Vphx1ZGP3aQG70=", "properties": {"ref": "235 Union Street", "@spider": "vetco", "addr:full": "235 Union Street", "addr:city": "Waterbury", "addr:state": "CT", "addr:postcode": "06706", "website": "https://www.vetcoclinics.com/_assets/dynamic/ajax/locator.php?zip=01001", "brand": "Vetco Clinics"}, "geometry": {"type": "Point", "coordinates": [-73.033172, 41.553499]}},
{"type": "Feature", "id": "TjUER7QyiEaJRgsO6swUtFo4SxA=", "properties": {"ref": "848 North Colony Road", "@spider": "vetco", "addr:full": "848 North Colony Road", "addr:city": "Wallingford", "addr:state": "CT", "addr:postcode": "06492", "website": "https://www.vetcoclinics.com/_assets/dynamic/ajax/locator.php?zip=01001", "brand": "Vetco Clinics"}, "geometry": {"type": "Point", "coordinates": [-72.809236, 41.478827]}},
{"type": "Feature", "id": "SbQgVd5oq8J-5NeeH6HG9rIPW4E=", "properties": {"ref": "160 River Road", "@spider": "vetco", "addr:full": "160 River Road", "addr:city": "Lisbon", "addr:state": "CT", "addr:postcode": "06351", "website": "https://www.vetcoclinics.com/_assets/dynamic/ajax/locator.php?zip=01001", "brand": "Vetco Clinics"}, "geometry": {"type": "Point", "coordinates": [-71.990687, 41.58758]}},
{"type": "Feature", "id": "mu4XmB2QZ0K_l8jozPVYrRWH5ko=", "properties": {"ref": "50 Boston Turnpike", "@spider": "vetco", "addr:full": "50 Boston Turnpike", "addr:city": "Shrewsbury", "addr:state": "MA", "addr:postcode": "01545", "website": "https://www.vetcoclinics.com/_assets/dynamic/ajax/locator.php?zip=01001", "brand": "Vetco Clinics"}, "geometry": {"type": "Point", "coordinates": [-71.753007, 42.272779]}},
{"type": "Feature", "id": "6sjkKxOtZbptJfnja49PpF14km8=", "properties": {"ref": "2335 Dixwell Avenue", "@spider": "vetco", "addr:full": "2335 Dixwell Avenue", "addr:city": "Hamden", "addr:state": "CT", "addr:postcode": "06514", "website": "https://www.vetcoclinics.com/_assets/dynamic/ajax/locator.php?zip=01001", "brand": "Vetco Clinics"}, "geometry": {"type": "Point", "coordinates": [-72.913688, 41.373323]}},
{"type": "Feature", "id": "hi6T27ijIF7lKLU8bI7PjgY41CY=", "properties": {"ref": "390 Universal Drive", "@spider": "vetco", "addr:full": "390 Universal Drive", "addr:city": "North Haven", "addr:state": "CT", "addr:postcode": "06473", "website": "https://www.vetcoclinics.com/_assets/dynamic/ajax/locator.php?zip=01001", "brand": "Vetco Clinics"}, "geometry": {"type": "Point", "coordinates": [-72.871934, 41.35726]}},
{"type": "Feature", "id": "F_qbgYiCqiqqlnELOMahYScp7XQ=", "properties": {"ref": "1919 Boston Post Road", "@spider": "vetco", "addr:full": "1919 Boston Post Road", "addr:city": "Guilford", "addr:state": "CT", "addr:postcode": "06437", "website": "https://www.vetcoclinics.com/_assets/dynamic/ajax/locator.php?zip=01001", "brand": "Vetco Clinics"}, "geometry": {"type": "Point", "coordinates": [-72.707252, 41.300443]}},
{"type": "Feature", "id": "fkjux3fsQo34he3avIybRfgefnQ=", "properties": {"ref": "7 Glenwood Road", "@spider": "vetco", "addr:full": "7 Glenwood Road", "addr:city": "Clinton", "addr:state": "CT", "addr:postcode": "06413", "website": "https://www.vetcoclinics.com/_assets/dynamic/ajax/locator.php?zip=01001", "brand": "Vetco Clinics"}, "geometry": {"type": "Point", "coordinates": [-72.528444, 41.28943]}},
{"type": "Feature", "id": "PpQPYir2npcFKNrAcbX7fCFFCjE=", "properties": {"ref": "169 Danbury Road", "@spider": "vetco", "addr:full": "169 Danbury Road", "addr:city": "New Milford", "addr:state": "CT", "addr:postcode": "06776", "website": "https://www.vetcoclinics.com/_assets/dynamic/ajax/locator.php?zip=01001", "brand": "Vetco Clinics"}, "geometry": {"type": "Point", "coordinates": [-73.415397, 41.551398]}},
{"type": "Feature", "id": "6xulsnYLYy_gXF_CgCadJO4HQIo=", "properties": {"ref": "825 Hartford Road", "@spider": "vetco", "addr:full": "825 Hartford Road", "addr:city": "Waterford", "addr:state": "CT", "addr:postcode": "06385", "website": "https://www.vetcoclinics.com/_assets/dynamic/ajax/locator.php?zip=01001", "brand": "Vetco Clinics"}, "geometry": {"type": "Point", "coordinates": [-72.138265, 41.373959]}},
{"type": "Feature", "id": "qCKRIzc0V3fbgYWg3_BG9BGVCKw=", "properties": {"ref": "293 North Main Street", "@spider": "vetco", "addr:full": "293 North Main Street", "addr:city": "Leominster", "addr:state": "MA", "addr:postcode": "01453", "website": "https://www.vetcoclinics.com/_assets/dynamic/ajax/locator.php?zip=01001", "brand": "Vetco Clinics"}, "geometry": {"type": "Point", "coordinates": [-71.759961, 42.542293]}},
{"type": "Feature", "id": "vZ5G9hi9ySERZx73dc3y1dltVys=", "properties": {"ref": "169 Federal Road", "@spider": "vetco", "addr:full": "169 Federal Road", "addr:city": "Brookfield", "addr:state": "CT", "addr:postcode": "06804", "website": "https://www.vetcoclinics.com/_assets/dynamic/ajax/locator.php?zip=01001", "brand": "Vetco Clinics"}, "geometry": {"type": "Point", "coordinates": [-73.405585, 41.440055]}},
{"type": "Feature", "id": "uiYt7hSVMR9QoNUlQmin3fWXcik=", "properties": {"ref": "55-63 Key Road", "@spider": "vetco", "addr:full": "55-63 Key Road", "addr:city": "Keene", "addr:state": "NH", "addr:postcode": "03431", "website": "https://www.vetcoclinics.com/_assets/dynamic/ajax/locator.php?zip=01002", "brand": "Vetco Clinics"}, "geometry": {"type": "Point", "coordinates": [-72.292385, 42.924861]}},
{"type": "Feature", "id": "lw7I7rR8pSFlVPqpF7NOzLY-k7M=", "properties": {"ref": "214 Northside Dr", "@spider": "vetco", "addr:full": "214 Northside Dr", "addr:city": "Bennington", "addr:state": "VT", "addr:postcode": "05201", "website": "https://www.vetcoclinics.com/_assets/dynamic/ajax/locator.php?zip=01002", "brand": "Vetco Clinics"}, "geometry": {"type": "Point", "coordinates": [-73.212736, 42.898653]}},
{"type": "Feature", "id": "4psoDaeV1x94CjxpfK31zzewVFA=", "properties": {"ref": "205 Washington Street", "@spider": "vetco", "addr:full": "205 Washington Street", "addr:city": "Hudson", "addr:state": "MA", "addr:postcode": "01749", "website": "https://www.vetcoclinics.com/_assets/dynamic/ajax/locator.php?zip=01005", "brand": "Vetco Clinics"}, "geometry": {"type": "Point", "coordinates": [-71.568831, 42.380098]}},
{"type": "Feature", "id": "epRAzqFIcnkt3qNPUe7PV4JBJcA=", "properties": {"ref": "11 Cornerstone Square", "@spider": "vetco", "addr:full": "11 Cornerstone Square", "addr:city": "Westford", "addr:state": "MA", "addr:postcode": "01886", "website": "https://www.vetcoclinics.com/_assets/dynamic/ajax/locator.php?zip=01005", "brand": "Vetco Clinics"}, "geometry": {"type": "Point", "coordinates": [-71.429179, 42.564819]}},
{"type": "Feature", "id": "gc2UQCf5mlTFQurcTYt4uBYVRpM=", "properties": {"ref": "210 Fortune Boulevard", "@spider": "vetco", "addr:full": "210 Fortune Boulevard", "addr:city": "Milford", "addr:state": "MA", "addr:postcode": "01757", "website": "https://www.vetcoclinics.com/_assets/dynamic/ajax/locator.php?zip=01005", "brand": "Vetco Clinics"}, "geometry": {"type": "Point", "coordinates": [-71.504242, 42.161275]}},
{"type": "Feature", "id": "rhEqKZdZZfH2NGQJJMYWKGkpHT0=", "properties": {"ref": "150 Boston Post Rd", "@spider": "vetco", "addr:full": "150 Boston Post Rd", "addr:city": "Sudbury", "addr:state": "MA", "addr:postcode": "01776", "website": "https://www.vetcoclinics.com/_assets/dynamic/ajax/locator.php?zip=01005", "brand": "Vetco Clinics"}, "geometry": {"type": "Point", "coordinates": [-71.39707, 42.36335]}},
{"type": "Feature", "id": "G3SyIY9C_zfoRKLhlUSpuV3TnuM=", "properties": {"ref": "123 Route 101A", "@spider": "vetco", "addr:full": "123 Route 101A", "addr:city": "Amherst", "addr:state": "NH", "addr:postcode": "03031", "website": "https://www.vetcoclinics.com/_assets/dynamic/ajax/locator.php?zip=01005", "brand": "Vetco Clinics"}, "geometry": {"type": "Point", "coordinates": [-71.569491, 42.807542]}},
{"type": "Feature", "id": "nIQL78_FPacpakKaBsroQw9H-1E=", "properties": {"ref": "1324-1334 Worcester Road", "@spider": "vetco", "addr:full": "1324-1334 Worcester Road", "addr:city": "Natick", "addr:state": "MA", "addr:postcode": "01760", "website": "https://www.vetcoclinics.com/_assets/dynamic/ajax/locator.php?zip=01005", "brand": "Vetco Clinics"}, "geometry": {"type": "Point", "coordinates": [-71.386248, 42.297978]}},
{"type": "Feature", "id": "pgeuD5j64q6ts6m4T9v3tNMnbSE=", "properties": {"ref": "2 Technology Dr", "@spider": "vetco", "addr:full": "2 Technology Dr", "addr:city": "Tyngsboro", "addr:state": "MA", "addr:postcode": "01879", "website": "https://www.vetcoclinics.com/_assets/dynamic/ajax/locator.php?zip=01005", "brand": "Vetco Clinics"}, "geometry": {"type": "Point", "coordinates": [-71.43366, 42.69158]}},
{"type": "Feature", "id": "ycBhw3oTFCJJZdWcr493X8niVE0=", "properties": {"ref": "7 East Desilvio Drive", "@spider": "vetco", "addr:full": "7 East Desilvio Drive", "addr:city": "Nashua", "addr:state": "NH", "addr:postcode": "03060", "website": "https://www.vetcoclinics.com/_assets/dynamic/ajax/locator.php?zip=01005", "brand": "Vetco Clinics"}, "geometry": {"type": "Point", "coordinates": [-71.439462, 42.705194]}},
{"type": "Feature", "id": "QgUYobyUpgtmcHl7lkKJgV0QHGw=", "properties": {"ref": "371 Putnam Pike", "@spider": "vetco", "addr:full": "371 Putnam Pike", "addr:city": "Smithfield", "addr:state": "RI", "addr:postcode": "02917", "website": "https://www.vetcoclinics.com/_assets/dynamic/ajax/locator.php?zip=01005", "brand": "Vetco Clinics"}, "geometry": {"type": "Point", "coordinates": [-71.518494, 41.87727]}},
{"type": "Feature", "id": "ImLvJtTGERTrcKRbikzunG6n_YA=", "properties": {"ref": "380 Patriot Pl", "@spider": "vetco", "addr:full": "380 Patriot Pl", "addr:city": "Foxborough", "addr:state": "MA", "addr:postcode": "02035", "website": "https://www.vetcoclinics.com/_assets/dynamic/ajax/locator.php?zip=01005", "brand": "Vetco Clinics"}, "geometry": {"type": "Point", "coordinates": [-71.268677, 42.091649]}},
{"type": "Feature", "id": "z41TXx3qknkVU3LBdj1LT80435s=", "properties": {"ref": "1111 S Willow St", "@spider": "vetco", "addr:full": "1111 S Willow St", "addr:city": "Manchester", "addr:state": "NH", "addr:postcode": "03103", "website": "https://www.vetcoclinics.com/_assets/dynamic/ajax/locator.php?zip=01005", "brand": "Vetco Clinics"}, "geometry": {"type": "Point", "coordinates": [-71.439213, 42.960123]}},
{"type": "Feature", "id": "RWKYxriueJZjKH-1wGSMUykP1V0=", "properties": {"ref": "287 Washington Street", "@spider": "vetco", "addr:full": "287 Washington Street", "addr:city": "South Attleboro", "addr:state": "MA", "addr:postcode": "02703", "website": "https://www.vetcoclinics.com/_assets/dynamic/ajax/locator.php?zip=01005", "brand": "Vetco Clinics"}, "geometry": {"type": "Point", "coordinates": [-71.359559, 41.921841]}},
{"type": "Feature", "id": "5zqjm6egiE2ChoSDWA6GeGrZNOA=", "properties": {"ref": "190 Quality Drive", "@spider": "vetco", "addr:full": "190 Quality Drive", "addr:city": "Hooksett", "addr:state": "NH", "addr:postcode": "03106", "website": "https://www.vetcoclinics.com/_assets/dynamic/ajax/locator.php?zip=01005", "brand": "Vetco Clinics"}, "geometry": {"type": "Point", "coordinates": [-71.459394, 43.048184]}},
{"type": "Feature", "id": "E7mbRfJsDcGTWITt6kaUH3PrRg0=", "properties": {"ref": "585 North Main Street", "@spider": "vetco", "addr:full": "585 North Main Street", "addr:city": "Providence", "addr:state": "RI", "addr:postcode": "02904", "website": "https://www.vetcoclinics.com/_assets/dynamic/ajax/locator.php?zip=01005", "brand": "Vetco Clinics"}, "geometry": {"type": "Point", "coordinates": [-71.408522, 41.837776]}},
{"type": "Feature", "id": "7io5qhMuWqW32SRlKSwz6-gepLY=", "properties": {"ref": "10 Chapelview Road", "@spider": "vetco", "addr:full": "10 Chapelview Road", "addr:city": "Cranston", "addr:state": "RI", "addr:postcode": "02920", "website": "https://www.vetcoclinics.com/_assets/dynamic/ajax/locator.php?zip=01005", "brand": "Vetco Clinics"}, "geometry": {"type": "Point", "coordinates": [-71.460191, 41.7548]}},
{"type": "Feature", "id": "HdMLtJArN7ejsljo5RkQmqFI9Go=", "properties": {"ref": "75 Highland Avenue", "@spider": "vetco", "addr:full": "75 Highland Avenue", "addr:city": "Seekonk", "addr:state": "MA", "addr:postcode": "02771", "website": "https://www.vetcoclinics.com/_assets/dynamic/ajax/locator.php?zip=01005", "brand": "Vetco Clinics"}, "geometry": {"type": "Point", "coordinates": [-71.339309, 41.802055]}},
{"type": "Feature", "id": "tx27acHBcljVguHCy3Iu5w4g_HM=", "properties": {"ref": "1175 Ulster Ave", "@spider": "vetco", "addr:full": "1175 Ulster Ave", "addr:city": "Kingston", "addr:state": "NY", "addr:postcode": "12401", "website": "https://www.vetcoclinics.com/_assets/dynamic/ajax/locator.php?zip=01008", "brand": "Vetco Clinics"}, "geometry": {"type": "Point", "coordinates": [-73.989693, 41.964728]}},
{"type": "Feature", "id": "AWMTnJ4BWQ3_HSnngLvz7tHPls4=", "properties": {"ref": "664 New Loudon Road", "@spider": "vetco", "addr:full": "664 New Loudon Road", "addr:city": "Latham", "addr:state": "NY", "addr:postcode": "12110", "website": "https://www.vetcoclinics.com/_assets/dynamic/ajax/locator.php?zip=01008", "brand": "Vetco Clinics"}, "geometry": {"type": "Point", "coordinates": [-73.763527, 42.736183]}},
{"type": "Feature", "id": "o0lymF2-Pb0lEEA30geNp0w0eiM=", "properties": {"ref": "5-B Sugar Hollow Road", "@spider": "vetco", "addr:full": "5-B Sugar Hollow Road", "addr:city": "Danbury", "addr:state": "CT", "addr:postcode": "06810", "website": "https://www.vetcoclinics.com/_assets/dynamic/ajax/locator.php?zip=01008", "brand": "Vetco Clinics"}, "geometry": {"type": "Point", "coordinates": [-73.474835, 41.378259]}},
{"type": "Feature", "id": "830Sw1eB1a4Y0BVzzcRbnh_J_ec=", "properties": {"ref": "300 Quaker Lane", "@spider": "vetco", "addr:full": "300 Quaker Lane", "addr:city": "Warwick", "addr:state": "RI", "addr:postcode": "02886", "website": "https://www.vetcoclinics.com/_assets/dynamic/ajax/locator.php?zip=01009", "brand": "Vetco Clinics"}, "geometry": {"type": "Point", "coordinates": [-71.498672, 41.689545]}},
{"type": "Feature", "id": "kFXCTegtutgHvI0JoiEBkzRHtek=", "properties": {"ref": "1007 Ten Rod Road", "@spider": "vetco", "addr:full": "1007 Ten Rod Road", "addr:city": "N Kingstown", "addr:state": "RI", "addr:postcode": "02852", "website": "https://www.vetcoclinics.com/_assets/dynamic/ajax/locator.php?zip=01010", "brand": "Vetco Clinics"}, "geometry": {"type": "Point", "coordinates": [-71.493025, 41.581645]}},
{"type": "Feature", "id": "FJme4Qbal1BF1q0GbhEQ1gWAooI=", "properties": {"ref": "1440 Central Avenue", "@spider": "vetco", "addr:full": "1440 Central Avenue", "addr:city": "Colonie", "addr:state": "NY", "addr:postcode": "12205", "website": "https://www.vetcoclinics.com/_assets/dynamic/ajax/locator.php?zip=01011", "brand": "Vetco Clinics"}, "geometry": {"type": "Point", "coordinates": [-73.830611, 42.704125]}},
{"type": "Feature", "id": "54pQKFeHbhqUx-IqMIEwX-Q_n4A=", "properties": {"ref": "6 Halfmoon Crossing", "@spider": "vetco", "addr:full": "6 Halfmoon Crossing", "addr:city": "Clifton Park", "addr:state": "NY", "addr:postcode": "12065", "website": "https://www.vetcoclinics.com/_assets/dynamic/ajax/locator.php?zip=01011", "brand": "Vetco Clinics"}, "geometry": {"type": "Point", "coordinates": [-73.769724, 42.85742]}},
{"type": "Feature", "id": "EnVg13oocg6NYcFuYjB6rP6GQkQ=", "properties": {"ref": "1933 South Road", "@spider": "vetco", "addr:full": "1933 South Road", "addr:city": "Poughkeepsie", "addr:state": "NY", "addr:postcode": "12601", "website": "https://www.vetcoclinics.com/_assets/dynamic/ajax/locator.php?zip=01029", "brand": "Vetco Clinics"}, "geometry": {"type": "Point", "coordinates": [-73.918213, 41.620918]}},
{"type": "Feature", "id": "0Rop82_Th5KE--5x9vqqYvVhxwE=", "properties": {"ref": "1401-1402 Boston Post Road", "@spider": "vetco", "addr:full": "1401-1402 Boston Post Road", "addr:city": "Milford", "addr:state": "CT", "addr:postcode": "06460", "website": "https://www.vetcoclinics.com/_assets/dynamic/ajax/locator.php?zip=01034", "brand": "Vetco Clinics"}, "geometry": {"type": "Point", "coordinates": [-73.033129, 41.240847]}},
{"type": "Feature", "id": "uu1YVxbgaTqGBAqYKLewOS-p6hg=", "properties": {"ref": "72 Linden Street", "@spider": "vetco", "addr:full": "72 Linden Street", "addr:city": "Waltham", "addr:state": "MA", "addr:postcode": "02454", "website": "https://www.vetcoclinics.com/_assets/dynamic/ajax/locator.php?zip=01068", "brand": "Vetco Clinics"}, "geometry": {"type": "Point", "coordinates": [-71.222666, 42.379223]}},
{"type": "Feature", "id": "PWRebvhS92yqgHiLV2X3wgiFXcc=", "properties": {"ref": "163 Highland Avenue", "@spider": "vetco", "addr:full": "163 Highland Avenue", "addr:city": "Needham", "addr:state": "MA", "addr:postcode": "02494", "website": "https://www.vetcoclinics.com/_assets/dynamic/ajax/locator.php?zip=01068", "brand": "Vetco Clinics"}, "geometry": {"type": "Point", "coordinates": [-71.220075, 42.305828]}},
{"type": "Feature", "id": "gPfjntru8CQwwctuLMLAtU6elFQ=", "properties": {"ref": "51 Middlesex Turnpike", "@spider": "vetco", "addr:full": "51 Middlesex Turnpike", "addr:city": "Burlington", "addr:state": "MA", "addr:postcode": "01803", "website": "https://www.vetcoclinics.com/_assets/dynamic/ajax/locator.php?zip=01068", "brand": "Vetco Clinics"}, "geometry": {"type": "Point", "coordinates": [-71.210818, 42.473383]}},
{"type": "Feature", "id": "jHFcxOCIgHrGnOH6hYhfl7684Ao=", "properties": {"ref": "1406 Massachusetts Ave", "@spider": "vetco", "addr:full": "1406 Massachusetts Ave", "addr:city": "Arlington", "addr:state": "MA", "addr:postcode": "02476", "website": "https://www.vetcoclinics.com/_assets/dynamic/ajax/locator.php?zip=01068", "brand": "Vetco Clinics"}, "geometry": {"type": "Point", "coordinates": [-71.185656, 42.424528]}},
{"type": "Feature", "id": "tUn8BYocxB_te_diZ21ufQ_HeHg=", "properties": {"ref": "550 Providence Hwy", "@spider": "vetco", "addr:full": "550 Providence Hwy", "addr:city": "Dedham", "addr:state": "MA", "addr:postcode": "02026", "website": "https://www.vetcoclinics.com/_assets/dynamic/ajax/locator.php?zip=01068", "brand": "Vetco Clinics"}, "geometry": {"type": "Point", "coordinates": [-71.16553, 42.244609]}},
{"type": "Feature", "id": "XZbnwP5QH19MddnG0ygfrQjIC7E=", "properties": {"ref": "280 School Street", "@spider": "vetco", "addr:full": "280 School Street", "addr:city": "Mansfield", "addr:state": "MA", "addr:postcode": "02048", "website": "https://www.vetcoclinics.com/_assets/dynamic/ajax/locator.php?zip=01068", "brand": "Vetco Clinics"}, "geometry": {"type": "Point", "coordinates": [-71.229934, 42.013196]}},
{"type": "Feature", "id": "Lm0UREsCizBtJR-ncKav8QqKEdQ=", "properties": {"ref": "92 Cluff Crossing", "@spider": "vetco", "addr:full": "92 Cluff Crossing", "addr:city": "Salem", "addr:state": "NH", "addr:postcode": "03079", "website": "https://www.vetcoclinics.com/_assets/dynamic/ajax/locator.php?zip=01068", "brand": "Vetco Clinics"}, "geometry": {"type": "Point", "coordinates": [-71.220131, 42.767057]}},
{"type": "Feature", "id": "n2Plgmvc9kpzckm776uEo8Zg01s=", "properties": {"ref": "756 Upper Glen Street", "@spider": "vetco", "addr:full": "756 Upper Glen Street", "addr:city": "Queensbury", "addr:state": "NY", "addr:postcode": "12804", "website": "https://www.vetcoclinics.com/_assets/dynamic/ajax/locator.php?zip=01220", "brand": "Vetco Clinics"}, "geometry": {"type": "Point", "coordinates": [-73.670613, 43.3307]}},
{"type": "Feature", "id": "wrgxv7o-9s-f_dZVHJbLWuPmZwo=", "properties": {"ref": "4559 Main Street", "@spider": "vetco", "addr:full": "4559 Main Street", "addr:city": "Bridgeport", "addr:state": "CT", "addr:postcode": "06606", "website": "https://www.vetcoclinics.com/_assets/dynamic/ajax/locator.php?zip=01222", "brand": "Vetco Clinics"}, "geometry": {"type": "Point", "coordinates": [-73.219791, 41.222042]}},
{"type": "Feature", "id": "AW93q8b1zf60VCGCsi8rBEYPxtY=", "properties": {"ref": "35 Fort Eddy Road", "@spider": "vetco", "addr:full": "35 Fort Eddy Road", "addr:city": "Concord", "addr:state": "NH", "addr:postcode": "03301", "website": "https://www.vetcoclinics.com/_assets/dynamic/ajax/locator.php?zip=01331", "brand": "Vetco Clinics"}, "geometry": {"type": "Point", "coordinates": [-71.532379, 43.210535]}},
{"type": "Feature", "id": "4gA8NYZ-oI3VoOmQpiU-dCoQm-4=", "properties": {"ref": "103 Commerce Way", "@spider": "vetco", "addr:full": "103 Commerce Way", "addr:city": "Woburn", "addr:state": "MA", "addr:postcode": "01801", "website": "https://www.vetcoclinics.com/_assets/dynamic/ajax/locator.php?zip=01420", "brand": "Vetco Clinics"}, "geometry": {"type": "Point", "coordinates": [-71.137178, 42.517527]}},
{"type": "Feature", "id": "lC9cEY1gayMnuILLCXsbFFonir4=", "properties": {"ref": "790 Waverly Road", "@spider": "vetco", "addr:full": "790 Waverly Road", "addr:city": "North Andover", "addr:state": "MA", "addr:postcode": "01845", "website": "https://www.vetcoclinics.com/_assets/dynamic/ajax/locator.php?zip=01420", "brand": "Vetco Clinics"}, "geometry": {"type": "Point", "coordinates": [-71.132901, 42.67791]}},
{"type": "Feature", "id": "mazzXgc_P9Yq5z_l_R_0if5_4OI=", "properties": {"ref": "15 Main St", "@spider": "vetco", "addr:full": "15 Main St", "addr:city": "Wakefield", "addr:state": "MA", "addr:postcode": "01880", "website": "https://www.vetcoclinics.com/_assets/dynamic/ajax/locator.php?zip=01420", "brand": "Vetco Clinics"}, "geometry": {"type": "Point", "coordinates": [-71.07904, 42.52431]}},
{"type": "Feature", "id": "bwivQ9Clt9NkFg-YvhDLgSDIOSI=", "properties": {"ref": "304 Western Avenue", "@spider": "vetco", "addr:full": "304 Western Avenue", "addr:city": "Brighton", "addr:state": "MA", "addr:postcode": "02135", "website": "https://www.vetcoclinics.com/_assets/dynamic/ajax/locator.php?zip=01420", "brand": "Vetco Clinics"}, "geometry": {"type": "Point", "coordinates": [-71.136335, 42.362709]}},
{"type": "Feature", "id": "5mMq_DTccu4Re5RKiQ4EWNmiKnk=", "properties": {"ref": "226 Harvard Ave", "@spider": "vetco", "addr:full": "226 Harvard Ave", "addr:city": "Allston", "addr:state": "MA", "addr:postcode": "02134", "website": "https://www.vetcoclinics.com/_assets/dynamic/ajax/locator.php?zip=01420", "brand": "Vetco Clinics"}, "geometry": {"type": "Point", "coordinates": [-71.1301, 42.349412]}},
{"type": "Feature", "id": "rqO4lhRjRNXWXSwsSuiiuidfN4w=", "properties": {"ref": "4 Plaistow Road", "@spider": "vetco", "addr:full": "4 Plaistow Road", "addr:city": "Plaistow", "addr:state": "NH", "addr:postcode": "03865", "website": "https://www.vetcoclinics.com/_assets/dynamic/ajax/locator.php?zip=01420", "brand": "Vetco Clinics"}, "geometry": {"type": "Point", "coordinates": [-71.104229, 42.816321]}},
{"type": "Feature", "id": "Qbj22Lp5XF4SxOih-IypfDjT9Xc=", "properties": {"ref": "5 Austin Street", "@spider": "vetco", "addr:full": "5 Austin Street", "addr:city": "Charlestown", "addr:state": "MA", "addr:postcode": "02129", "website": "https://www.vetcoclinics.com/_assets/dynamic/ajax/locator.php?zip=01420", "brand": "Vetco Clinics"}, "geometry": {"type": "Point", "coordinates": [-71.065098, 42.375697]}},
{"type": "Feature", "id": "H_4T4CDIEAGVfDRvTnA2zKzVE34=", "properties": {"ref": "343 Broadway", "@spider": "vetco", "addr:full": "343 Broadway", "addr:city": "Saugus", "addr:state": "MA", "addr:postcode": "01906", "website": "https://www.vetcoclinics.com/_assets/dynamic/ajax/locator.php?zip=01420", "brand": "Vetco Clinics"}, "geometry": {"type": "Point", "coordinates": [-71.026599, 42.449085]}},
{"type": "Feature", "id": "nj70f8FsCQbNGI1BCPQqXlqe6mU=", "properties": {"ref": "339 Squire Road", "@spider": "vetco", "addr:full": "339 Squire Road", "addr:city": "Revere", "addr:state": "MA", "addr:postcode": "02151", "website": "https://www.vetcoclinics.com/_assets/dynamic/ajax/locator.php?zip=01420", "brand": "Vetco Clinics"}, "geometry": {"type": "Point", "coordinates": [-71.012316, 42.427639]}},
{"type": "Feature", "id": "sMUYrT5kr7dQHP3uLsVyZnKA7Zw=", "properties": {"ref": "126 Killam Hill Rd", "@spider": "vetco", "addr:full": "126 Killam Hill Rd", "addr:city": "Boxford", "addr:state": "MA", "addr:postcode": "01921", "website": "https://www.vetcoclinics.com/_assets/dynamic/ajax/locator.php?zip=01420", "brand": "Vetco Clinics"}, "geometry": {"type": "Point", "coordinates": [-70.986172, 42.691004]}},
{"type": "Feature", "id": "x67WFe6w-iLwwIYRSeHOIevQ3U4=", "properties": {"ref": "10 Sylvan Street", "@spider": "vetco", "addr:full": "10 Sylvan Street", "addr:city": "Peabody", "addr:state": "MA", "addr:postcode": "01960", "website": "https://www.vetcoclinics.com/_assets/dynamic/ajax/locator.php?zip=01420", "brand": "Vetco Clinics"}, "geometry": {"type": "Point", "coordinates": [-70.945821, 42.546719]}},
{"type": "Feature", "id": "leV_ojkGQ4f6ObR_sTCLVTxObX8=", "properties": {"ref": "239 Newburyport Turnpike", "@spider": "vetco", "addr:full": "239 Newburyport Turnpike", "addr:city": "Topsfield", "addr:state": "MA", "addr:postcode": "01983", "website": "https://www.vetcoclinics.com/_assets/dynamic/ajax/locator.php?zip=01420", "brand": "Vetco Clinics"}, "geometry": {"type": "Point", "coordinates": [-70.942845, 42.633646]}},
{"type": "Feature", "id": "2dmyyK-fG3XAgn_HNq3cUfTJ9dI=", "properties": {"ref": "419 Paradise Road", "@spider": "vetco", "addr:full": "419 Paradise Road", "addr:city": "Swampscott", "addr:state": "MA", "addr:postcode": "01907", "website": "https://www.vetcoclinics.com/_assets/dynamic/ajax/locator.php?zip=01420", "brand": "Vetco Clinics"}, "geometry": {"type": "Point", "coordinates": [-70.90588, 42.474409]}},
{"type": "Feature", "id": "zCO5CmsOU651IyZWioS3mWy6zEk=", "properties": {"ref": "55 Dodge Street", "@spider": "vetco", "addr:full": "55 Dodge Street", "addr:city": "Beverly", "addr:state": "MA", "addr:postcode": "01915", "website": "https://www.vetcoclinics.com/_assets/dynamic/ajax/locator.php?zip=01420", "brand": "Vetco Clinics"}, "geometry": {"type": "Point", "coordinates": [-70.889593, 42.575705]}},
{"type": "Feature", "id": "Fng_bfbTFLLeJVL2g4ruD7xU8Tg=", "properties": {"ref": "169 Parking Way", "@spider": "vetco", "addr:full": "169 Parking Way", "addr:city": "Quincy", "addr:state": "MA", "addr:postcode": "02169", "website": "https://www.vetcoclinics.com/_assets/dynamic/ajax/locator.php?zip=01420", "brand": "Vetco Clinics"}, "geometry": {"type": "Point", "coordinates": [-71.003373, 42.245442]}},
{"type": "Feature", "id": "_D2r7PYl-S7VbzZOJsL1xr4mnZM=", "properties": {"ref": "15 Stockwell Drive", "@spider": "vetco", "addr:full": "15 Stockwell Drive", "addr:city": "Avon", "addr:state": "MA", "addr:postcode": "02322", "website": "https://www.vetcoclinics.com/_assets/dynamic/ajax/locator.php?zip=01420", "brand": "Vetco Clinics"}, "geometry": {"type": "Point", "coordinates": [-71.068, 42.128238]}},
{"type": "Feature", "id": "QChXhOgXBmv0nPIjsM-voO70bQs=", "properties": {"ref": "6 Shipyard Dr", "@spider": "vetco", "addr:full": "6 Shipyard Dr", "addr:city": "Hingham", "addr:state": "MA", "addr:postcode": "02043", "website": "https://www.vetcoclinics.com/_assets/dynamic/ajax/locator.php?zip=01420", "brand": "Vetco Clinics"}, "geometry": {"type": "Point", "coordinates": [-70.91805, 42.24936]}},
{"type": "Feature", "id": "lcRokOO3RebNvchu98p3BXCWTLs=", "properties": {"ref": "35 Pleasant Street", "@spider": "vetco", "addr:full": "35 Pleasant Street", "addr:city": "South Weymouth", "addr:state": "MA", "addr:postcode": "02190", "website": "https://www.vetcoclinics.com/_assets/dynamic/ajax/locator.php?zip=01420", "brand": "Vetco Clinics"}, "geometry": {"type": "Point", "coordinates": [-70.953342, 42.171378]}},
{"type": "Feature", "id": "BQ_zALdMqJEldJ2cVXMhZZg_qNc=", "properties": {"ref": "1775 Washington Street", "@spider": "vetco", "addr:full": "1775 Washington Street", "addr:city": "Hanover", "addr:state": "MA", "addr:postcode": "02339", "website": "https://www.vetcoclinics.com/_assets/dynamic/ajax/locator.php?zip=01420", "brand": "Vetco Clinics"}, "geometry": {"type": "Point", "coordinates": [-70.845063, 42.14315]}},
{"type": "Feature", "id": "8GKQrL1zNSL7En4JB7mJCsD0SrA=", "properties": {"ref": "341 Gloucester Crossing", "@spider": "vetco", "addr:full": "341 Gloucester Crossing", "addr:city": "Gloucester", "addr:state": "MA", "addr:postcode": "01930", "website": "https://www.vetcoclinics.com/_assets/dynamic/ajax/locator.php?zip=01432", "brand": "Vetco Clinics"}, "geometry": {"type": "Point", "coordinates": [-70.66375, 42.624068]}},
{"type": "Feature", "id": "oBlso8s81vramnMiEUSBXO40X9o=", "properties": {"ref": "1465 Woodbury Avenue", "@spider": "vetco", "addr:full": "1465 Woodbury Avenue", "addr:city": "Portsmouth", "addr:state": "NH", "addr:postcode": "03801", "website": "https://www.vetcoclinics.com/_assets/dynamic/ajax/locator.php?zip=01432", "brand": "Vetco Clinics"}, "geometry": {"type": "Point", "coordinates": [-70.788298, 43.088255]}},
{"type": "Feature", "id": "jC5H4vj0cEWlC7A8xOqA_yRvsGI=", "properties": {"ref": "2454 Lafayette Road", "@spider": "vetco", "addr:full": "2454 Lafayette Road", "addr:city": "Portsmouth", "addr:state": "NH", "addr:postcode": "03801", "website": "https://www.vetcoclinics.com/_assets/dynamic/ajax/locator.php?zip=01432", "brand": "Vetco Clinics"}, "geometry": {"type": "Point", "coordinates": [-70.783457, 43.034474]}},
{"type": "Feature", "id": "80cQMxW7W0poO1VIT96e-SfQ5-I=", "properties": {"ref": "125 Church Street", "@spider": "vetco", "addr:full": "125 Church Street", "addr:city": "Pembroke", "addr:state": "MA", "addr:postcode": "02359", "website": "https://www.vetcoclinics.com/_assets/dynamic/ajax/locator.php?zip=01432", "brand": "Vetco Clinics"}, "geometry": {"type": "Point", "coordinates": [-70.771126, 42.105087]}},
{"type": "Feature", "id": "YfXQheCgkwI1gfeEhmHBFvXad4Q=", "properties": {"ref": "65A Taunton Depot Drive", "@spider": "vetco", "addr:full": "65A Taunton Depot Drive", "addr:city": "Taunton", "addr:state": "MA", "addr:postcode": "02780", "website": "https://www.vetcoclinics.com/_assets/dynamic/ajax/locator.php?zip=01432", "brand": "Vetco Clinics"}, "geometry": {"type": "Point", "coordinates": [-71.066487, 41.87913]}},
{"type": "Feature", "id": "zmS45IqX9hdL6y4yHBci3OfLfaE=", "properties": {"ref": "877 Central Avenue", "@spider": "vetco", "addr:full": "877 Central Avenue", "addr:city": "Dover", "addr:state": "NH", "addr:postcode": "03820", "website": "https://www.vetcoclinics.com/_assets/dynamic/ajax/locator.php?zip=01432", "brand": "Vetco Clinics"}, "geometry": {"type": "Point", "coordinates": [-70.881524, 43.219559]}},
{"type": "Feature", "id": "40uw1Ur2Yusp-wenTOupMeYblVw=", "properties": {"ref": "120 Market Place Boulevard", "@spider": "vetco", "addr:full": "120 Market Place Boulevard", "addr:city": "Rochester", "addr:state": "NH", "addr:postcode": "03867", "website": "https://www.vetcoclinics.com/_assets/dynamic/ajax/locator.php?zip=01450", "brand": "Vetco Clinics"}, "geometry": {"type": "Point", "coordinates": [-71.011014, 43.331459]}},
{"type": "Feature", "id": "t7-lUaWKAgpL0_JOHXKQip6jIqY=", "properties": {"ref": "216 Colony Place", "@spider": "vetco", "addr:full": "216 Colony Place", "addr:city": "Plymouth", "addr:state": "MA", "addr:postcode": "02360", "website": "https://www.vetcoclinics.com/_assets/dynamic/ajax/locator.php?zip=01451", "brand": "Vetco Clinics"}, "geometry": {"type": "Point", "coordinates": [-70.71808, 41.95372]}},
{"type": "Feature", "id": "2CAh2i_kjn49rWPImOVz-NU-Tjw=", "properties": {"ref": "1309 West Main Road", "@spider": "vetco", "addr:full": "1309 West Main Road", "addr:city": "Middletown", "addr:state": "RI", "addr:postcode": "02842", "website": "https://www.vetcoclinics.com/_assets/dynamic/ajax/locator.php?zip=01501", "brand": "Vetco Clinics"}, "geometry": {"type": "Point", "coordinates": [-71.290901, 41.53443]}},
{"type": "Feature", "id": "e3zUZs1oRV490H3y05-jSuBZxaA=", "properties": {"ref": "473 State Street", "@spider": "vetco", "addr:full": "473 State Street", "addr:city": "North Dartmouth", "addr:state": "MA", "addr:postcode": "02747", "website": "https://www.vetcoclinics.com/_assets/dynamic/ajax/locator.php?zip=01501", "brand": "Vetco Clinics"}, "geometry": {"type": "Point", "coordinates": [-71.007527, 41.640876]}},
{"type": "Feature", "id": "3Q11Lc6Hp0cbgov6HtccnUwHAkQ=", "properties": {"ref": "2421 Cranberry Hwy", "@spider": "vetco", "addr:full": "2421 Cranberry Hwy", "addr:city": "Wareham", "addr:state": "MA", "addr:postcode": "02571", "website": "https://www.vetcoclinics.com/_assets/dynamic/ajax/locator.php?zip=01504", "brand": "Vetco Clinics"}, "geometry": {"type": "Point", "coordinates": [-70.744509, 41.775886]}},
{"type": "Feature", "id": "ya4YebB4K_NJt0wSW9r-O2aDWhA=", "properties": {"ref": "35 Davis Straits", "@spider": "vetco", "addr:full": "35 Davis Straits", "addr:city": "Falmouth", "addr:state": "MA", "addr:postcode": "02540", "website": "https://www.vetcoclinics.com/_assets/dynamic/ajax/locator.php?zip=01504", "brand": "Vetco Clinics"}, "geometry": {"type": "Point", "coordinates": [-70.598157, 41.556788]}},
{"type": "Feature", "id": "aLAf1OrTu_w3GdTz7D0tR6oiLNs=", "properties": {"ref": "1458 Lakeshore Drive", "@spider": "vetco", "addr:full": "1458 Lakeshore Drive", "addr:city": "Gilford", "addr:state": "NH", "addr:postcode": "03249", "website": "https://www.vetcoclinics.com/_assets/dynamic/ajax/locator.php?zip=01830", "brand": "Vetco Clinics"}, "geometry": {"type": "Point", "coordinates": [-71.443691, 43.562964]}},
{"type": "Feature", "id": "AnhchhtzN8LAlz5KJX6KziZC5HM=", "properties": {"ref": "1524 Old Country Rd.", "@spider": "vetco", "addr:full": "1524 Old Country Rd.", "addr:city": "Riverhead", "addr:state": "NY", "addr:postcode": "11901", "website": "https://www.vetcoclinics.com/_assets/dynamic/ajax/locator.php?zip=02804", "brand": "Vetco Clinics"}, "geometry": {"type": "Point", "coordinates": [-72.696018, 40.928485]}},
{"type": "Feature", "id": "FW1-kvHs20Exut66-G41pdck2rM=", "properties": {"ref": "220 Maine Mall Rd", "@spider": "vetco", "addr:full": "220 Maine Mall Rd", "addr:city": "S Portland", "addr:state": "ME", "addr:postcode": "04106", "website": "https://www.vetcoclinics.com/_assets/dynamic/ajax/locator.php?zip=03037", "brand": "Vetco Clinics"}, "geometry": {"type": "Point", "coordinates": [-70.332926, 43.638369]}},
{"type": "Feature", "id": "Vkg2G3afr-gJ3HD2VdmpXXb3bFI=", "properties": {"ref": "1584 White Mountain Hwy", "@spider": "vetco", "addr:full": "1584 White Mountain Hwy", "addr:city": "Conway", "addr:state": "NH", "addr:postcode": "03860", "website": "https://www.vetcoclinics.com/_assets/dynamic/ajax/locator.php?zip=03215", "brand": "Vetco Clinics"}, "geometry": {"type": "Point", "coordinates": [-71.11782, 44.02248]}},
{"type": "Feature", "id": "YOo4iMO9x6NANFeVqgoHDIDvRmI=", "properties": {"ref": "105 Mount Auburn Ave", "@spider": "vetco", "addr:full": "105 Mount Auburn Ave", "addr:city": "Auburn", "addr:state": "ME", "addr:postcode": "04210", "website": "https://www.vetcoclinics.com/_assets/dynamic/ajax/locator.php?zip=03259", "brand": "Vetco Clinics"}, "geometry": {"type": "Point", "coordinates": [-70.236323, 44.12283]}},
{"type": "Feature", "id": "b3Njo7ECWPR7nrTQaTyyeYDKNGE=", "properties": {"ref": "312 US Rte 7 S", "@spider": "vetco", "addr:full": "312 US Rte 7 S", "addr:city": "Rutland", "addr:state": "VT", "addr:postcode": "05701", "website": "https://www.vetcoclinics.com/_assets/dynamic/ajax/locator.php?zip=03431", "brand": "Vetco Clinics"}, "geometry": {"type": "Point", "coordinates": [-72.977319, 43.600927]}},
{"type": "Feature", "id": "vsK6oyANi8Fh3qRX9f2NO1mYJ0A=", "properties": {"ref": "131 Topsham Fair Mall Rd", "@spider": "vetco", "addr:full": "131 Topsham Fair Mall Rd", "addr:city": "Topsham", "addr:state": "ME", "addr:postcode": "04086", "website": "https://www.vetcoclinics.com/_assets/dynamic/ajax/locator.php?zip=03813", "brand": "Vetco Clinics"}, "geometry": {"type": "Point", "coordinates": [-69.985265, 43.932984]}},
{"type": "Feature", "id": "ArjvQ5ezn1dauyt8j-lyHvyuRtc=", "properties": {"ref": "20 Whitten Rd", "@spider": "vetco", "addr:full": "20 Whitten Rd", "addr:city": "Augusta", "addr:state": "ME", "addr:postcode": "04330", "website": "https://www.vetcoclinics.com/_assets/dynamic/ajax/locator.php?zip=04003", "brand": "Vetco Clinics"}, "geometry": {"type": "Point", "coordinates": [-69.814929, 44.314382]}},
{"type": "Feature", "id": "7SQjV-aimbL3FWKVHvvkHyLOGNw=", "properties": {"ref": "955 Ferry Boulevard", "@spider": "vetco", "addr:full": "955 Ferry Boulevard", "addr:city": "Stratford", "addr:state": "CT", "addr:postcode": "06614", "website": "https://www.vetcoclinics.com/_assets/dynamic/ajax/locator.php?zip=06001", "brand": "Vetco Clinics"}, "geometry": {"type": "Point", "coordinates": [-73.113694, 41.201981]}},
{"type": "Feature", "id": "BUY3_IvRMgwgbHCbUnA5ZK2Dm9Y=", "properties": {"ref": "340 Grasmere Avenue", "@spider": "vetco", "addr:full": "340 Grasmere Avenue", "addr:city": "Fairfield", "addr:state": "CT", "addr:postcode": "06824", "website": "https://www.vetcoclinics.com/_assets/dynamic/ajax/locator.php?zip=06001", "brand": "Vetco Clinics"}, "geometry": {"type": "Point", "coordinates": [-73.24015, 41.157262]}},
{"type": "Feature", "id": "RLQfWib9nzWmOayux8mhTVijbXg=", "properties": {"ref": "1850-1870 Post Rd E", "@spider": "vetco", "addr:full": "1850-1870 Post Rd E", "addr:city": "Westport", "addr:state": "CT", "addr:postcode": "06880", "website": "https://www.vetcoclinics.com/_assets/dynamic/ajax/locator.php?zip=06001", "brand": "Vetco Clinics"}, "geometry": {"type": "Point", "coordinates": [-73.298735, 41.137363]}},
{"type": "Feature", "id": "JJwbqVyQ-iBcLWAxIwVh8l-xwY4=", "properties": {"ref": "650 Main Avenue", "@spider": "vetco", "addr:full": "650 Main Avenue", "addr:city": "Norwalk", "addr:state": "CT", "addr:postcode": "06851", "website": "https://www.vetcoclinics.com/_assets/dynamic/ajax/locator.php?zip=06001", "brand": "Vetco Clinics"}, "geometry": {"type": "Point", "coordinates": [-73.417637, 41.158709]}},
{"type": "Feature", "id": "wCwlnO7Vk8nlRLXFLjJy72a5uT0=", "properties": {"ref": "431 Westport Avenue", "@spider": "vetco", "addr:full": "431 Westport Avenue", "addr:city": "Norwalk", "addr:state": "CT", "addr:postcode": "06851", "website": "https://www.vetcoclinics.com/_assets/dynamic/ajax/locator.php?zip=06001", "brand": "Vetco Clinics"}, "geometry": {"type": "Point", "coordinates": [-73.38927, 41.126919]}},
{"type": "Feature", "id": "FMb8o-Ti4dwoBmqz_5LZSq8pfdM=", "properties": {"ref": "346 Route 25A", "@spider": "vetco", "addr:full": "346 Route 25A", "addr:city": "Rocky Point", "addr:state": "NY", "addr:postcode": "11778", "website": "https://www.vetcoclinics.com/_assets/dynamic/ajax/locator.php?zip=06001", "brand": "Vetco Clinics"}, "geometry": {"type": "Point", "coordinates": [-72.942643, 40.943902]}},
{"type": "Feature", "id": "5wKTEoAbzL44FiV47-52RjAYsvc=", "properties": {"ref": "360 North Bedford Road", "@spider": "vetco", "addr:full": "360 North Bedford Road", "addr:city": "Mount Kisco", "addr:state": "NY", "addr:postcode": "10549", "website": "https://www.vetcoclinics.com/_assets/dynamic/ajax/locator.php?zip=06001", "brand": "Vetco Clinics"}, "geometry": {"type": "Point", "coordinates": [-73.716095, 41.219589]}},
{"type": "Feature", "id": "QR1mFdumPdGfFCTZ77CIQpvC89k=", "properties": {"ref": "1100 Middle Country Rd.", "@spider": "vetco", "addr:full": "1100 Middle Country Rd.", "addr:city": "Selden", "addr:state": "NY", "addr:postcode": "11784", "website": "https://www.vetcoclinics.com/_assets/dynamic/ajax/locator.php?zip=06010", "brand": "Vetco Clinics"}, "geometry": {"type": "Point", "coordinates": [-73.05164, 40.86275]}},
{"type": "Feature", "id": "shtWsCIU1o76WYnxWNh0n8pSV_Y=", "properties": {"ref": "30 Veteran's Memorial Hwy", "@spider": "vetco", "addr:full": "30 Veteran's Memorial Hwy", "addr:city": "Commack", "addr:state": "NY", "addr:postcode": "11725", "website": "https://www.vetcoclinics.com/_assets/dynamic/ajax/locator.php?zip=06037", "brand": "Vetco Clinics"}, "geometry": {"type": "Point", "coordinates": [-73.288647, 40.840583]}},
{"type": "Feature", "id": "2tLT3woB5vh3H2MFUOF5BZuISes=", "properties": {"ref": "600 North Galleria Drive", "@spider": "vetco", "addr:full": "600 North Galleria Drive", "addr:city": "Middletown", "addr:state": "NY", "addr:postcode": "10941", "website": "https://www.vetcoclinics.com/_assets/dynamic/ajax/locator.php?zip=06039", "brand": "Vetco Clinics"}, "geometry": {"type": "Point", "coordinates": [-74.368878, 41.458899]}},
{"type": "Feature", "id": "sOXHdxEsf1ODnq3lfyAW6jFgZa4=", "properties": {"ref": "839 New York Avenue", "@spider": "vetco", "addr:full": "839 New York Avenue", "addr:city": "Huntington", "addr:state": "NY", "addr:postcode": "11743", "website": "https://www.vetcoclinics.com/_assets/dynamic/ajax/locator.php?zip=06401", "brand": "Vetco Clinics"}, "geometry": {"type": "Point", "coordinates": [-73.419273, 40.859136]}},
{"type": "Feature", "id": "6XMs31cislTWVmqAsZiPDUQGDl8=", "properties": {"ref": "1851 Sunrise Hwy", "@spider": "vetco", "addr:full": "1851 Sunrise Hwy", "addr:city": "Bay Shore", "addr:state": "NY", "addr:postcode": "11706", "website": "https://www.vetcoclinics.com/_assets/dynamic/ajax/locator.php?zip=06401", "brand": "Vetco Clinics"}, "geometry": {"type": "Point", "coordinates": [-73.237381, 40.74007]}},
{"type": "Feature", "id": "tbfHRS8cdpJRaDzvcu9O8lx8bpc=", "properties": {"ref": "565 Jericho Turnpike", "@spider": "vetco", "addr:full": "565 Jericho Turnpike", "addr:city": "Syosset", "addr:state": "NY", "addr:postcode": "11791", "website": "https://www.vetcoclinics.com/_assets/dynamic/ajax/locator.php?zip=06401", "brand": "Vetco Clinics"}, "geometry": {"type": "Point", "coordinates": [-73.496195, 40.811961]}},
{"type": "Feature", "id": "Y-utI24JfXh4g36nfK6KC0VGetM=", "properties": {"ref": "227 Forest Avenue", "@spider": "vetco", "addr:full": "227 Forest Avenue", "addr:city": "Glen Cove", "addr:state": "NY", "addr:postcode": "11542", "website": "https://www.vetcoclinics.com/_assets/dynamic/ajax/locator.php?zip=06401", "brand": "Vetco Clinics"}, "geometry": {"type": "Point", "coordinates": [-73.618931, 40.874351]}},
{"type": "Feature", "id": "FEAUXJHYMjmMcuKzP3lDpl9ipac=", "properties": {"ref": "324 North Central Avenue South", "@spider": "vetco", "addr:full": "324 North Central Avenue South", "addr:city": "Hartsdale", "addr:state": "NY", "addr:postcode": "10530", "website": "https://www.vetcoclinics.com/_assets/dynamic/ajax/locator.php?zip=06401", "brand": "Vetco Clinics"}, "geometry": {"type": "Point", "coordinates": [-73.78949, 41.027956]}},
{"type": "Feature", "id": "SkVcEODBRmBIhVQaDxACmbtAlTU=", "properties": {"ref": "1275 Boston Post Road", "@spider": "vetco", "addr:full": "1275 Boston Post Road", "addr:city": "Larchmont", "addr:state": "NY", "addr:postcode": "10538", "website": "https://www.vetcoclinics.com/_assets/dynamic/ajax/locator.php?zip=06401", "brand": "Vetco Clinics"}, "geometry": {"type": "Point", "coordinates": [-73.745829, 40.937501]}},
{"type": "Feature", "id": "s_yd-IqlbIwU99865GMA3I50QlI=", "properties": {"ref": "2350 Central Park Avenue", "@spider": "vetco", "addr:full": "2350 Central Park Avenue", "addr:city": "Yonkers", "addr:state": "NY", "addr:postcode": "10710", "website": "https://www.vetcoclinics.com/_assets/dynamic/ajax/locator.php?zip=06401", "brand": "Vetco Clinics"}, "geometry": {"type": "Point", "coordinates": [-73.83, 40.98]}},
{"type": "Feature", "id": "DO0qHaRkEhI_7oTdUsvjI2nVmCE=", "properties": {"ref": "655 W. Montauk Hwy", "@spider": "vetco", "addr:full": "655 W. Montauk Hwy", "addr:city": "West Babylon", "addr:state": "NY", "addr:postcode": "11704", "website": "https://www.vetcoclinics.com/_assets/dynamic/ajax/locator.php?zip=06401", "brand": "Vetco Clinics"}, "geometry": {"type": "Point", "coordinates": [-73.346629, 40.686031]}},
{"type": "Feature", "id": "A62aZimy4nKSk0ktaT6aYQYpZcM=", "properties": {"ref": "500 East Sanford Boulevard", "@spider": "vetco", "addr:full": "500 East Sanford Boulevard", "addr:city": "Mount Vernon", "addr:state": "NY", "addr:postcode": "10550", "website": "https://www.vetcoclinics.com/_assets/dynamic/ajax/locator.php?zip=06401", "brand": "Vetco Clinics"}, "geometry": {"type": "Point", "coordinates": [-73.818392, 40.900663]}},
{"type": "Feature", "id": "GW_bv-ScdtDSL3fbhm7mf5Xr26I=", "properties": {"ref": "5500 Sunrise Highway", "@spider": "vetco", "addr:full": "5500 Sunrise Highway", "addr:city": "Massapequa", "addr:state": "NY", "addr:postcode": "11758", "website": "https://www.vetcoclinics.com/_assets/dynamic/ajax/locator.php?zip=06401", "brand": "Vetco Clinics"}, "geometry": {"type": "Point", "coordinates": [-73.436159, 40.674531]}},
{"type": "Feature", "id": "JjSvdQbVlhcNoQGQLaSSCJe-gLw=", "properties": {"ref": "189 Old Country Road", "@spider": "vetco", "addr:full": "189 Old Country Road", "addr:city": "Carle Place", "addr:state": "NY", "addr:postcode": "11514", "website": "https://www.vetcoclinics.com/_assets/dynamic/ajax/locator.php?zip=06401", "brand": "Vetco Clinics"}, "geometry": {"type": "Point", "coordinates": [-73.614374, 40.743988]}},
{"type": "Feature", "id": "uQ-Sh-0C07xOhF_9WRKdfLAgn0E=", "properties": {"ref": "1141 Wantagh Avenue", "@spider": "vetco", "addr:full": "1141 Wantagh Avenue", "addr:city": "Wantagh", "addr:state": "NY", "addr:postcode": "11793", "website": "https://www.vetcoclinics.com/_assets/dynamic/ajax/locator.php?zip=06401", "brand": "Vetco Clinics"}, "geometry": {"type": "Point", "coordinates": [-73.507384, 40.695171]}},
{"type": "Feature", "id": "oU7LSAOAjBd-0LwG6DPk9mCtgoc=", "properties": {"ref": "2300 Jericho Turnpike", "@spider": "vetco", "addr:full": "2300 Jericho Turnpike", "addr:city": "Garden City", "addr:state": "NY", "addr:postcode": "11040", "website": "https://www.vetcoclinics.com/_assets/dynamic/ajax/locator.php?zip=06401", "brand": "Vetco Clinics"}, "geometry": {"type": "Point", "coordinates": [-73.66132, 40.741609]}},
{"type": "Feature", "id": "z8nmN6fHX5ow-0BHmHtfUPGQcss=", "properties": {"ref": "1750 East Gun Hill Road", "@spider": "vetco", "addr:full": "1750 East Gun Hill Road", "addr:city": "Bronx", "addr:state": "NY", "addr:postcode": "10469", "website": "https://www.vetcoclinics.com/_assets/dynamic/ajax/locator.php?zip=06401", "brand": "Vetco Clinics"}, "geometry": {"type": "Point", "coordinates": [-73.835131, 40.863057]}},
{"type": "Feature", "id": "iStGK7wtra6FbjmrJe1KXba6tmM=", "properties": {"ref": "164 Rockland Plaza", "@spider": "vetco", "addr:full": "164 Rockland Plaza", "addr:city": "Nanuet", "addr:state": "NY", "addr:postcode": "10954", "website": "https://www.vetcoclinics.com/_assets/dynamic/ajax/locator.php?zip=06401", "brand": "Vetco Clinics"}, "geometry": {"type": "Point", "coordinates": [-74.015992, 41.099277]}},
{"type": "Feature", "id": "Cqu-FWCEpSIJ_wHcdno3aEcgVVo=", "properties": {"ref": "25451 Horace Harding Expressway", "@spider": "vetco", "addr:full": "25451 Horace Harding Expressway", "addr:city": "Little Neck", "addr:state": "NY", "addr:postcode": "11362", "website": "https://www.vetcoclinics.com/_assets/dynamic/ajax/locator.php?zip=06401", "brand": "Vetco Clinics"}, "geometry": {"type": "Point", "coordinates": [-73.725918, 40.765153]}},
{"type": "Feature", "id": "5SISzxdC5kM7ChG9qRFumyvN_hs=", "properties": {"ref": "59 Vervalen St", "@spider": "vetco", "addr:full": "59 Vervalen St", "addr:city": "Closter", "addr:state": "NJ", "addr:postcode": "07624", "website": "https://www.vetcoclinics.com/_assets/dynamic/ajax/locator.php?zip=06401", "brand": "Vetco Clinics"}, "geometry": {"type": "Point", "coordinates": [-73.955499, 40.970481]}},
{"type": "Feature", "id": "C2N7ABzbIkh3Rj2WAvu6Inm-OyE=", "properties": {"ref": "193 West 237th Street", "@spider": "vetco", "addr:full": "193 West 237th Street", "addr:city": "Bronx", "addr:state": "NY", "addr:postcode": "10463", "website": "https://www.vetcoclinics.com/_assets/dynamic/ajax/locator.php?zip=06401", "brand": "Vetco Clinics"}, "geometry": {"type": "Point", "coordinates": [-73.900565, 40.884267]}},
{"type": "Feature", "id": "gcm_ry3XQe_kDBMtpQ1D42cjwpE=", "properties": {"ref": "815 Hutchinson River Parkway", "@spider": "vetco", "addr:full": "815 Hutchinson River Parkway", "addr:city": "Bronx", "addr:state": "NY", "addr:postcode": "10465", "website": "https://www.vetcoclinics.com/_assets/dynamic/ajax/locator.php?zip=06401", "brand": "Vetco Clinics"}, "geometry": {"type": "Point", "coordinates": [-73.837656, 40.823476]}},
{"type": "Feature", "id": "1kDdAa_aWHICiIoGE73suoKBvg4=", "properties": {"ref": "806 Sunrise Highway", "@spider": "vetco", "addr:full": "806 Sunrise Highway", "addr:city": "Baldwin", "addr:state": "NY", "addr:postcode": "11510", "website": "https://www.vetcoclinics.com/_assets/dynamic/ajax/locator.php?zip=06401", "brand": "Vetco Clinics"}, "geometry": {"type": "Point", "coordinates": [-73.606316, 40.655854]}},
{"type": "Feature", "id": "zDeRyZRC8P8VaYYsxHjq7RyiVKY=", "properties": {"ref": "133-11 20th Avenue", "@spider": "vetco", "addr:full": "133-11 20th Avenue", "addr:city": "College Point", "addr:state": "NY", "addr:postcode": "11356", "website": "https://www.vetcoclinics.com/_assets/dynamic/ajax/locator.php?zip=06401", "brand": "Vetco Clinics"}, "geometry": {"type": "Point", "coordinates": [-73.835224, 40.783239]}},
{"type": "Feature", "id": "bKkOd24ln_PMll7i2f-hM7Inaac=", "properties": {"ref": "2824 Long Beach Road", "@spider": "vetco", "addr:full": "2824 Long Beach Road", "addr:city": "Oceanside", "addr:state": "NY", "addr:postcode": "11572", "website": "https://www.vetcoclinics.com/_assets/dynamic/ajax/locator.php?zip=06401", "brand": "Vetco Clinics"}, "geometry": {"type": "Point", "coordinates": [-73.640511, 40.642724]}},
{"type": "Feature", "id": "zezh_A16nIw5_KZficI3802ASwk=", "properties": {"ref": "450 Hackensack Avenue", "@spider": "vetco", "addr:full": "450 Hackensack Avenue", "addr:city": "Hackensack", "addr:state": "NJ", "addr:postcode": "07601", "website": "https://www.vetcoclinics.com/_assets/dynamic/ajax/locator.php?zip=06401", "brand": "Vetco Clinics"}, "geometry": {"type": "Point", "coordinates": [-74.029696, 40.90887]}},
{"type": "Feature", "id": "WKH43y38EtnrU1iUor7zbBz4hgo=", "properties": {"ref": "9 Interstate Shopping Center", "@spider": "vetco", "addr:full": "9 Interstate Shopping Center", "addr:city": "Ramsey", "addr:state": "NJ", "addr:postcode": "07446", "website": "https://www.vetcoclinics.com/_assets/dynamic/ajax/locator.php?zip=06401", "brand": "Vetco Clinics"}, "geometry": {"type": "Point", "coordinates": [-74.138023, 41.068233]}},
{"type": "Feature", "id": "ENbFZcd0Y9hze25zpGVbXztkX4E=", "properties": {"ref": "450 Route 17 North", "@spider": "vetco", "addr:full": "450 Route 17 North", "addr:city": "Paramus", "addr:state": "NJ", "addr:postcode": "07652", "website": "https://www.vetcoclinics.com/_assets/dynamic/ajax/locator.php?zip=06401", "brand": "Vetco Clinics"}, "geometry": {"type": "Point", "coordinates": [-74.072067, 40.951607]}},
{"type": "Feature", "id": "WwuBuVy5e5Fxq9ralF2mLoJWSZA=", "properties": {"ref": "1296 Broadway", "@spider": "vetco", "addr:full": "1296 Broadway", "addr:city": "Hewlett", "addr:state": "NY", "addr:postcode": "11557", "website": "https://www.vetcoclinics.com/_assets/dynamic/ajax/locator.php?zip=06401", "brand": "Vetco Clinics"}, "geometry": {"type": "Point", "coordinates": [-73.700991, 40.638749]}},
{"type": "Feature", "id": "Jv5SAVqWxeGCHs2x9nF4hNZX6tc=", "properties": {"ref": "7507 31st Avenue", "@spider": "vetco", "addr:full": "7507 31st Avenue", "addr:city": "East Elmhurst", "addr:state": "NY", "addr:postcode": "11370", "website": "https://www.vetcoclinics.com/_assets/dynamic/ajax/locator.php?zip=06401", "brand": "Vetco Clinics"}, "geometry": {"type": "Point", "coordinates": [-73.892161, 40.758603]}},
{"type": "Feature", "id": "aNdqs5XRG_ZWns1pDKEkzukXX44=", "properties": {"ref": "61-35 Junction Blvd", "@spider": "vetco", "addr:full": "61-35 Junction Blvd", "addr:city": "Queens", "addr:state": "NY", "addr:postcode": "11374", "website": "https://www.vetcoclinics.com/_assets/dynamic/ajax/locator.php?zip=06401", "brand": "Vetco Clinics"}, "geometry": {"type": "Point", "coordinates": [-73.863572, 40.73333]}},
{"type": "Feature", "id": "V7JXrcdrCKK3uTIe0zYOpnxrKcQ=", "properties": {"ref": "9111 Metropolitan Avenue", "@spider": "vetco", "addr:full": "9111 Metropolitan Avenue", "addr:city": "Forest Hills", "addr:state": "NY", "addr:postcode": "11374", "website": "https://www.vetcoclinics.com/_assets/dynamic/ajax/locator.php?zip=06401", "brand": "Vetco Clinics"}, "geometry": {"type": "Point", "coordinates": [-73.85804, 40.711907]}},
{"type": "Feature", "id": "JN6eUh3nb6hS0X4HrsEN99XZTeM=", "properties": {"ref": "1280 Lexington Avenue", "@spider": "vetco", "addr:full": "1280 Lexington Avenue", "addr:city": "New York", "addr:state": "NY", "addr:postcode": "10028", "website": "https://www.vetcoclinics.com/_assets/dynamic/ajax/locator.php?zip=06460", "brand": "Vetco Clinics"}, "geometry": {"type": "Point", "coordinates": [-73.955164, 40.779671]}},
{"type": "Feature", "id": "rIXGruHaVOE5rFNMlJBtnyIafX0=", "properties": {"ref": "2475 Broadway", "@spider": "vetco", "addr:full": "2475 Broadway", "addr:city": "New York", "addr:state": "NY", "addr:postcode": "10025", "website": "https://www.vetcoclinics.com/_assets/dynamic/ajax/locator.php?zip=06460", "brand": "Vetco Clinics"}, "geometry": {"type": "Point", "coordinates": [-73.974123, 40.792091]}},
{"type": "Feature", "id": "KJR6_rpn1l-hjZdSH6aLU4rkPUE=", "properties": {"ref": "157-20 Cross Bay Boulevard", "@spider": "vetco", "addr:full": "157-20 Cross Bay Boulevard", "addr:city": "Howard Beach", "addr:state": "NY", "addr:postcode": "11414", "website": "https://www.vetcoclinics.com/_assets/dynamic/ajax/locator.php?zip=06460", "brand": "Vetco Clinics"}, "geometry": {"type": "Point", "coordinates": [-73.841005, 40.661741]}},
{"type": "Feature", "id": "MxpVrF90NdvdggJoqhMSTa-Kg_4=", "properties": {"ref": "991 Second Avenue", "@spider": "vetco", "addr:full": "991 Second Avenue", "addr:city": "New York", "addr:state": "NY", "addr:postcode": "10022", "website": "https://www.vetcoclinics.com/_assets/dynamic/ajax/locator.php?zip=06460", "brand": "Vetco Clinics"}, "geometry": {"type": "Point", "coordinates": [-73.967385, 40.756463]}},
{"type": "Feature", "id": "8ld-BYpOCEi-mrrv98BX244Y-_I=", "properties": {"ref": "18 Teterboro Landing Drive", "@spider": "vetco", "addr:full": "18 Teterboro Landing Drive", "addr:city": "Teterboro", "addr:state": "NJ", "addr:postcode": "07608", "website": "https://www.vetcoclinics.com/_assets/dynamic/ajax/locator.php?zip=06460", "brand": "Vetco Clinics"}, "geometry": {"type": "Point", "coordinates": [-74.059308, 40.859822]}},
{"type": "Feature", "id": "r2jauEJBC3IHZpcilUuAzC680X4=", "properties": {"ref": "528 Gateway Drive", "@spider": "vetco", "addr:full": "528 Gateway Drive", "addr:city": "Brooklyn", "addr:state": "NY", "addr:postcode": "11239", "website": "https://www.vetcoclinics.com/_assets/dynamic/ajax/locator.php?zip=06460", "brand": "Vetco Clinics"}, "geometry": {"type": "Point", "coordinates": [-73.870253, 40.650274]}},
{"type": "Feature", "id": "diTg-h2u-SvI2-3JXTFolp0iCBo=", "properties": {"ref": "5812 Bergenline Avenue", "@spider": "vetco", "addr:full": "5812 Bergenline Avenue", "addr:city": "West New York", "addr:state": "NJ", "addr:postcode": "07093", "website": "https://www.vetcoclinics.com/_assets/dynamic/ajax/locator.php?zip=06460", "brand": "Vetco Clinics"}, "geometry": {"type": "Point", "coordinates": [-74.016735, 40.787828]}},
{"type": "Feature", "id": "0pCqMDvSXVcMmcwXVDNvwARXa0M=", "properties": {"ref": "85 Godwin Avenue", "@spider": "vetco", "addr:full": "85 Godwin Avenue", "addr:city": "Midland Park", "addr:state": "NJ", "addr:postcode": "07432", "website": "https://www.vetcoclinics.com/_assets/dynamic/ajax/locator.php?zip=06460", "brand": "Vetco Clinics"}, "geometry": {"type": "Point", "coordinates": [-74.139272, 40.984447]}},
{"type": "Feature", "id": "BLCLm0YH2X2gEGoBVDMw7Rerxo4=", "properties": {"ref": "860 Broadway", "@spider": "vetco", "addr:full": "860 Broadway", "addr:city": "New York", "addr:state": "NY", "addr:postcode": "10003", "website": "https://www.vetcoclinics.com/_assets/dynamic/ajax/locator.php?zip=06460", "brand": "Vetco Clinics"}, "geometry": {"type": "Point", "coordinates": [-73.99003, 40.737151]}},
{"type": "Feature", "id": "fQDEOxpcbNlohiWq51iBrxVHrow=", "properties": {"ref": "3133 Kennedy Boulevard", "@spider": "vetco", "addr:full": "3133 Kennedy Boulevard", "addr:city": "North Bergen", "addr:state": "NJ", "addr:postcode": "07047", "website": "https://www.vetcoclinics.com/_assets/dynamic/ajax/locator.php?zip=06460", "brand": "Vetco Clinics"}, "geometry": {"type": "Point", "coordinates": [-74.033704, 40.774872]}},
{"type": "Feature", "id": "VFxM5wVrG30LMwv0nZQsrLPZnlc=", "properties": {"ref": "780 Route 3 West", "@spider": "vetco", "addr:full": "780 Route 3 West", "addr:city": "Clifton", "addr:state": "NJ", "addr:postcode": "07012", "website": "https://www.vetcoclinics.com/_assets/dynamic/ajax/locator.php?zip=06468", "brand": "Vetco Clinics"}, "geometry": {"type": "Point", "coordinates": [-74.152949, 40.837243]}},
{"type": "Feature", "id": "LOf5s_jhHXXmZrtLi4nZOWnd-LI=", "properties": {"ref": "1 US Highway 46", "@spider": "vetco", "addr:full": "1 US Highway 46", "addr:city": "Totowa", "addr:state": "NJ", "addr:postcode": "07512", "website": "https://www.vetcoclinics.com/_assets/dynamic/ajax/locator.php?zip=06468", "brand": "Vetco Clinics"}, "geometry": {"type": "Point", "coordinates": [-74.220684, 40.891547]}},
{"type": "Feature", "id": "THjBw4KCuQrHw2_3fr8vfc3X5zs=", "properties": {"ref": "81 Seventh Avenue", "@spider": "vetco", "addr:full": "81 Seventh Avenue", "addr:city": "Brooklyn", "addr:state": "NY", "addr:postcode": "11217", "website": "https://www.vetcoclinics.com/_assets/dynamic/ajax/locator.php?zip=06604", "brand": "Vetco Clinics"}, "geometry": {"type": "Point", "coordinates": [-73.974992, 40.674751]}},
{"type": "Feature", "id": "zmLwIRozfzhrpIkVXj5yCH798Ew=", "properties": {"ref": "2343 Utica Avenue", "@spider": "vetco", "addr:full": "2343 Utica Avenue", "addr:city": "Brooklyn", "addr:state": "NY", "addr:postcode": "11234", "website": "https://www.vetcoclinics.com/_assets/dynamic/ajax/locator.php?zip=06604", "brand": "Vetco Clinics"}, "geometry": {"type": "Point", "coordinates": [-73.92598, 40.613714]}},
{"type": "Feature", "id": "qYtMAfXuiCmBqShTYPEPyhsr-5w=", "properties": {"ref": "241 37th St", "@spider": "vetco", "addr:full": "241 37th St", "addr:city": "Brooklyn", "addr:state": "NY", "addr:postcode": "11232", "website": "https://www.vetcoclinics.com/_assets/dynamic/ajax/locator.php?zip=06604", "brand": "Vetco Clinics"}, "geometry": {"type": "Point", "coordinates": [-74.007972, 40.656233]}},
{"type": "Feature", "id": "9g5-0FmAThGYVtUXJELbQx1V-r4=", "properties": {"ref": "1610 Avenue Y", "@spider": "vetco", "addr:full": "1610 Avenue Y", "addr:city": "Brooklyn", "addr:state": "NY", "addr:postcode": "11235", "website": "https://www.vetcoclinics.com/_assets/dynamic/ajax/locator.php?zip=06604", "brand": "Vetco Clinics"}, "geometry": {"type": "Point", "coordinates": [-73.953451, 40.589961]}},
{"type": "Feature", "id": "QwzQOIbgJIh2NcObRm6cMG17kho=", "properties": {"ref": "321 Kellogg Street", "@spider": "vetco", "addr:full": "321 Kellogg Street", "addr:city": "Jersey City", "addr:state": "NJ", "addr:postcode": "07305", "website": "https://www.vetcoclinics.com/_assets/dynamic/ajax/locator.php?zip=06604", "brand": "Vetco Clinics"}, "geometry": {"type": "Point", "coordinates": [-74.106042, 40.714274]}},
{"type": "Feature", "id": "XnTjcQD65_BXwARbccbUvCXp7co=", "properties": {"ref": "2601 86th Street", "@spider": "vetco", "addr:full": "2601 86th Street", "addr:city": "Brooklyn", "addr:state": "NY", "addr:postcode": "11223", "website": "https://www.vetcoclinics.com/_assets/dynamic/ajax/locator.php?zip=06604", "brand": "Vetco Clinics"}, "geometry": {"type": "Point", "coordinates": [-73.984903, 40.596861]}},
{"type": "Feature", "id": "57_69m4fF85OI9U9ZL3OJ9fSw7w=", "properties": {"ref": "339 Pompton Avenue", "@spider": "vetco", "addr:full": "339 Pompton Avenue", "addr:city": "Verona", "addr:state": "NJ", "addr:postcode": "07044", "website": "https://www.vetcoclinics.com/_assets/dynamic/ajax/locator.php?zip=06604", "brand": "Vetco Clinics"}, "geometry": {"type": "Point", "coordinates": [-74.247278, 40.836743]}},
{"type": "Feature", "id": "jgLzvdpxSeKqVvr7b-1rHz_rEgY=", "properties": {"ref": "322 Main Street", "@spider": "vetco", "addr:full": "322 Main Street", "addr:city": "Orange", "addr:state": "NJ", "addr:postcode": "07050", "website": "https://www.vetcoclinics.com/_assets/dynamic/ajax/locator.php?zip=06605", "brand": "Vetco Clinics"}, "geometry": {"type": "Point", "coordinates": [-74.230413, 40.772474]}},
{"type": "Feature", "id": "rC9oXuyODm0mlizezIBEuF0TV3g=", "properties": {"ref": "495 Prospect Avenue", "@spider": "vetco", "addr:full": "495 Prospect Avenue", "addr:city": "West Orange", "addr:state": "NJ", "addr:postcode": "07052", "website": "https://www.vetcoclinics.com/_assets/dynamic/ajax/locator.php?zip=06605", "brand": "Vetco Clinics"}, "geometry": {"type": "Point", "coordinates": [-74.25626, 40.79291]}},
{"type": "Feature", "id": "KCFFkzKfz5Cu8R1v7ggD2Kc15MQ=", "properties": {"ref": "27 Broad Street", "@spider": "vetco", "addr:full": "27 Broad Street", "addr:city": "Elizabeth", "addr:state": "NJ", "addr:postcode": "07201", "website": "https://www.vetcoclinics.com/_assets/dynamic/ajax/locator.php?zip=06807", "brand": "Vetco Clinics"}, "geometry": {"type": "Point", "coordinates": [-74.214693, 40.662904]}},
{"type": "Feature", "id": "Ski0Etk0gbTPKM3ExhXSQXE0QFQ=", "properties": {"ref": "1111 Route 46 East", "@spider": "vetco", "addr:full": "1111 Route 46 East", "addr:city": "Parsippany", "addr:state": "NJ", "addr:postcode": "07054", "website": "https://www.vetcoclinics.com/_assets/dynamic/ajax/locator.php?zip=06807", "brand": "Vetco Clinics"}, "geometry": {"type": "Point", "coordinates": [-74.385474, 40.862851]}},
{"type": "Feature", "id": "p8OalYjIVkRWHwo6eoz6EL0pE1U=", "properties": {"ref": "150 Route 10 West", "@spider": "vetco", "addr:full": "150 Route 10 West", "addr:city": "East Hanover", "addr:state": "NJ", "addr:postcode": "07936", "website": "https://www.vetcoclinics.com/_assets/dynamic/ajax/locator.php?zip=06807", "brand": "Vetco Clinics"}, "geometry": {"type": "Point", "coordinates": [-74.379791, 40.810532]}},
{"type": "Feature", "id": "6a1JNR6lUFZ_yai10MyVuQyOlR8=", "properties": {"ref": "2795 Richmond Avenue", "@spider": "vetco", "addr:full": "2795 Richmond Avenue", "addr:city": "Staten Island", "addr:state": "NY", "addr:postcode": "10314", "website": "https://www.vetcoclinics.com/_assets/dynamic/ajax/locator.php?zip=06807", "brand": "Vetco Clinics"}, "geometry": {"type": "Point", "coordinates": [-74.16744, 40.576995]}},
{"type": "Feature", "id": "JXPZ-fGtN2TLdBEFFofCa8RZm7c=", "properties": {"ref": "2706 US Hwy 22 E", "@spider": "vetco", "addr:full": "2706 US Hwy 22 E", "addr:city": "Union", "addr:state": "NJ", "addr:postcode": "07083", "website": "https://www.vetcoclinics.com/_assets/dynamic/ajax/locator.php?zip=06807", "brand": "Vetco Clinics"}, "geometry": {"type": "Point", "coordinates": [-74.306631, 40.688274]}},
{"type": "Feature", "id": "p5mamA8JrhZpm7FttwTliQ05CRo=", "properties": {"ref": "2900 Veterans Rd W", "@spider": "vetco", "addr:full": "2900 Veterans Rd W", "addr:city": "Staten Island", "addr:state": "NY", "addr:postcode": "10309", "website": "https://www.vetcoclinics.com/_assets/dynamic/ajax/locator.php?zip=06807", "brand": "Vetco Clinics"}, "geometry": {"type": "Point", "coordinates": [-74.232615, 40.528717]}},
{"type": "Feature", "id": "J8B3nHJTSYC_iipQprUglVXkVok=", "properties": {"ref": "1029 US Route 1 South", "@spider": "vetco", "addr:full": "1029 US Route 1 South", "addr:city": "Edison", "addr:state": "NJ", "addr:postcode": "08837", "website": "https://www.vetcoclinics.com/_assets/dynamic/ajax/locator.php?zip=06807", "brand": "Vetco Clinics"}, "geometry": {"type": "Point", "coordinates": [-74.310416, 40.556235]}},
{"type": "Feature", "id": "wPl0EIqagh_F_CrBjbwM-ZF1-2w=", "properties": {"ref": "1391 Route 35", "@spider": "vetco", "addr:full": "1391 Route 35", "addr:city": "Middletown", "addr:state": "NJ", "addr:postcode": "07748", "website": "https://www.vetcoclinics.com/_assets/dynamic/ajax/locator.php?zip=06807", "brand": "Vetco Clinics"}, "geometry": {"type": "Point", "coordinates": [-74.121826, 40.40301]}},
{"type": "Feature", "id": "ecksdG21BWXvoSqi36wRhYtFw1I=", "properties": {"ref": "1262 US Rt 22 E", "@spider": "vetco", "addr:full": "1262 US Rt 22 E", "addr:city": "North Plainfield", "addr:state": "NJ", "addr:postcode": "07060", "website": "https://www.vetcoclinics.com/_assets/dynamic/ajax/locator.php?zip=06807", "brand": "Vetco Clinics"}, "geometry": {"type": "Point", "coordinates": [-74.42481, 40.620102]}},
{"type": "Feature", "id": "oDcpHKGyz-W3ekmO7CCpSe1Tmw0=", "properties": {"ref": "1060 US Hwy 9", "@spider": "vetco", "addr:full": "1060 US Hwy 9", "addr:city": "Parlin", "addr:state": "NJ", "addr:postcode": "08859", "website": "https://www.vetcoclinics.com/_assets/dynamic/ajax/locator.php?zip=06807", "brand": "Vetco Clinics"}, "geometry": {"type": "Point", "coordinates": [-74.299229, 40.452335]}},
{"type": "Feature", "id": "moPHrFsc2ZFYmxVmDUSgB5PdSlY=", "properties": {"ref": "1333 Centennial Avenue", "@spider": "vetco", "addr:full": "1333 Centennial Avenue", "addr:city": "Piscataway", "addr:state": "NJ", "addr:postcode": "08854", "website": "https://www.vetcoclinics.com/_assets/dynamic/ajax/locator.php?zip=06807", "brand": "Vetco Clinics"}, "geometry": {"type": "Point", "coordinates": [-74.438596, 40.553618]}},
{"type": "Feature", "id": "UeKe3SJiW24BXsU6_lhPtDYHvsc=", "properties": {"ref": "275 Route 10", "@spider": "vetco", "addr:full": "275 Route 10", "addr:city": "Succasunna", "addr:state": "NJ", "addr:postcode": "07876", "website": "https://www.vetcoclinics.com/_assets/dynamic/ajax/locator.php?zip=06807", "brand": "Vetco Clinics"}, "geometry": {"type": "Point", "coordinates": [-74.682889, 40.90284]}},
{"type": "Feature", "id": "qXijbtvlDBf4ecpZ5VQaSoSuK9E=", "properties": {"ref": "231 Highway 35", "@spider": "vetco", "addr:full": "231 Highway 35", "addr:city": "Eatontown", "addr:state": "NJ", "addr:postcode": "07724", "website": "https://www.vetcoclinics.com/_assets/dynamic/ajax/locator.php?zip=06807", "brand": "Vetco Clinics"}, "geometry": {"type": "Point", "coordinates": [-74.05026, 40.288762]}},
{"type": "Feature", "id": "QeWXH-jtuX1wo46WADBBcLhImTY=", "properties": {"ref": "300 Ryders Lane", "@spider": "vetco", "addr:full": "300 Ryders Lane", "addr:city": "Milltown", "addr:state": "NJ", "addr:postcode": "08850", "website": "https://www.vetcoclinics.com/_assets/dynamic/ajax/locator.php?zip=06830", "brand": "Vetco Clinics"}, "geometry": {"type": "Point", "coordinates": [-74.424172, 40.449731]}},
{"type": "Feature", "id": "gg0BqbqsQ8E7lwDOuBlgo5q9FEI=", "properties": {"ref": "95 US 9", "@spider": "vetco", "addr:full": "95 US 9", "addr:city": "Marlboro", "addr:state": "NJ", "addr:postcode": "07726", "website": "https://www.vetcoclinics.com/_assets/dynamic/ajax/locator.php?zip=06830", "brand": "Vetco Clinics"}, "geometry": {"type": "Point", "coordinates": [-74.308674, 40.352822]}},
{"type": "Feature", "id": "ygNa7CuA8ll3lOGY6hbqzMDmCrk=", "properties": {"ref": "4345 US Route 9", "@spider": "vetco", "addr:full": "4345 US Route 9", "addr:city": "Freehold", "addr:state": "NJ", "addr:postcode": "07728", "website": "https://www.vetcoclinics.com/_assets/dynamic/ajax/locator.php?zip=07001", "brand": "Vetco Clinics"}, "geometry": {"type": "Point", "coordinates": [-74.292796, 40.28255]}},
{"type": "Feature", "id": "rpBedMNOtkBdxz9Ir_PSwQOBXGs=", "properties": {"ref": "440 Rte 130 S", "@spider": "vetco", "addr:full": "440 Rte 130 S", "addr:city": "Windsor", "addr:state": "NJ", "addr:postcode": "08520", "website": "https://www.vetcoclinics.com/_assets/dynamic/ajax/locator.php?zip=07001", "brand": "Vetco Clinics"}, "geometry": {"type": "Point", "coordinates": [-74.540276, 40.272498]}},
{"type": "Feature", "id": "f5LgTe4bmzAWH_PLohNRGMXzq_Y=", "properties": {"ref": "300 US Hwy 202", "@spider": "vetco", "addr:full": "300 US Hwy 202", "addr:city": "Raritan", "addr:state": "NJ", "addr:postcode": "08869", "website": "https://www.vetcoclinics.com/_assets/dynamic/ajax/locator.php?zip=07001", "brand": "Vetco Clinics"}, "geometry": {"type": "Point", "coordinates": [-74.854231, 40.497778]}},
{"type": "Feature", "id": "j8dFpN4Qs8W9v1kDNAfeZiEOPnQ=", "properties": {"ref": "1215-1309 Route 33", "@spider": "vetco", "addr:full": "1215-1309 Route 33", "addr:city": "Hamilton", "addr:state": "NJ", "addr:postcode": "08690", "website": "https://www.vetcoclinics.com/_assets/dynamic/ajax/locator.php?zip=07001", "brand": "Vetco Clinics"}, "geometry": {"type": "Point", "coordinates": [-74.664112, 40.226162]}},
{"type": "Feature", "id": "ZyGduQzs8vOpO5HqAQz1wtpIOw0=", "properties": {"ref": "509 Route 70", "@spider": "vetco", "addr:full": "509 Route 70", "addr:city": "Brick", "addr:state": "NJ", "addr:postcode": "08723", "website": "https://www.vetcoclinics.com/_assets/dynamic/ajax/locator.php?zip=07001", "brand": "Vetco Clinics"}, "geometry": {"type": "Point", "coordinates": [-74.123, 40.042479]}},
{"type": "Feature", "id": "gtPU3o2Ssi-1_hg-Yb8TRwJndsk=", "properties": {"ref": "1331 Hooper Avenue", "@spider": "vetco", "addr:full": "1331 Hooper Avenue", "addr:city": "Toms River", "addr:state": "NJ", "addr:postcode": "08753", "website": "https://www.vetcoclinics.com/_assets/dynamic/ajax/locator.php?zip=07001", "brand": "Vetco Clinics"}, "geometry": {"type": "Point", "coordinates": [-74.15141, 39.974584]}},
{"type": "Feature", "id": "kWFysC4eAw5Fg5mXDAUmNvdy5l4=", "properties": {"ref": "1209 New Brunswick Avenue", "@spider": "vetco", "addr:full": "1209 New Brunswick Avenue", "addr:city": "Phillipsburg", "addr:state": "NJ", "addr:postcode": "08865", "website": "https://www.vetcoclinics.com/_assets/dynamic/ajax/locator.php?zip=07001", "brand": "Vetco Clinics"}, "geometry": {"type": "Point", "coordinates": [-75.135771, 40.675427]}},
{"type": "Feature", "id": "yGLRrO1e8Cec-0CrkCqRDci1a5k=", "properties": {"ref": "2353-2355 Street Road", "@spider": "vetco", "addr:full": "2353-2355 Street Road", "addr:city": "Bensalem", "addr:state": "PA", "addr:postcode": "19020", "website": "https://www.vetcoclinics.com/_assets/dynamic/ajax/locator.php?zip=07001", "brand": "Vetco Clinics"}, "geometry": {"type": "Point", "coordinates": [-74.950151, 40.103744]}},
{"type": "Feature", "id": "h8ciWUjCVObPr6jxIZHIiXXBYEU=", "properties": {"ref": "97 East Street Road", "@spider": "vetco", "addr:full": "97 East Street Road", "addr:city": "Feasterville", "addr:state": "PA", "addr:postcode": "19053", "website": "https://www.vetcoclinics.com/_assets/dynamic/ajax/locator.php?zip=07001", "brand": "Vetco Clinics"}, "geometry": {"type": "Point", "coordinates": [-74.99994, 40.147636]}},
{"type": "Feature", "id": "S-W76nh-6Z3HyrD1tTfu1AlCl8w=", "properties": {"ref": "389 Easton rd", "@spider": "vetco", "addr:full": "389 Easton rd", "addr:city": "Warrington", "addr:state": "PA", "addr:postcode": "18976", "website": "https://www.vetcoclinics.com/_assets/dynamic/ajax/locator.php?zip=07001", "brand": "Vetco Clinics"}, "geometry": {"type": "Point", "coordinates": [-75.138211, 40.222354]}},
{"type": "Feature", "id": "zKEwoXb-tBFxikevf-PIidHCT9A=", "properties": {"ref": "2429 Nazareth Road", "@spider": "vetco", "addr:full": "2429 Nazareth Road", "addr:city": "Easton", "addr:state": "PA", "addr:postcode": "18042", "website": "https://www.vetcoclinics.com/_assets/dynamic/ajax/locator.php?zip=07001", "brand": "Vetco Clinics"}, "geometry": {"type": "Point", "coordinates": [-75.252115, 40.689858]}},
{"type": "Feature", "id": "t1M3Fmd6zvsWG9QoGzr_R-mCX1w=", "properties": {"ref": "9717 Roosevelt Boulevard", "@spider": "vetco", "addr:full": "9717 Roosevelt Boulevard", "addr:city": "Philadelphia", "addr:state": "PA", "addr:postcode": "19114", "website": "https://www.vetcoclinics.com/_assets/dynamic/ajax/locator.php?zip=07001", "brand": "Vetco Clinics"}, "geometry": {"type": "Point", "coordinates": [-75.026021, 40.083414]}},
{"type": "Feature", "id": "7PlkYRGflKLiJA-RsFOydlsH0t4=", "properties": {"ref": "3895 Dryland Way", "@spider": "vetco", "addr:full": "3895 Dryland Way", "addr:city": "Easton", "addr:state": "PA", "addr:postcode": "18045", "website": "https://www.vetcoclinics.com/_assets/dynamic/ajax/locator.php?zip=07001", "brand": "Vetco Clinics"}, "geometry": {"type": "Point", "coordinates": [-75.288542, 40.713574]}},
{"type": "Feature", "id": "2e6jbL14GeaFOvCCA28x6xYh1y0=", "properties": {"ref": "2920 Easton Avenue", "@spider": "vetco", "addr:full": "2920 Easton Avenue", "addr:city": "Bethlehem", "addr:state": "PA", "addr:postcode": "18017", "website": "https://www.vetcoclinics.com/_assets/dynamic/ajax/locator.php?zip=07001", "brand": "Vetco Clinics"}, "geometry": {"type": "Point", "coordinates": [-75.340068, 40.648618]}},
{"type": "Feature", "id": "8cEd9jMg1fkpJDVJrCuumm4CV-o=", "properties": {"ref": "246 N West End Blvd", "@spider": "vetco", "addr:full": "246 N West End Blvd", "addr:city": "Quakertown", "addr:state": "PA", "addr:postcode": "18951", "website": "https://www.vetcoclinics.com/_assets/dynamic/ajax/locator.php?zip=07001", "brand": "Vetco Clinics"}, "geometry": {"type": "Point", "coordinates": [-75.363046, 40.447492]}},
{"type": "Feature", "id": "F-1U6kx4mOXCKJhZOEHZ4cOWW34=", "properties": {"ref": "3300 Aramingo Avenue", "@spider": "vetco", "addr:full": "3300 Aramingo Avenue", "addr:city": "Philadelphia", "addr:state": "PA", "addr:postcode": "19105", "website": "https://www.vetcoclinics.com/_assets/dynamic/ajax/locator.php?zip=07001", "brand": "Vetco Clinics"}, "geometry": {"type": "Point", "coordinates": [-75.103378, 39.99058]}},
{"type": "Feature", "id": "DS0L9yCfSrBhXusXJsy86jXke1g=", "properties": {"ref": "2621 MacArthur Road", "@spider": "vetco", "addr:full": "2621 MacArthur Road", "addr:city": "Whitehall", "addr:state": "PA", "addr:postcode": "18052", "website": "https://www.vetcoclinics.com/_assets/dynamic/ajax/locator.php?zip=07005", "brand": "Vetco Clinics"}, "geometry": {"type": "Point", "coordinates": [-75.492886, 40.645098]}},
{"type": "Feature", "id": "QIRwmSwiLE93hyqLJ9fPiud0C4E=", "properties": {"ref": "3300 Lehigh Street", "@spider": "vetco", "addr:full": "3300 Lehigh Street", "addr:city": "Allentown", "addr:state": "PA", "addr:postcode": "18103", "website": "https://www.vetcoclinics.com/_assets/dynamic/ajax/locator.php?zip=07023", "brand": "Vetco Clinics"}, "geometry": {"type": "Point", "coordinates": [-75.49075, 40.556113]}},
{"type": "Feature", "id": "ACGVLPgfanYZNaou7PAfNCpQHAI=", "properties": {"ref": "8500 Henry Avenue", "@spider": "vetco", "addr:full": "8500 Henry Avenue", "addr:city": "Philadelphia", "addr:state": "PA", "addr:postcode": "19128", "website": "https://www.vetcoclinics.com/_assets/dynamic/ajax/locator.php?zip=07059", "brand": "Vetco Clinics"}, "geometry": {"type": "Point", "coordinates": [-75.23727, 40.062635]}},
{"type": "Feature", "id": "8kOgHmaH_NkQSRoDF0PrG77gunQ=", "properties": {"ref": "2230 Marlton Pike West", "@spider": "vetco", "addr:full": "2230 Marlton Pike West", "addr:city": "Cherry Hill", "addr:state": "NJ", "addr:postcode": "08002", "website": "https://www.vetcoclinics.com/_assets/dynamic/ajax/locator.php?zip=07059", "brand": "Vetco Clinics"}, "geometry": {"type": "Point", "coordinates": [-75.043054, 39.923146]}},
{"type": "Feature", "id": "pXL56ovblufZC9hDTjFaK2Rbwug=", "properties": {"ref": "180 W Girard Ave", "@spider": "vetco", "addr:full": "180 W Girard Ave", "addr:city": "Philadelphia", "addr:state": "PA", "addr:postcode": "19123", "website": "https://www.vetcoclinics.com/_assets/dynamic/ajax/locator.php?zip=07059", "brand": "Vetco Clinics"}, "geometry": {"type": "Point", "coordinates": [-75.139032, 39.968439]}},
{"type": "Feature", "id": "b0aNAAsZf3q4ILCRtVEI3eWkOSs=", "properties": {"ref": "1939 Callowhill St", "@spider": "vetco", "addr:full": "1939 Callowhill St", "addr:city": "Philadelphia", "addr:state": "PA", "addr:postcode": "19130", "website": "https://www.vetcoclinics.com/_assets/dynamic/ajax/locator.php?zip=07059", "brand": "Vetco Clinics"}, "geometry": {"type": "Point", "coordinates": [-75.171249, 39.960889]}},
{"type": "Feature", "id": "PzqJzanz9mY9rhnPPRIe-Zm1EwQ=", "properties": {"ref": "1844 East Ridge Pike", "@spider": "vetco", "addr:full": "1844 East Ridge Pike", "addr:city": "Royersford", "addr:state": "PA", "addr:postcode": "19468", "website": "https://www.vetcoclinics.com/_assets/dynamic/ajax/locator.php?zip=07059", "brand": "Vetco Clinics"}, "geometry": {"type": "Point", "coordinates": [-75.49842, 40.214032]}},
{"type": "Feature", "id": "GtTqLXa1iGqbc04Tm_A0LNrSO5E=", "properties": {"ref": "270 East Lancaster Avenue", "@spider": "vetco", "addr:full": "270 East Lancaster Avenue", "addr:city": "Wynnewood", "addr:state": "PA", "addr:postcode": "19096", "website": "https://www.vetcoclinics.com/_assets/dynamic/ajax/locator.php?zip=07059", "brand": "Vetco Clinics"}, "geometry": {"type": "Point", "coordinates": [-75.283954, 40.003446]}},
{"type": "Feature", "id": "mISnoZA7xl-GGHhFqFKovKEBdAA=", "properties": {"ref": "700 Crescent Boulevard", "@spider": "vetco", "addr:full": "700 Crescent Boulevard", "addr:city": "Brooklawn", "addr:state": "NJ", "addr:postcode": "08030", "website": "https://www.vetcoclinics.com/_assets/dynamic/ajax/locator.php?zip=07719", "brand": "Vetco Clinics"}, "geometry": {"type": "Point", "coordinates": [-75.112286, 39.878597]}},
{"type": "Feature", "id": "dNCG4t2G73mYlUS0m4pxpKdKDUA=", "properties": {"ref": "6801 Blackhorse Pike", "@spider": "vetco", "addr:full": "6801 Blackhorse Pike", "addr:city": "Egg Harbor", "addr:state": "NJ", "addr:postcode": "08234", "website": "https://www.vetcoclinics.com/_assets/dynamic/ajax/locator.php?zip=07719", "brand": "Vetco Clinics"}, "geometry": {"type": "Point", "coordinates": [-74.552795, 39.39618]}},
{"type": "Feature", "id": "ak48CSuE78RnxeI6ADa_3USu6Uw=", "properties": {"ref": "141 Tuckahoe Road", "@spider": "vetco", "addr:full": "141 Tuckahoe Road", "addr:city": "Sewell", "addr:state": "NJ", "addr:postcode": "08080", "website": "https://www.vetcoclinics.com/_assets/dynamic/ajax/locator.php?zip=07719", "brand": "Vetco Clinics"}, "geometry": {"type": "Point", "coordinates": [-75.029032, 39.7191]}},
{"type": "Feature", "id": "xLhE3vV9eAOD7HE1FYOgL-lhFoU=", "properties": {"ref": "7901 Landsdowne Avenue", "@spider": "vetco", "addr:full": "7901 Landsdowne Avenue", "addr:city": "Upper Darby", "addr:state": "PA", "addr:postcode": "19082", "website": "https://www.vetcoclinics.com/_assets/dynamic/ajax/locator.php?zip=07726", "brand": "Vetco Clinics"}, "geometry": {"type": "Point", "coordinates": [-75.286821, 39.960173]}},
{"type": "Feature", "id": "DvOsVbpm8OaHpqvkJQgb6g_TDfA=", "properties": {"ref": "5300 West Baltimore Avenue", "@spider": "vetco", "addr:full": "5300 West Baltimore Avenue", "addr:city": "Clifton Heights", "addr:state": "PA", "addr:postcode": "19018", "website": "https://www.vetcoclinics.com/_assets/dynamic/ajax/locator.php?zip=07726", "brand": "Vetco Clinics"}, "geometry": {"type": "Point", "coordinates": [-75.308165, 39.925527]}},
{"type": "Feature", "id": "6nLQwOQX89Jky7ka02TWEt9-HtM=", "properties": {"ref": "3480 Wilkes Barre Township Commons", "@spider": "vetco", "addr:full": "3480 Wilkes Barre Township Commons", "addr:city": "Wilkes-barre", "addr:state": "PA", "addr:postcode": "18702", "website": "https://www.vetcoclinics.com/_assets/dynamic/ajax/locator.php?zip=07820", "brand": "Vetco Clinics"}, "geometry": {"type": "Point", "coordinates": [-75.843341, 41.238007]}},
{"type": "Feature", "id": "6Cbxfllz6AtB7JXqi8mt588OPcA=", "properties": {"ref": "240 Upland Square Drive", "@spider": "vetco", "addr:full": "240 Upland Square Drive", "addr:city": "Stowe", "addr:state": "PA", "addr:postcode": "19464", "website": "https://www.vetcoclinics.com/_assets/dynamic/ajax/locator.php?zip=07823", "brand": "Vetco Clinics"}, "geometry": {"type": "Point", "coordinates": [-75.653825, 40.26639]}},
{"type": "Feature", "id": "63VE2k2EyoRuTAHBqaH8vsY_Z-4=", "properties": {"ref": "41 West Side Mall", "@spider": "vetco", "addr:full": "41 West Side Mall", "addr:city": "Edwardsville", "addr:state": "PA", "addr:postcode": "18704", "website": "https://www.vetcoclinics.com/_assets/dynamic/ajax/locator.php?zip=07823", "brand": "Vetco Clinics"}, "geometry": {"type": "Point", "coordinates": [-75.902805, 41.259703]}},
{"type": "Feature", "id": "3vxFYh2N6oAc4PsNYdzTENfXLhk=", "properties": {"ref": "4607 Perkiomen Avenue", "@spider": "vetco", "addr:full": "4607 Perkiomen Avenue", "addr:city": "Reading", "addr:state": "PA", "addr:postcode": "19606", "website": "https://www.vetcoclinics.com/_assets/dynamic/ajax/locator.php?zip=07823", "brand": "Vetco Clinics"}, "geometry": {"type": "Point", "coordinates": [-75.860956, 40.306445]}},
{"type": "Feature", "id": "IM1E6WuB2JXnf0-uU3i1q5pkps0=", "properties": {"ref": "82 East Lancaster Avenue", "@spider": "vetco", "addr:full": "82 East Lancaster Avenue", "addr:city": "Paoli", "addr:state": "PA", "addr:postcode": "19301", "website": "https://www.vetcoclinics.com/_assets/dynamic/ajax/locator.php?zip=07823", "brand": "Vetco Clinics"}, "geometry": {"type": "Point", "coordinates": [-75.479366, 40.041541]}},
{"type": "Feature", "id": "WnHZrK-9azMQ0e_Fl-lh7a8JAdg=", "properties": {"ref": "200 Center Boulevard", "@spider": "vetco", "addr:full": "200 Center Boulevard", "addr:city": "Christiana", "addr:state": "DE", "addr:postcode": "19702", "website": "https://www.vetcoclinics.com/_assets/dynamic/ajax/locator.php?zip=08001", "brand": "Vetco Clinics"}, "geometry": {"type": "Point", "coordinates": [-75.652551, 39.674526]}},
{"type": "Feature", "id": "hbnjFZWK53vETqzJdvUM1BWk-CM=", "properties": {"ref": "3849 South Delsea Drive", "@spider": "vetco", "addr:full": "3849 South Delsea Drive", "addr:city": "Vineland", "addr:state": "NJ", "addr:postcode": "08360", "website": "https://www.vetcoclinics.com/_assets/dynamic/ajax/locator.php?zip=08001", "brand": "Vetco Clinics"}, "geometry": {"type": "Point", "coordinates": [-75.038785, 39.432674]}},
{"type": "Feature", "id": "A6vBHFpLo9wqYx-qvVHxZJq7sl8=", "properties": {"ref": "4491 Kirkwood Highway", "@spider": "vetco", "addr:full": "4491 Kirkwood Highway", "addr:city": "Wilmington", "addr:state": "DE", "addr:postcode": "19808", "website": "https://www.vetcoclinics.com/_assets/dynamic/ajax/locator.php?zip=08001", "brand": "Vetco Clinics"}, "geometry": {"type": "Point", "coordinates": [-75.654382, 39.726501]}},
{"type": "Feature", "id": "tdCd36ceym_-DzDmt6h-Mqh67ss=", "properties": {"ref": "1087 West Baltimore Pike", "@spider": "vetco", "addr:full": "1087 West Baltimore Pike", "addr:city": "Media", "addr:state": "PA", "addr:postcode": "19063", "website": "https://www.vetcoclinics.com/_assets/dynamic/ajax/locator.php?zip=08001", "brand": "Vetco Clinics"}, "geometry": {"type": "Point", "coordinates": [-75.400174, 39.916743]}},
{"type": "Feature", "id": "kwPcogr_Ii8JkxiGSGX13T1_pbk=", "properties": {"ref": "680 Downingtown Pike", "@spider": "vetco", "addr:full": "680 Downingtown Pike", "addr:city": "West Chester", "addr:state": "PA", "addr:postcode": "19380", "website": "https://www.vetcoclinics.com/_assets/dynamic/ajax/locator.php?zip=08001", "brand": "Vetco Clinics"}, "geometry": {"type": "Point", "coordinates": [-75.622651, 39.962073]}},
{"type": "Feature", "id": "BQOQnSF39WkzDa9mbDcYiO90oGw=", "properties": {"ref": "1574 DuPont Hwy", "@spider": "vetco", "addr:full": "1574 DuPont Hwy", "addr:city": "Dover", "addr:state": "DE", "addr:postcode": "19901", "website": "https://www.vetcoclinics.com/_assets/dynamic/ajax/locator.php?zip=08001", "brand": "Vetco Clinics"}, "geometry": {"type": "Point", "coordinates": [-75.528764, 39.131946]}},
{"type": "Feature", "id": "nnXJZO7EPQrggMitE7Nh7dPZykg=", "properties": {"ref": "97 North East Plaza", "@spider": "vetco", "addr:full": "97 North East Plaza", "addr:city": "North East", "addr:state": "MD", "addr:postcode": "21901", "website": "https://www.vetcoclinics.com/_assets/dynamic/ajax/locator.php?zip=08001", "brand": "Vetco Clinics"}, "geometry": {"type": "Point", "coordinates": [-75.952266, 39.608767]}},
{"type": "Feature", "id": "0JkPugtkpPERhwv37EbiGbLQC1Y=", "properties": {"ref": "125 West Lincoln Highway", "@spider": "vetco", "addr:full": "125 West Lincoln Highway", "addr:city": "Exton", "addr:state": "PA", "addr:postcode": "19341", "website": "https://www.vetcoclinics.com/_assets/dynamic/ajax/locator.php?zip=08001", "brand": "Vetco Clinics"}, "geometry": {"type": "Point", "coordinates": [-75.63201, 40.029355]}},
{"type": "Feature", "id": "loqJoPgK0IJweTwT7y7zvvymLmM=", "properties": {"ref": "2350 Lincoln Highway East", "@spider": "vetco", "addr:full": "2350 Lincoln Highway East", "addr:city": "Lancaster", "addr:state": "PA", "addr:postcode": "17602", "website": "https://www.vetcoclinics.com/_assets/dynamic/ajax/locator.php?zip=08001", "brand": "Vetco Clinics"}, "geometry": {"type": "Point", "coordinates": [-76.208817, 40.023983]}},
{"type": "Feature", "id": "cvyyyvdeV6Gr6Hc1p5LbImCQwFI=", "properties": {"ref": "2765 Papermill Road", "@spider": "vetco", "addr:full": "2765 Papermill Road", "addr:city": "Reading", "addr:state": "PA", "addr:postcode": "19610", "website": "https://www.vetcoclinics.com/_assets/dynamic/ajax/locator.php?zip=08014", "brand": "Vetco Clinics"}, "geometry": {"type": "Point", "coordinates": [-75.988496, 40.360985]}},
{"type": "Feature", "id": "aM-tpGbpPWd3j5U1r0N_-3Qic7g=", "properties": {"ref": "18578 Coastal Hwy", "@spider": "vetco", "addr:full": "18578 Coastal Hwy", "addr:city": "Rehobeth Beach", "addr:state": "DE", "addr:postcode": "19971", "website": "https://www.vetcoclinics.com/_assets/dynamic/ajax/locator.php?zip=08038", "brand": "Vetco Clinics"}, "geometry": {"type": "Point", "coordinates": [-75.09677, 38.711512]}},
{"type": "Feature", "id": "qeTvVoHY-eLFtv9orw5FeE0X65s=", "properties": {"ref": "38069 Town Center Dr", "@spider": "vetco", "addr:full": "38069 Town Center Dr", "addr:city": "Millville", "addr:state": "DE", "addr:postcode": "19967", "website": "https://www.vetcoclinics.com/_assets/dynamic/ajax/locator.php?zip=08202", "brand": "Vetco Clinics"}, "geometry": {"type": "Point", "coordinates": [-75.107411, 38.545504]}},
{"type": "Feature", "id": "8VoslHQcgRpFicggvMQvEU20d44=", "properties": {"ref": "12641-310 Ocean Gateway", "@spider": "vetco", "addr:full": "12641-310 Ocean Gateway", "addr:city": "Ocean City", "addr:state": "MD", "addr:postcode": "21842", "website": "https://www.vetcoclinics.com/_assets/dynamic/ajax/locator.php?zip=08202", "brand": "Vetco Clinics"}, "geometry": {"type": "Point", "coordinates": [-75.10936, 38.339]}},
{"type": "Feature", "id": "n-hc4Mt7P-O18Nb070AQUL1fRWA=", "properties": {"ref": "5006 State Highway 23", "@spider": "vetco", "addr:full": "5006 State Highway 23", "addr:city": "Oneonta", "addr:state": "NY", "addr:postcode": "13820", "website": "https://www.vetcoclinics.com/_assets/dynamic/ajax/locator.php?zip=12007", "brand": "Vetco Clinics"}, "geometry": {"type": "Point", "coordinates": [-75.044825, 42.449061]}},
{"type": "Feature", "id": "FNzlSDzixQG38cjVCnEaLXUJEfE=", "properties": {"ref": "420 Harry L Drive", "@spider": "vetco", "addr:full": "420 Harry L Drive", "addr:city": "Johnson City", "addr:state": "NY", "addr:postcode": "13790", "website": "https://www.vetcoclinics.com/_assets/dynamic/ajax/locator.php?zip=12741", "brand": "Vetco Clinics"}, "geometry": {"type": "Point", "coordinates": [-75.966343, 42.121467]}},
{"type": "Feature", "id": "0iCL-QBjRVAfv7Q1j6bIJietpr0=", "properties": {"ref": "3150 Erie Boulevard East", "@spider": "vetco", "addr:full": "3150 Erie Boulevard East", "addr:city": "Dewitt", "addr:state": "NY", "addr:postcode": "13214", "website": "https://www.vetcoclinics.com/_assets/dynamic/ajax/locator.php?zip=13020", "brand": "Vetco Clinics"}, "geometry": {"type": "Point", "coordinates": [-76.076532, 43.054045]}},
{"type": "Feature", "id": "I6oZVwU_w7j0kj7q6wNCtWSOvPc=", "properties": {"ref": "178 Township Blvd", "@spider": "vetco", "addr:full": "178 Township Blvd", "addr:city": "Camillus", "addr:state": "NY", "addr:postcode": "13031", "website": "https://www.vetcoclinics.com/_assets/dynamic/ajax/locator.php?zip=13020", "brand": "Vetco Clinics"}, "geometry": {"type": "Point", "coordinates": [-76.27109, 43.055084]}},
{"type": "Feature", "id": "sbiF4c_748JNQmZfAPl7AncVQ2E=", "properties": {"ref": "10 Northern Lights (RT 11)", "@spider": "vetco", "addr:full": "10 Northern Lights (RT 11)", "addr:city": "North Syracuse", "addr:state": "NY", "addr:postcode": "13212", "website": "https://www.vetcoclinics.com/_assets/dynamic/ajax/locator.php?zip=13020", "brand": "Vetco Clinics"}, "geometry": {"type": "Point", "coordinates": [-76.145008, 43.109006]}},
{"type": "Feature", "id": "VdNCAngBja0fD4MHPhWY2qXuK3s=", "properties": {"ref": "1622 Clark Street Road", "@spider": "vetco", "addr:full": "1622 Clark Street Road", "addr:city": "Auburn", "addr:state": "NY", "addr:postcode": "13021", "website": "https://www.vetcoclinics.com/_assets/dynamic/ajax/locator.php?zip=13020", "brand": "Vetco Clinics"}, "geometry": {"type": "Point", "coordinates": [-76.596829, 42.931164]}},
{"type": "Feature", "id": "iP9nKceVLh4tWJcV8DmmHiIzGRc=", "properties": {"ref": "324 Eastern Boulevard", "@spider": "vetco", "addr:full": "324 Eastern Boulevard", "addr:city": "Canadaigua", "addr:state": "NY", "addr:postcode": "14424", "website": "https://www.vetcoclinics.com/_assets/dynamic/ajax/locator.php?zip=13021", "brand": "Vetco Clinics"}, "geometry": {"type": "Point", "coordinates": [-77.254998, 42.878636]}},
{"type": "Feature", "id": "-CVEtAlgzzH3YWarSrWe8JBcQOY=", "properties": {"ref": "3200 Monroe Avenue", "@spider": "vetco", "addr:full": "3200 Monroe Avenue", "addr:city": "Rochester", "addr:state": "NY", "addr:postcode": "14618", "website": "https://www.vetcoclinics.com/_assets/dynamic/ajax/locator.php?zip=13021", "brand": "Vetco Clinics"}, "geometry": {"type": "Point", "coordinates": [-77.540648, 43.105904]}},
{"type": "Feature", "id": "DI6CvdgtlU3a8om9TA8IbEwZHpA=", "properties": {"ref": "2255 Ridge Road East", "@spider": "vetco", "addr:full": "2255 Ridge Road East", "addr:city": "Irondequoit", "addr:state": "NY", "addr:postcode": "14622", "website": "https://www.vetcoclinics.com/_assets/dynamic/ajax/locator.php?zip=13021", "brand": "Vetco Clinics"}, "geometry": {"type": "Point", "coordinates": [-77.559129, 43.203471]}},
{"type": "Feature", "id": "JSZTCOmpQz4U8_yRd83lF0W1AEE=", "properties": {"ref": "300 Hylan Drive", "@spider": "vetco", "addr:full": "300 Hylan Drive", "addr:city": "Henrietta", "addr:state": "NY", "addr:postcode": "14623", "website": "https://www.vetcoclinics.com/_assets/dynamic/ajax/locator.php?zip=13021", "brand": "Vetco Clinics"}, "geometry": {"type": "Point", "coordinates": [-77.627403, 43.085626]}},
{"type": "Feature", "id": "e1EELj4sYquH60z6aJyYE6HxHgA=", "properties": {"ref": "831 County Road 64", "@spider": "vetco", "addr:full": "831 County Road 64", "addr:city": "Elmira", "addr:state": "NY", "addr:postcode": "14903", "website": "https://www.vetcoclinics.com/_assets/dynamic/ajax/locator.php?zip=13021", "brand": "Vetco Clinics"}, "geometry": {"type": "Point", "coordinates": [-76.882237, 42.154915]}},
{"type": "Feature", "id": "8iy6cSEXwL87vzMuetCPXHkWHdA=", "properties": {"ref": "21851 Towne Center Drive", "@spider": "vetco", "addr:full": "21851 Towne Center Drive", "addr:city": "Watertown", "addr:state": "NY", "addr:postcode": "13601", "website": "https://www.vetcoclinics.com/_assets/dynamic/ajax/locator.php?zip=13027", "brand": "Vetco Clinics"}, "geometry": {"type": "Point", "coordinates": [-75.962817, 43.971826]}},